timestamp,rollspeed,pitchspeed,yawspeed,q[0],q[1],q[2],q[3],delta_q_reset[0],delta_q_reset[1],delta_q_reset[2],delta_q_reset[3],quat_reset_counter
519054068,0.0009491574,-0.00075599545,-0.0024769623,0.97840273,0.011332079,0.011744503,0.20606247,0.99999934,2.0490073e-05,-3.0692918e-05,-0.0012289668,3
519086068,0.00053322455,-0.0002109203,-0.0005613123,0.97840506,0.011336367,0.011751129,0.20605107,0.99999934,2.0490073e-05,-3.0692918e-05,-0.0012289668,3
519118102,4.027039e-06,-0.00031521308,-0.00047254888,0.97840685,0.01134239,0.011746777,0.20604238,0.99999934,2.0490073e-05,-3.0692918e-05,-0.0012289668,3
519149272,0.0001043356,0.0003323799,-2.644118e-05,0.97840995,0.011333971,0.011751862,0.2060279,0.99999934,2.0490073e-05,-3.0692918e-05,-0.0012289668,3
519181272,0.00041154935,-0.0032063029,-0.0021651816,0.9784075,0.011336124,0.011754139,0.20603953,0.99999934,2.0490073e-05,-3.0692918e-05,-0.0012289668,3
519213272,-0.00042548287,-0.00011330133,-0.00035166182,0.97840375,0.011334122,0.011752978,0.20605722,0.99999934,2.0490073e-05,-3.0692918e-05,-0.0012289668,3
519245286,0.001072895,0.00021122926,-0.0028226282,0.9784083,0.011338155,0.011742425,0.20603627,0.99999934,2.0490073e-05,-3.0692918e-05,-0.0012289668,3
519277272,-0.0011686028,0.0024448698,-0.0022689013,0.97841436,0.011325889,0.011747542,0.20600754,0.99999934,2.0490073e-05,-3.0692918e-05,-0.0012289668,3
519309279,3.4227734e-05,0.00084632955,0.0006971825,0.9784153,0.011316836,0.011744532,0.2060038,0.99999934,2.0490073e-05,-3.0692918e-05,-0.0012289668,3
519337286,-0.00094062625,-0.0013784881,0.002510924,0.97840565,0.011320734,0.011745092,0.2060497,0.99999934,2.0490073e-05,-3.0692918e-05,-0.0012289668,3
519369279,0.0008895281,0.00075576856,0.0026052268,0.97839147,0.011321202,0.011739286,0.20611711,0.99999934,2.0490073e-05,-3.0692918e-05,-0.0012289668,3
519401282,0.002030709,0.000633333,0.000368041,0.9783845,0.011318847,0.01173544,0.20615052,0.99999934,2.0490073e-05,-3.0692918e-05,-0.0012289668,3
519433278,0.0020168563,0.00084624486,-0.0036815458,0.97838736,0.011322333,0.011744916,0.20613588,0.99999934,2.0490073e-05,-3.0692918e-05,-0.0012289668,3
519465282,-0.0019565842,-0.00035451743,-0.008454431,0.97840106,0.011315226,0.011735434,0.20607218,0.99999934,2.0490073e-05,-3.0692918e-05,-0.0012289668,3
519496468,-0.0019253532,0.00010033607,-0.005358454,0.978421,0.011290427,0.01172168,0.20597987,0.99999934,2.0490073e-05,-3.0692918e-05,-0.0012289668,3
519528476,-0.001393155,0.00052234303,-0.002482592,0.9784368,0.011265724,0.011707431,0.20590636,0.99999934,2.0490073e-05,-3.0692918e-05,-0.0012289668,3
519560468,0.0034063912,0.00095301535,0.0006840527,0.9784405,0.011281763,0.011705091,0.20588808,0.99999934,2.0490073e-05,-3.0692918e-05,-0.0012289668,3
519592468,0.00068911375,-0.00071971735,0.004515465,0.9784251,0.011270816,0.011708659,0.20596175,0.99999934,2.0490073e-05,-3.0692918e-05,-0.0012289668,3
519620467,0.003147896,0.00033511594,0.007056712,0.97840476,0.0112857465,0.0117182415,0.20605719,0.99999934,2.0490073e-05,-3.0692918e-05,-0.0012289668,3
519652478,0.0021755132,0.00066638907,0.0055593755,0.97838193,0.011297628,0.011709127,0.20616521,0.99999934,2.0490073e-05,-3.0692918e-05,-0.0012289668,3
519684468,0.0017965497,9.943676e-05,-0.00048683817,0.9783772,0.011280595,0.011720089,0.20618811,0.99999934,2.0490073e-05,-3.0692918e-05,-0.0012289668,3
519716478,-0.00031013647,-0.0019208208,-0.0015380892,0.9783845,0.011272749,0.011705929,0.2061548,0.99999934,2.0490073e-05,-3.0692918e-05,-0.0012289668,3
519748468,-0.0030018648,0.0008522534,-0.0054612868,0.9784026,0.011248786,0.011701455,0.20607051,0.99999934,2.0490073e-05,-3.0692918e-05,-0.0012289668,3
519780506,0.0016934085,0.0011671471,-0.0042156735,0.97842276,0.011237114,0.01169798,0.20597538,0.99999934,2.0490073e-05,-3.0692918e-05,-0.0012289668,3
519812468,-0.0010586937,9.4920484e-05,0.0004948303,0.978427,0.011238824,0.0116976695,0.2059553,0.99999934,2.0490073e-05,-3.0692918e-05,-0.0012289668,3
519844468,0.0010933992,0.0020250662,0.00356765,0.9784144,0.011249816,0.011703325,0.20601384,0.99999934,2.0490073e-05,-3.0692918e-05,-0.0012289668,3
519875668,-0.0034470086,-0.003276455,0.006038057,0.97839403,0.011251331,0.011690998,0.2061112,0.99999934,2.0490073e-05,-3.0692918e-05,-0.0012289668,3
519907668,0.00068784715,-0.0010602538,0.0050642015,0.9783766,0.011260134,0.011706571,0.20619275,0.99999934,2.0490073e-05,-3.0692918e-05,-0.0012289668,3
519935668,0.0010860637,-0.0017894863,-0.00027265772,0.9783712,0.011273186,0.011695993,0.20621817,0.99999934,2.0490073e-05,-3.0692918e-05,-0.0012289668,3
519967670,-0.0022660433,0.00042233767,-0.0049218917,0.97838104,0.011278983,0.011679491,0.2061722,0.99999934,2.0490073e-05,-3.0692918e-05,-0.0012289668,3
519999702,0.001997578,0.0030602538,-0.0050712284,0.9783968,0.011279768,0.01167023,0.2060979,0.99999934,2.0490073e-05,-3.0692918e-05,-0.0012289668,3
520031668,0.000729067,-0.0036293282,-0.003459801,0.9784138,0.011281043,0.011644119,0.20601851,0.99999934,2.0490073e-05,-3.0692918e-05,-0.0012289668,3
520067677,-0.0019207578,-0.0008464457,-0.00110101,0.97842616,0.011284652,0.0116307745,0.20596062,0.99999934,2.0490073e-05,-3.0692918e-05,-0.0012289668,3
520099676,0.0015918805,-0.0021314386,-0.001974917,0.97842735,0.011304189,0.011621913,0.20595431,0.99999934,2.0490073e-05,-3.0692918e-05,-0.0012289668,3
520131668,0.00054074894,0.0022344938,0.00122257,0.9784217,0.011313265,0.0116372,0.20597976,0.99999934,2.0490073e-05,-3.0692918e-05,-0.0012289668,3
520159670,0.002339341,-0.0013845961,-0.00058366824,0.9784195,0.011314929,0.011638772,0.20598978,0.99999934,2.0490073e-05,-3.0692918e-05,-0.0012289668,3
520191668,0.0013920652,-0.0009305889,0.0020674164,0.9784166,0.011325462,0.011638532,0.20600314,0.99999934,2.0490073e-05,-3.0692918e-05,-0.0012289668,3
520223668,0.0024437038,0.00065512664,0.0005533756,0.97841555,0.011316146,0.011633635,0.20600902,0.99999934,2.0490073e-05,-3.0692918e-05,-0.0012289668,3
520254868,-0.00093558966,0.0031951822,0.003249656,0.9784068,0.01132395,0.01167003,0.20604822,0.99999934,2.0490073e-05,-3.0692918e-05,-0.0012289668,3
520286874,0.003580082,0.0027891076,0.0059803734,0.97838986,0.01131283,0.01169284,0.20612797,0.99999934,2.0490073e-05,-3.0692918e-05,-0.0012289668,3
520318874,0.0017226563,0.00015640429,0.007722919,0.978365,0.011320105,0.011703589,0.20624489,0.99999934,2.0490073e-05,-3.0692918e-05,-0.0012289668,3
520350888,0.00079310033,0.0021461013,0.003975129,0.97834396,0.011369319,0.011730021,0.2063406,0.99999934,2.0490073e-05,-3.0692918e-05,-0.0012289668,3
520382868,0.0033902207,0.0017015536,-0.0028444778,0.97834116,0.01141101,0.011765763,0.2063494,0.99999934,2.0490073e-05,-3.0692918e-05,-0.0012289668,3
520414879,-0.004435415,-0.00014694287,-0.01034281,0.9783643,0.011410546,0.011758281,0.20623992,0.99999934,2.0490073e-05,-3.0692918e-05,-0.0012289668,3
520446870,-0.006488939,-0.0019604028,-0.017886138,0.97841394,0.011352086,0.011706203,0.20601068,0.99999934,2.0490073e-05,-3.0692918e-05,-0.0012289668,3
520478868,-0.006600314,0.00039057177,-0.017358959,0.9784749,0.011283997,0.011660057,0.2057271,0.99999934,2.0490073e-05,-3.0692918e-05,-0.0012289668,3
520510875,-0.0003478597,0.00051245943,-0.0056901257,0.97850764,0.011272819,0.011635864,0.2055734,0.99999934,2.0490073e-05,-3.0692918e-05,-0.0012289668,3
520542868,0.008677341,-0.0032250308,0.014680416,0.97848886,0.01131491,0.011598414,0.20566261,0.99999934,2.0490073e-05,-3.0692918e-05,-0.0012289668,3
520574878,0.00032906816,-0.003151153,0.032190803,0.97840434,0.011359134,0.011580881,0.20606306,0.99999934,2.0490073e-05,-3.0692918e-05,-0.0012289668,3
520606868,0.002702447,0.0008230624,0.028879141,0.9782977,0.011404618,0.011588055,0.20656534,0.99999934,2.0490073e-05,-3.0692918e-05,-0.0012289668,3
520638068,-0.00033115875,0.0026949062,0.012391221,0.978225,0.01141995,0.011615143,0.20690753,0.99999934,2.0490073e-05,-3.0692918e-05,-0.0012289668,3
520670068,-0.00048738904,-0.00037479453,-0.012399068,0.9782348,0.011407223,0.011599557,0.2068623,0.99999934,2.0490073e-05,-3.0692918e-05,-0.0012289668,3
520702068,-0.006655674,-0.0020245074,-0.042783577,0.97833854,0.011323893,0.011539113,0.20637931,0.99999934,2.0490073e-05,-3.0692918e-05,-0.0012289668,3
520734075,-0.0041153533,0.0012714214,-0.04536078,0.9784911,0.011228248,0.011466888,0.20566356,0.99999934,2.0490073e-05,-3.0692918e-05,-0.0012289668,3
520766068,-0.0021587787,0.00047554632,-0.021962784,0.9786003,0.011190888,0.011474345,0.20514531,0.99999934,2.0490073e-05,-3.0692918e-05,-0.0012289668,3
520798089,0.003877799,-1.648505e-05,0.025931362,0.9785849,0.011230513,0.011486845,0.20521569,0.99999934,2.0490073e-05,-3.0692918e-05,-0.0012289668,3
520830068,0.007051626,0.002482977,0.057373315,0.9784312,0.011292371,0.011512099,0.20594276,0.99999934,2.0490073e-05,-3.0692918e-05,-0.0012289668,3
520862109,0.009034939,0.0070824716,0.050935164,0.9782396,0.0114038875,0.011615554,0.2068392,0.99999934,2.0490073e-05,-3.0692918e-05,-0.0012289668,3
520894068,-0.0007088785,0.00026274013,0.011265855,0.9781379,0.011456824,0.011709335,0.207311,0.99999934,2.0490073e-05,-3.0692918e-05,-0.0012289668,3
520926092,-0.0073574875,-0.0037119465,-0.030438406,0.9781837,0.011405553,0.011654911,0.20710103,0.99999934,2.0490073e-05,-3.0692918e-05,-0.0012289668,3
520958074,-0.010988703,-0.0033067022,-0.057562467,0.97834456,0.0112362895,0.011594841,0.2063525,0.99999934,2.0490073e-05,-3.0692918e-05,-0.0012289668,3
520989297,-0.008371542,-0.0024748137,-0.044253066,0.97851276,0.011076712,0.011520073,0.20556588,0.99999934,2.0490073e-05,-3.0692918e-05,-0.0012289668,3
521021277,0.0039866758,-0.0031113992,-0.0092191575,0.9786006,0.0110571915,0.011440503,0.20515299,0.99999934,2.0490073e-05,-3.0692918e-05,-0.0012289668,3
521053272,0.017216481,0.0033612896,0.027184378,0.97856003,0.011223055,0.011483721,0.20533542,0.99999934,2.0490073e-05,-3.0692918e-05,-0.0012289668,3
521085272,0.013946148,0.0017205781,0.050404333,0.9784184,0.011472103,0.011599141,0.20598854,0.99999934,2.0490073e-05,-3.0692918e-05,-0.0012289668,3
521117296,-0.0021905291,-0.0056615467,0.045762103,0.97825867,0.01158444,0.011534994,0.20674339,0.99999934,2.0490073e-05,-3.0692918e-05,-0.0012289668,3
521149274,-0.011189012,0.0010942823,0.015560798,0.9781611,0.011493593,0.011492802,0.2072119,0.99999934,2.0490073e-05,-3.0692918e-05,-0.0012289668,3
521181296,-0.01501014,-0.0009486729,-0.024575477,0.9781755,0.011267573,0.011526453,0.20715411,0.99999934,2.0490073e-05,-3.0692918e-05,-0.0012289668,3
521213271,-0.009520788,-0.0054098396,-0.058100358,0.97832894,0.011080415,0.011445868,0.20644306,0.99999934,2.0490073e-05,-3.0692918e-05,-0.0012289668,3
521245284,0.009943055,-0.0019256176,-0.04641366,0.97850865,0.01111936,0.01140053,0.20559013,0.99999934,2.0490073e-05,-3.0692918e-05,-0.0012289668,3
521277275,0.0119422,-0.011742771,-0.012545349,0.97859997,0.011314512,0.011327872,0.20514832,0.99999934,2.0490073e-05,-3.0692918e-05,-0.0012289668,3
521309276,0.00044241385,0.009031301,0.017922163,0.9785795,0.011393001,0.0112852445,0.20524393,0.99999934,2.0490073e-05,-3.0692918e-05,-0.0012289668,3
521340468,0.0038479513,0.012390673,0.055978637,0.9784517,0.011348483,0.011467689,0.2058447,0.99999934,2.0490073e-05,-3.0692918e-05,-0.0012289668,3
521372497,0.003797951,0.0033377996,0.049705178,0.97826606,0.011450341,0.011577036,0.20671336,0.99999934,2.0490073e-05,-3.0692918e-05,-0.0012289668,3
521404475,-0.012356042,0.001957365,0.010113396,0.9781745,0.0112897325,0.011560502,0.20715612,0.99999934,2.0490073e-05,-3.0692918e-05,-0.0012289668,3
521436468,0.0034159555,-0.006781051,0.001643328,0.9781628,0.01126893,0.011543578,0.20721322,0.99999934,2.0490073e-05,-3.0692918e-05,-0.0012289668,3
521468468,0.021637183,0.00097124686,-0.028923972,0.9782018,0.011455145,0.011571797,0.20701689,0.99999934,2.0490073e-05,-3.0692918e-05,-0.0012289668,3
521496478,-0.023832697,0.0028286828,-0.009789749,0.9782529,0.011326874,0.011588063,0.20678225,0.99999934,2.0490073e-05,-3.0692918e-05,-0.0012289668,3
521528468,0.019749558,-0.012506983,-0.0213081,0.9783423,0.011221792,0.011557429,0.20636596,0.99999934,2.0490073e-05,-3.0692918e-05,-0.0012289668,3
521560468,-0.026652953,-0.015424276,0.00718633,0.9782847,0.011134877,0.011336575,0.20665589,0.99999934,2.0490073e-05,-3.0692918e-05,-0.0012289668,3
521592468,0.0074584126,0.004269386,0.0036335406,0.9783115,0.011246708,0.011342288,0.20652269,0.99999934,2.0490073e-05,-3.0692918e-05,-0.0012289668,3
521624468,-0.0043236595,0.0058675325,0.019897755,0.97820663,0.011227771,0.011092789,0.20703314,0.99999934,2.0490073e-05,-3.0692918e-05,-0.0012289668,3
521656468,0.048668087,0.00040738698,-0.01035036,0.97821844,0.011665961,0.011132151,0.20695105,0.99999934,2.0490073e-05,-3.0692918e-05,-0.0012289668,3
521688474,-0.03065192,-0.016448945,0.020420946,0.9781848,0.011330257,0.010766517,0.20714802,0.99999934,2.0490073e-05,-3.0692918e-05,-0.0012289668,3
521719674,0.042356145,-0.031046795,-0.038595095,0.97823775,0.011439135,0.010579731,0.20690167,0.99999934,2.0490073e-05,-3.0692918e-05,-0.0012289668,3
521751668,-0.0038849905,-0.0073185298,0.008856095,0.9782863,0.011174103,0.010353016,0.20669733,0.99999934,2.0490073e-05,-3.0692918e-05,-0.0012289668,3
521783677,0.029424254,-0.012223384,-0.025788574,0.9783093,0.011005525,0.010246578,0.20660336,0.99999934,2.0490073e-05,-3.0692918e-05,-0.0012289668,3
521811668,0.0035735825,0.0030592917,0.00566169,0.9783468,0.011335415,0.010290056,0.20640567,0.99999934,2.0490073e-05,-3.0692918e-05,-0.0012289668,3
521843686,0.0050149425,-0.00441915,0.016110111,0.9782771,0.011111932,0.010243911,0.20674963,0.99999934,2.0490073e-05,-3.0692918e-05,-0.0012289668,3
521875668,0.028891195,0.026812475,-0.0060391193,0.9782823,0.011709774,0.010431313,0.20668307,0.99999934,2.0490073e-05,-3.0692918e-05,-0.0012289668,3
521907668,-0.024467884,0.011588261,0.02096958,0.9782094,0.011296519,0.010447476,0.2070501,0.99999934,2.0490073e-05,-3.0692918e-05,-0.0012289668,3
521939668,0.023164801,0.015870847,-0.016353317,0.97822773,0.01143525,0.010651124,0.20694527,0.99999934,2.0490073e-05,-3.0692918e-05,-0.0012289668,3
521971671,-0.038902722,0.008541501,0.01275505,0.97823966,0.011121592,0.0108809555,0.2068939,0.99999934,2.0490073e-05,-3.0692918e-05,-0.0012289668,3
522003702,0.038331095,0.01146556,-0.032308638,0.9782811,0.010993405,0.010939028,0.2067018,0.99999934,2.0490073e-05,-3.0692918e-05,-0.0012289668,3
522035668,-0.02779858,0.0010183385,0.001206697,0.978337,0.0112975165,0.011354576,0.20639853,0.99999934,2.0490073e-05,-3.0692918e-05,-0.0012289668,3
522066098,0.007012654,0.0077719633,0.0012206538,0.9782996,0.010962265,0.011308066,0.20659578,0.99999934,2.0490073e-05,-3.0692918e-05,-0.0012289668,3
522098880,0.019380469,0.02923315,0.0026846346,0.97832096,0.011593115,0.011762757,0.20643502,0.99999934,2.0490073e-05,-3.0692918e-05,-0.0012289668,3
522130868,-0.0057009645,-0.02855564,0.020614242,0.9782476,0.011040126,0.011448324,0.20683022,0.99999934,2.0490073e-05,-3.0692918e-05,-0.0012289668,3
522162868,0.035339773,-0.0010797222,-0.0132043185,0.97824204,0.0113432715,0.011602716,0.20683153,0.99999934,2.0490073e-05,-3.0692918e-05,-0.0012289668,3
522194868,-0.05669253,-0.010714763,0.031971745,0.9782261,0.011051077,0.011484372,0.20692939,0.99999934,2.0490073e-05,-3.0692918e-05,-0.0012289668,3
522226903,0.050514646,0.015648592,-0.026954275,0.97825646,0.011109441,0.011236841,0.20679612,0.99999934,2.0490073e-05,-3.0692918e-05,-0.0012289668,3
522258873,-0.03593612,-0.050359998,-0.0076691993,0.97831047,0.0114100985,0.011166694,0.20652825,0.99999934,2.0490073e-05,-3.0692918e-05,-0.0012289668,3
522290868,-0.01017558,0.0008343972,0.0041619213,0.9782948,0.011048227,0.010651675,0.2066488,0.99999934,2.0490073e-05,-3.0692918e-05,-0.0012289668,3
522318874,0.034213368,-0.013127444,-0.019404735,0.97834736,0.011579013,0.010734051,0.20636679,0.99999934,2.0490073e-05,-3.0692918e-05,-0.0012289668,3
522350880,-0.03344388,-0.023399344,0.018116385,0.9782946,0.011026513,0.01030781,0.20666838,0.99999934,2.0490073e-05,-3.0692918e-05,-0.0012289668,3
522382868,0.041008376,0.026216855,-0.002505425,0.9782833,0.011391484,0.010369624,0.20669903,0.99999934,2.0490073e-05,-3.0692918e-05,-0.0012289668,3
522414868,-0.035847194,-0.01898787,0.022576477,0.9782724,0.011243629,0.010272891,0.20676386,0.99999934,2.0490073e-05,-3.0692918e-05,-0.0012289668,3
522446868,0.03681138,0.015734687,-0.02591738,0.9782504,0.011227951,0.010230095,0.20687082,0.99999934,2.0490073e-05,-3.0692918e-05,-0.0012289668,3
522478068,-0.039248213,0.015373789,0.01259859,0.97829217,0.011577959,0.010640859,0.2066327,0.99999934,2.0490073e-05,-3.0692918e-05,-0.0012289668,3
522510117,0.025910463,-0.00094892055,-0.00657241,0.9782831,0.011083874,0.010445486,0.20671281,0.99999934,2.0490073e-05,-3.0692918e-05,-0.0012289668,3
522542077,0.006805496,0.017600259,-0.027794646,0.978336,0.0114453705,0.010924257,0.20641798,0.99999934,2.0490073e-05,-3.0692918e-05,-0.0012289668,3
522574068,-0.045070074,0.009602682,0.017401943,0.9783174,0.010812488,0.010869199,0.20654318,0.99999934,2.0490073e-05,-3.0692918e-05,-0.0012289668,3
522606077,0.04978888,0.035613902,-0.010662587,0.978322,0.011253219,0.011303838,0.2064743,0.99999934,2.0490073e-05,-3.0692918e-05,-0.0012289668,3
522634068,-0.031180957,-0.011460346,0.015712587,0.97831297,0.01120514,0.011525999,0.2065077,0.99999934,2.0490073e-05,-3.0692918e-05,-0.0012289668,3
522666068,0.045452267,0.0059457878,0.0077712485,0.9782591,0.011099523,0.011495061,0.2067703,0.99999934,2.0490073e-05,-3.0692918e-05,-0.0012289668,3
522698068,-0.04177303,-0.00099043,-0.0060652765,0.9782859,0.011503874,0.011796414,0.20660415,0.99999934,2.0490073e-05,-3.0692918e-05,-0.0012289668,3
522730068,-0.01832081,0.0024497758,0.008046382,0.9782607,0.010900572,0.011414002,0.20677729,0.99999934,2.0490073e-05,-3.0692918e-05,-0.0012289668,3
522761272,0.025146784,0.0009276756,-0.02136219,0.97830445,0.011414608,0.011600512,0.20653212,0.99999934,2.0490073e-05,-3.0692918e-05,-0.0012289668,3
522793274,-0.036876995,-0.034983966,0.010267343,0.9783227,0.010954692,0.011210573,0.20649227,0.99999934,2.0490073e-05,-3.0692918e-05,-0.0012289668,3
522825278,0.030833313,-0.0014875017,-0.01805853,0.97832763,0.011215326,0.011011504,0.206466,0.99999934,2.0490073e-05,-3.0692918e-05,-0.0012289668,3
522857273,-0.029083693,-0.03793629,0.021466026,0.9783477,0.011373027,0.010797726,0.20637326,0.99999934,2.0490073e-05,-3.0692918e-05,-0.0012289668,3
522889271,0.047201425,-0.0139192175,0.0008495189,0.9783013,0.01111925,0.01035454,0.20662983,0.99999934,2.0490073e-05,-3.0692918e-05,-0.0012289668,3
522921292,-0.035733312,0.011559791,-0.0014627236,0.9783107,0.01153042,0.010549093,0.20655268,0.99999934,2.0490073e-05,-3.0692918e-05,-0.0012289668,3
522953274,-0.048332024,-0.01660887,0.010515295,0.9782672,0.010875615,0.010024056,0.2068204,0.99999934,2.0490073e-05,-3.0692918e-05,-0.0012289668,3
522985274,0.06150831,0.009145258,-0.013707396,0.97829694,0.011501241,0.0102809295,0.20663342,0.99999934,2.0490073e-05,-3.0692918e-05,-0.0012289668,3
523017275,-0.05856214,-0.025653066,0.0021989322,0.97831184,0.011014043,0.010102966,0.20659783,0.99999934,2.0490073e-05,-3.0692918e-05,-0.0012289668,3
523049278,0.044159114,0.024932973,-0.015441884,0.9783149,0.011261849,0.010354931,0.20655778,0.99999934,2.0490073e-05,-3.0692918e-05,-0.0012289668,3
523081272,-0.026534783,-0.0140058715,0.01611147,0.97835153,0.011362757,0.01063717,0.20636418,0.99999934,2.0490073e-05,-3.0692918e-05,-0.0012289668,3
523113276,0.032717776,0.019846458,-0.006324996,0.97831815,0.01096114,0.010628354,0.20654422,0.99999934,2.0490073e-05,-3.0692918e-05,-0.0012289668,3
523144472,-0.006094237,0.02362013,-0.0025195214,0.9783253,0.011360661,0.011138109,0.20646231,0.99999934,2.0490073e-05,-3.0692918e-05,-0.0012289668,3
523176502,-0.025266128,0.008458764,0.028807111,0.9782799,0.010715488,0.011031802,0.20671701,0.99999934,2.0490073e-05,-3.0692918e-05,-0.0012289668,3
523208489,0.06863687,0.024147216,-0.018460818,0.9782915,0.011318621,0.011553056,0.20660159,0.99999934,2.0490073e-05,-3.0692918e-05,-0.0012289668,3
523240468,-0.070405856,-0.008795928,-0.0006341273,0.9782917,0.01087035,0.01152949,0.2066263,0.99999934,2.0490073e-05,-3.0692918e-05,-0.0012289668,3
523272475,0.037680965,0.023092335,-0.007907456,0.97828245,0.0111444155,0.011629365,0.20664929,0.99999934,2.0490073e-05,-3.0692918e-05,-0.0012289668,3
523304470,-0.035532173,-0.01415086,0.0069047525,0.97832423,0.011227258,0.011675457,0.20644431,0.99999934,2.0490073e-05,-3.0692918e-05,-0.0012289668,3
523336468,0.01718161,-0.0032414158,-0.013043267,0.97830313,0.010862701,0.011325437,0.20658354,0.99999934,2.0490073e-05,-3.0692918e-05,-0.0012289668,3
523368501,-0.028479028,-0.013417179,-0.005881393,0.97832906,0.011349201,0.011452796,0.2064274,0.99999934,2.0490073e-05,-3.0692918e-05,-0.0012289668,3
523400468,-0.008210937,-0.02095626,0.019894639,0.97831035,0.010791257,0.010834951,0.20657937,0.99999934,2.0490073e-05,-3.0692918e-05,-0.0012289668,3
523428468,0.039000902,-0.0008809493,-0.0168521,0.97831565,0.011343845,0.01081302,0.20652598,0.99999934,2.0490073e-05,-3.0692918e-05,-0.0012289668,3
523460468,-0.0605935,-0.030718407,0.014233144,0.978323,0.011106543,0.010476734,0.20652105,0.99999934,2.0490073e-05,-3.0692918e-05,-0.0012289668,3
523492513,0.057742294,0.01061352,-0.0089262,0.97829974,0.011181389,0.010317116,0.20663568,0.99999934,2.0490073e-05,-3.0692918e-05,-0.0012289668,3
523526900,-0.039018583,-0.024385856,0.006187311,0.97832793,0.0113247335,0.010352207,0.20649217,0.99999934,2.0490073e-05,-3.0692918e-05,-0.0012289668,3
523559682,0.03762026,0.012403324,-0.00086353626,0.9783054,0.01093527,0.010106907,0.20663226,0.99999934,2.0490073e-05,-3.0692918e-05,-0.0012289668,3
523591668,-0.011260979,0.0024076786,-0.0077717286,0.97833234,0.011432843,0.010489988,0.20645882,0.99999934,2.0490073e-05,-3.0692918e-05,-0.0012289668,3
523623680,-0.0134406015,0.013740781,0.009515172,0.9783219,0.010849047,0.010355206,0.20654617,0.99999934,2.0490073e-05,-3.0692918e-05,-0.0012289668,3
523655668,0.016074426,0.034216512,-0.01718238,0.97833437,0.0114003625,0.010903677,0.20642911,0.99999934,2.0490073e-05,-3.0692918e-05,-0.0012289668,3
523687691,-0.03371755,0.004033578,0.015763542,0.9783372,0.010988147,0.011012189,0.20643233,0.99999934,2.0490073e-05,-3.0692918e-05,-0.0012289668,3
523715668,0.039034072,0.025662052,-0.0069040996,0.97831684,0.010946813,0.0111807315,0.20652229,0.99999934,2.0490073e-05,-3.0692918e-05,-0.0012289668,3
523747670,-0.045277093,0.0025608824,-0.00021067169,0.9783336,0.011163449,0.011556893,0.20641044,0.99999934,2.0490073e-05,-3.0692918e-05,-0.0012289668,3
523779674,0.01835745,0.030772103,0.010377886,0.978309,0.010706248,0.011484155,0.20655514,0.99999934,2.0490073e-05,-3.0692918e-05,-0.0012289668,3
523811668,0.022506578,0.015749179,-0.016773516,0.9783281,0.011287328,0.011906707,0.20640999,0.99999934,2.0490073e-05,-3.0692918e-05,-0.0012289668,3
523843677,-0.049580157,-0.0337877,0.007662081,0.9783222,0.010805788,0.011599168,0.20648113,0.99999934,2.0490073e-05,-3.0692918e-05,-0.0012289668,3
523874868,0.07402162,0.010611645,-0.006521852,0.97831976,0.011302922,0.011648956,0.2064632,0.99999934,2.0490073e-05,-3.0692918e-05,-0.0012289668,3
523906897,-0.052784476,-0.021990886,0.0004585823,0.97834426,0.011012679,0.011382006,0.20637794,0.99999934,2.0490073e-05,-3.0692918e-05,-0.0012289668,3
523938910,0.040730342,-0.019999659,-0.011045157,0.97831625,0.01094367,0.011118936,0.2065287,0.99999934,2.0490073e-05,-3.0692918e-05,-0.0012289668,3
523970868,-0.042804714,-0.018900985,0.010890486,0.9783364,0.011266168,0.011098247,0.20641696,0.99999934,2.0490073e-05,-3.0692918e-05,-0.0012289668,3
523998868,0.014470109,-0.031671446,0.00409138,0.9783248,0.010834648,0.010572351,0.20652258,0.99999934,2.0490073e-05,-3.0692918e-05,-0.0012289668,3
524030881,0.0074908743,-0.007551533,-0.013096839,0.97832364,0.011438296,0.0106215775,0.20649281,0.99999934,2.0490073e-05,-3.0692918e-05,-0.0012289668,3
524062868,-0.047038138,-0.014958947,0.017705956,0.9783232,0.011059109,0.01032444,0.20653035,0.99999934,2.0490073e-05,-3.0692918e-05,-0.0012289668,3
524094906,0.100207716,0.023890829,-0.007060325,0.9783108,0.01137109,0.010344827,0.20657155,0.99999934,2.0490073e-05,-3.0692918e-05,-0.0012289668,3
524126868,-0.035332277,-0.012049421,-0.013205042,0.97833616,0.011160845,0.01028523,0.20646596,0.99999934,2.0490073e-05,-3.0692918e-05,-0.0012289668,3
524158894,-0.019211985,-0.011896487,0.0015953253,0.9783137,0.010916584,0.010163196,0.20659143,0.99999934,2.0490073e-05,-3.0692918e-05,-0.0012289668,3
524190868,-0.00082950434,0.029483182,0.0031127506,0.9783457,0.01137532,0.010524396,0.20639664,0.99999934,2.0490073e-05,-3.0692918e-05,-0.0012289668,3
524222868,0.009505681,0.018362608,-0.0032454766,0.97833943,0.010838355,0.010477477,0.20645767,0.99999934,2.0490073e-05,-3.0692918e-05,-0.0012289668,3
524254069,0.009688117,0.022009507,0.001353451,0.9783278,0.011423207,0.010973881,0.20645571,0.99999934,2.0490073e-05,-3.0692918e-05,-0.0012289668,3
524286078,-0.041766346,0.0009887223,0.014990669,0.9783237,0.010958951,0.010960514,0.20650108,0.99999934,2.0490073e-05,-3.0692918e-05,-0.0012289668,3
524318087,0.086975195,0.022096507,-0.017632585,0.9782992,0.011166781,0.0112124635,0.20659195,0.99999934,2.0490073e-05,-3.0692918e-05,-0.0012289668,3
524350079,-0.04419704,0.0062608197,-0.007782015,0.9783188,0.01104993,0.011419041,0.20649406,0.99999934,2.0490073e-05,-3.0692918e-05,-0.0012289668,3
524382068,-0.018724188,0.0068682716,0.0074283504,0.97829837,0.010800362,0.01144593,0.20660275,0.99999934,2.0490073e-05,-3.0692918e-05,-0.0012289668,3
524414068,-0.00785036,0.01834878,0.00513869,0.97833115,0.011298566,0.011676443,0.20640804,0.99999934,2.0490073e-05,-3.0692918e-05,-0.0012289668,3
524446068,0.009438352,-0.014895686,-0.0005311738,0.9783336,0.010748179,0.011248027,0.20644915,0.99999934,2.0490073e-05,-3.0692918e-05,-0.0012289668,3
524478076,0.0039394726,0.0015766222,-0.007134278,0.97833776,0.011265051,0.0113779595,0.20639476,0.99999934,2.0490073e-05,-3.0692918e-05,-0.0012289668,3
524510080,-0.034375023,-0.020086262,0.015938625,0.9783365,0.010904522,0.011096221,0.20643559,0.99999934,2.0490073e-05,-3.0692918e-05,-0.0012289668,3
524538077,0.06358532,-0.0005049193,-0.004298961,0.9783061,0.01102358,0.011002688,0.20657802,0.99999934,2.0490073e-05,-3.0692918e-05,-0.0012289668,3
524570068,-0.057039514,-0.017774718,0.0023567518,0.978314,0.011216938,0.010921071,0.20653518,0.99999934,2.0490073e-05,-3.0692918e-05,-0.0012289668,3
524602082,0.0055759666,0.012091326,0.012950223,0.97829306,0.010875594,0.010577474,0.20667022,0.99999934,2.0490073e-05,-3.0692918e-05,-0.0012289668,3
524633269,0.030342756,0.00074692495,-0.008483085,0.97831285,0.011467337,0.010681332,0.20653903,0.99999934,2.0490073e-05,-3.0692918e-05,-0.0012289668,3
524665268,-0.032960594,-0.022272063,0.009129703,0.9783225,0.010928323,0.010388775,0.20653725,0.99999934,2.0490073e-05,-3.0692918e-05,-0.0012289668,3
524697313,0.04330521,0.007210045,-0.019037455,0.97833353,0.011335981,0.0105869165,0.20645335,0.99999934,2.0490073e-05,-3.0692918e-05,-0.0012289668,3
524729275,-0.053876694,-0.0033806148,-0.0016496272,0.9783532,0.011088636,0.0105168475,0.20637727,0.99999934,2.0490073e-05,-3.0692918e-05,-0.0012289668,3
524761271,0.06447354,0.010128713,0.0024659317,0.9783276,0.011017758,0.010545783,0.20650087,0.99999934,2.0490073e-05,-3.0692918e-05,-0.0012289668,3
524793272,-0.027946189,-0.012777562,0.0017147837,0.97833747,0.011342428,0.0108256675,0.20642205,0.99999934,2.0490073e-05,-3.0692918e-05,-0.0012289668,3
524825292,0.004911894,0.019726919,0.00929733,0.9783077,0.010894358,0.010871099,0.20658472,0.99999934,2.0490073e-05,-3.0692918e-05,-0.0012289668,3
524857287,0.025621518,0.01615558,-0.0013480776,0.9783107,0.011448082,0.011212589,0.20652212,0.99999934,2.0490073e-05,-3.0692918e-05,-0.0012289668,3
524889268,-0.055440124,0.004329964,0.007271939,0.9783126,0.010876163,0.011110592,0.20654956,0.99999934,2.0490073e-05,-3.0692918e-05,-0.0012289668,3
524921276,0.041888997,0.0088469675,-0.020388493,0.97832036,0.01125456,0.011345773,0.20648015,0.99999934,2.0490073e-05,-3.0692918e-05,-0.0012289668,3
524952502,-0.044247035,-0.00806484,-0.0066144355,0.9783495,0.011088702,0.0113522755,0.20635033,0.99999934,2.0490073e-05,-3.0692918e-05,-0.0012289668,3
524984468,0.047300823,0.0111857485,-0.0030631397,0.9783451,0.010922556,0.011321705,0.20638174,0.99999934,2.0490073e-05,-3.0692918e-05,-0.0012289668,3
525016470,-0.041059688,-0.017335597,-0.0027647617,0.9783648,0.011306784,0.011412665,0.20626238,0.99999934,2.0490073e-05,-3.0692918e-05,-0.0012289668,3
525048474,-0.006976662,-0.0039135553,0.0098624565,0.978341,0.010877267,0.011179511,0.20641138,0.99999934,2.0490073e-05,-3.0692918e-05,-0.0012289668,3
525080483,0.027563198,0.0052698287,0.008667124,0.978332,0.011434021,0.011249773,0.20642015,0.99999934,2.0490073e-05,-3.0692918e-05,-0.0012289668,3
525108468,-0.029829651,-0.013959291,0.006611899,0.9783235,0.011024503,0.011000309,0.206496,0.99999934,2.0490073e-05,-3.0692918e-05,-0.0012289668,3
525140476,0.05866884,-0.005426348,-0.015532636,0.9783172,0.011168115,0.010913356,0.206523,0.99999934,2.0490073e-05,-3.0692918e-05,-0.0012289668,3
525172468,-0.037646364,0.0058595636,0.0001618797,0.9783384,0.011279592,0.010802668,0.20642208,0.99999934,2.0490073e-05,-3.0692918e-05,-0.0012289668,3
525204468,0.019160887,-0.006306339,-7.086713e-05,0.9783496,0.010932299,0.010550112,0.20640089,0.99999934,2.0490073e-05,-3.0692918e-05,-0.0012289668,3
525236468,-0.003582854,-0.01415298,-0.017034706,0.97838,0.011450745,0.010584723,0.2062264,0.99999934,2.0490073e-05,-3.0692918e-05,-0.0012289668,3
525268468,-0.028267484,2.7406597e-05,0.012890133,0.9783658,0.010881285,0.010375713,0.20633581,0.99999934,2.0490073e-05,-3.0692918e-05,-0.0012289668,3
525300468,0.041857395,-0.003800613,0.01223938,0.9783595,0.011409124,0.01050703,0.20633055,0.99999934,2.0490073e-05,-3.0692918e-05,-0.0012289668,3
525332467,-0.05550878,0.0063680974,0.010169944,0.9783424,0.011027382,0.0105084665,0.20643197,0.99999934,2.0490073e-05,-3.0692918e-05,-0.0012289668,3
525363737,0.054678507,0.009528751,-0.017802875,0.9783173,0.011095991,0.0105954325,0.20654285,0.99999934,2.0490073e-05,-3.0692918e-05,-0.0012289668,3
525395668,-0.030084692,0.0017064434,0.0072534503,0.9783215,0.011302438,0.010710934,0.20650604,0.99999934,2.0490073e-05,-3.0692918e-05,-0.0012289668,3
525423687,-0.014739657,0.012323709,-0.010435877,0.9783245,0.010849966,0.010707429,0.20651612,0.99999934,2.0490073e-05,-3.0692918e-05,-0.0012289668,3
525455673,0.035494477,0.0050919084,-0.00094449474,0.97834736,0.011392824,0.010950484,0.20636533,0.99999934,2.0490073e-05,-3.0692918e-05,-0.0012289668,3
525487668,-0.018464578,-0.004740694,0.009519306,0.97836274,0.010927926,0.010947306,0.20631799,0.99999934,2.0490073e-05,-3.0692918e-05,-0.0012289668,3
525519672,0.055734094,0.011171279,-0.0165507,0.9783804,0.0112376055,0.011084641,0.2062103,0.99999934,2.0490073e-05,-3.0692918e-05,-0.0012289668,3
525551672,-0.051595442,0.003952345,0.0024753376,0.97837836,0.011109272,0.011115407,0.20622507,0.99999934,2.0490073e-05,-3.0692918e-05,-0.0012289668,3
525583668,0.035752397,0.011503347,-0.005019022,0.97835535,0.010995663,0.011133081,0.20634004,0.99999934,2.0490073e-05,-3.0692918e-05,-0.0012289668,3
525615668,-0.018621642,0.002239492,0.005509075,0.9783534,0.011409627,0.0111950915,0.20632303,0.99999934,2.0490073e-05,-3.0692918e-05,-0.0012289668,3
525647673,-0.011514031,-0.012319957,0.0001194817,0.97834045,0.01090763,0.011058565,0.20641853,0.99999934,2.0490073e-05,-3.0692918e-05,-0.0012289668,3
525679708,0.023177922,-0.002303455,-0.0077768946,0.9783595,0.011426196,0.011187152,0.20629364,0.99999934,2.0490073e-05,-3.0692918e-05,-0.0012289668,3
525711668,-0.036826,0.007764857,0.005044623,0.97836363,0.0109399725,0.011099958,0.20630492,0.99999934,2.0490073e-05,-3.0692918e-05,-0.0012289668,3
525742868,0.07278286,-0.010355903,-0.008065853,0.9783794,0.011226246,0.011090787,0.20621555,0.99999934,2.0490073e-05,-3.0692918e-05,-0.0012289668,3
525774868,-0.025730249,0.0037463398,0.007632834,0.9783848,0.011157383,0.011043893,0.20619573,0.99999934,2.0490073e-05,-3.0692918e-05,-0.0012289668,3
525806868,0.023743542,-0.0029595962,-0.022479244,0.97838366,0.010946468,0.0109735,0.2062166,0.99999934,2.0490073e-05,-3.0692918e-05,-0.0012289668,3
525838868,-0.037753265,-0.0011398051,0.0008861809,0.978376,0.011351568,0.010963149,0.20623201,0.99999934,2.0490073e-05,-3.0692918e-05,-0.0012289668,3
525870874,-0.012112497,-0.008073521,0.008069131,0.97832346,0.010960419,0.010939061,0.20650312,0.99999934,2.0490073e-05,-3.0692918e-05,-0.0012289668,3
525902874,0.032443516,-0.009223967,0.022941831,0.97826594,0.011228966,0.010642805,0.2067766,0.99999934,2.0490073e-05,-3.0692918e-05,-0.0012289668,3
525934910,0.0035052644,0.001753194,0.024813116,0.9781933,0.011134356,0.010606682,0.2071267,0.99999934,2.0490073e-05,-3.0692918e-05,-0.0012289668,3
525966868,-0.04278545,-0.015415612,0.013328614,0.9781384,0.011008538,0.0101983715,0.20741323,0.99999934,2.0490073e-05,-3.0692918e-05,-0.0012289668,3
525998868,0.02899746,-0.026598219,-0.027590435,0.97815204,0.011423295,0.0104484325,0.20731364,0.99999934,2.0490073e-05,-3.0692918e-05,-0.0012289668,3
526030868,0.03828096,0.024221335,-0.007700585,0.9781634,0.011089829,0.01007664,0.2072968,0.99999934,2.0490073e-05,-3.0692918e-05,-0.0012289668,3
526062068,-0.06914937,-0.06114762,0.054185614,0.9781698,0.011123869,0.009715136,0.20728181,0.99999934,2.0490073e-05,-3.0692918e-05,-0.0012289668,3
526094068,0.004609603,-0.0011319828,-0.026932962,0.9781777,0.011397221,0.009789066,0.20722619,0.99999934,2.0490073e-05,-3.0692918e-05,-0.0012289668,3
526126074,0.018664027,0.053577896,0.015102393,0.9781212,0.011061823,0.009580046,0.20752037,0.99999934,2.0490073e-05,-3.0692918e-05,-0.0012289668,3
526158099,-0.117994644,-0.04527433,0.011556938,0.97806525,0.011137316,0.009341133,0.20779113,0.99999934,2.0490073e-05,-3.0692918e-05,-0.0012289668,3
526190068,0.088045165,0.0035649464,0.11115505,0.9779844,0.011784706,0.00973028,0.2081175,0.99999934,2.0490073e-05,-3.0692918e-05,-0.0012289668,3
526218115,0.16877869,0.0043662074,-0.009263093,0.9778911,0.011572796,0.009418773,0.20858185,0.99999934,2.0490073e-05,-3.0692918e-05,-0.0012289668,3
526250067,-0.10621812,-0.016764686,0.020554975,0.97790205,0.011063718,0.009108213,0.208572,0.99999934,2.0490073e-05,-3.0692918e-05,-0.0012289668,3
526282116,-0.0923203,-0.07659678,-0.019769687,0.97789514,0.011472555,0.009167399,0.20857988,0.99999934,2.0490073e-05,-3.0692918e-05,-0.0012289668,3
526314068,0.072790384,0.003947789,0.034585536,0.9778812,0.01174123,0.008898119,0.20864166,0.99999934,2.0490073e-05,-3.0692918e-05,-0.0012289668,3
526346088,0.047740255,0.008412954,0.10467319,0.9778405,0.011867024,0.00831697,0.20884912,0.99999934,2.0490073e-05,-3.0692918e-05,-0.0012289668,3
526378068,0.08874441,-0.06713129,0.054110143,0.97777945,0.012209758,0.008003445,0.20912756,0.99999934,2.0490073e-05,-3.0692918e-05,-0.0012289668,3
526410068,0.016761247,-0.018527126,-0.034986824,0.9776727,0.012170179,0.007663572,0.2096409,0.99999934,2.0490073e-05,-3.0692918e-05,-0.0012289668,3
526441273,0.03194401,-0.02534342,-0.04219795,0.9775279,0.012543425,0.007266089,0.21030709,0.99999934,2.0490073e-05,-3.0692918e-05,-0.0012289668,3
526473282,-0.11575019,-0.118965656,-0.006369196,0.9774184,0.01293968,0.0065289657,0.21081553,0.99999934,2.0490073e-05,-3.0692918e-05,-0.0012289668,3
526505271,-0.03789691,-0.121378124,-0.009545727,0.9773326,0.013153165,0.0058887554,0.21121888,0.99999934,2.0490073e-05,-3.0692918e-05,-0.0012289668,3
526537312,0.029586403,-0.09552545,0.0006871149,0.9772742,0.013106825,0.0054150037,0.21150433,0.99999934,2.0490073e-05,-3.0692918e-05,-0.0012289668,3
526569272,-0.10606859,-0.06319707,-0.017809886,0.97725576,0.012304837,0.00470291,0.21165478,0.99999934,2.0490073e-05,-3.0692918e-05,-0.0012289668,3
526601302,-0.14839524,-0.059314817,-0.00716909,0.97725475,0.011288312,0.00381099,0.21173415,0.99999934,2.0490073e-05,-3.0692918e-05,-0.0012289668,3
526633274,-0.059255525,0.04506079,0.0007388517,0.97726506,0.01028224,0.0030046515,0.21175034,0.99999934,2.0490073e-05,-3.0692918e-05,-0.0012289668,3
526669268,-0.094274856,0.039276026,-0.036240645,0.97731686,0.00917078,0.001997998,0.21157461,0.99999934,2.0490073e-05,-3.0692918e-05,-0.0012289668,3
526701278,-0.029951822,-0.020978596,-0.03800134,0.9773412,0.00816897,0.0012680577,0.21150838,0.99999934,2.0490073e-05,-3.0692918e-05,-0.0012289668,3
526729311,-0.13198416,0.006297524,-0.05071978,0.9773653,0.0069172704,0.0010543145,0.21144287,0.99999934,2.0490073e-05,-3.0692918e-05,-0.0012289668,3
526761271,-0.05026064,-0.1207936,-0.034662496,0.9774002,0.005779885,0.0008314832,0.21131729,0.99999934,2.0490073e-05,-3.0692918e-05,-0.0012289668,3
526793272,-0.12156608,0.13134591,-0.028174283,0.9774451,0.0045667416,0.0009677894,0.21113805,0.99999934,2.0490073e-05,-3.0692918e-05,-0.0012289668,3
526824468,-0.03035115,0.06365806,0.0045229765,0.97746664,0.0034050096,0.000974297,0.21106046,0.99999934,2.0490073e-05,-3.0692918e-05,-0.0012289668,3
526856498,0.0023649917,-0.013634002,0.024777535,0.977482,0.0024613233,0.0013336124,0.21100037,0.99999934,2.0490073e-05,-3.0692918e-05,-0.0012289668,3
526888468,0.027949903,0.03796315,0.010225849,0.9775146,0.0018811708,0.0020518026,0.21084958,0.99999934,2.0490073e-05,-3.0692918e-05,-0.0012289668,3
526920476,-0.07148159,0.026941009,0.041444864,0.9775317,0.0007734605,0.0029606537,0.21076669,0.99999934,2.0490073e-05,-3.0692918e-05,-0.0012289668,3
526952468,-0.09866621,0.17740016,0.0054636956,0.97757065,-0.00025049425,0.004125947,0.21056724,0.99999934,2.0490073e-05,-3.0692918e-05,-0.0012289668,3
526984467,0.05931356,-0.011968126,-0.0023590978,0.97761536,-0.00062461704,0.005235035,0.21033417,0.99999934,2.0490073e-05,-3.0692918e-05,-0.0012289668,3
527016472,-0.0064299507,0.14345185,-0.021604653,0.97766376,-0.0013685087,0.0064774933,0.2100714,0.99999934,2.0490073e-05,-3.0692918e-05,-0.0012289668,3
527048474,-0.073069304,0.05831519,-0.03378917,0.97771335,-0.0020047582,0.0076474226,0.20979571,0.99999934,2.0490073e-05,-3.0692918e-05,-0.0012289668,3
527080476,-0.06379252,0.13428028,0.009864492,0.9777362,-0.003076175,0.009019758,0.20962156,0.99999934,2.0490073e-05,-3.0692918e-05,-0.0012289668,3
527112468,-0.058965757,0.21058501,-0.018796341,0.977776,-0.0041695405,0.01045355,0.20935026,0.99999934,2.0490073e-05,-3.0692918e-05,-0.0012289668,3
527144468,-0.05990535,-0.07145429,-0.026268203,0.9778069,-0.005361092,0.0113575375,0.20913137,0.99999934,2.0490073e-05,-3.0692918e-05,-0.0012289668,3
527175668,-0.068589956,0.016716903,-0.022027493,0.9778333,-0.0066103037,0.012428882,0.2089116,0.99999934,2.0490073e-05,-3.0692918e-05,-0.0012289668,3
527207668,0.019246735,0.06944395,-0.00047826534,0.9778551,-0.0075609116,0.013296492,0.20872357,0.99999934,2.0490073e-05,-3.0692918e-05,-0.0012289668,3
527239676,0.07271852,-0.08180192,0.017093252,0.97786915,-0.00865742,0.013780753,0.20858395,0.99999934,2.0490073e-05,-3.0692918e-05,-0.0012289668,3
527271668,0.04206117,-0.080554865,0.048209473,0.97788054,-0.009681333,0.0142278345,0.20845526,0.99999934,2.0490073e-05,-3.0692918e-05,-0.0012289668,3
527303674,-0.04198645,0.027985895,0.06644368,0.9778922,-0.010700054,0.014648406,0.2083211,0.99999934,2.0490073e-05,-3.0692918e-05,-0.0012289668,3
527335668,-0.05757503,0.0607459,0.07249297,0.97790873,-0.0113502415,0.015025774,0.20818244,0.99999934,2.0490073e-05,-3.0692918e-05,-0.0012289668,3
527367680,-0.07608932,0.10887288,0.07842167,0.9779272,-0.01173392,0.015359258,0.2080498,0.99999934,2.0490073e-05,-3.0692918e-05,-0.0012289668,3
527403674,0.12495529,-0.0763141,0.016714552,0.97795165,-0.011654862,0.015553874,0.20792547,0.99999934,2.0490073e-05,-3.0692918e-05,-0.0012289668,3
527435707,0.11091962,-0.08687771,0.0067367475,0.9779701,-0.011641702,0.015721232,0.20782651,0.99999934,2.0490073e-05,-3.0692918e-05,-0.0012289668,3
527467668,0.09023781,-0.10075201,0.0011368841,0.97799754,-0.011515089,0.015880458,0.20769241,0.99999934,2.0490073e-05,-3.0692918e-05,-0.0012289668,3
527495674,0.042862095,0.15926255,0.097301014,0.9780125,-0.011386176,0.016373593,0.20759082,0.99999934,2.0490073e-05,-3.0692918e-05,-0.0012289668,3
527527668,0.08961079,0.15051326,0.08970252,0.97803676,-0.010777968,0.016748352,0.20747912,0.99999934,2.0490073e-05,-3.0692918e-05,-0.0012289668,3
527559668,0.16023047,0.13855733,0.09445424,0.9780641,-0.01015044,0.017231597,0.20734173,0.99999934,2.0490073e-05,-3.0692918e-05,-0.0012289668,3
527590892,0.18075728,0.1335631,0.09408833,0.9780856,-0.009509346,0.017660208,0.20723507,0.99999934,2.0490073e-05,-3.0692918e-05,-0.0012289668,3
527622868,0.20127884,0.10098386,0.101209335,0.97811,-0.00874076,0.01808368,0.20711704,0.99999934,2.0490073e-05,-3.0692918e-05,-0.0012289668,3
527654868,0.21998695,0.079008095,0.09690638,0.97812897,-0.00799401,0.018502666,0.2070205,0.99999934,2.0490073e-05,-3.0692918e-05,-0.0012289668,3
527686898,0.2600217,0.06669051,0.100757256,0.9781435,-0.0071425196,0.018911168,0.2069464,0.99999934,2.0490073e-05,-3.0692918e-05,-0.0012289668,3
527718884,0.27340746,0.027788794,0.10102028,0.9781758,-0.0063426364,0.019270066,0.20678616,0.99999934,2.0490073e-05,-3.0692918e-05,-0.0012289668,3
527750868,0.27298984,0.023964645,0.09468933,0.9781977,-0.0055310032,0.019628117,0.20667247,0.99999934,2.0490073e-05,-3.0692918e-05,-0.0012289668,3
527778886,0.05085438,-0.03344096,0.013399352,0.9782622,-0.0051822336,0.019868622,0.20635298,0.99999934,2.0490073e-05,-3.0692918e-05,-0.0012289668,3
527810923,0.07874915,-0.050226763,0.029088307,0.9782781,-0.0043270006,0.020286815,0.20625657,0.99999934,2.0490073e-05,-3.0692918e-05,-0.0012289668,3
527842868,0.08780764,-0.06848722,0.03865457,0.98324955,-0.0019656012,0.020731835,0.1810714,0.9996716,0.0010031447,0.00020028322,-0.025606394,4
527874868,0.06390953,-0.05456188,0.044979975,0.9832727,-0.0011309395,0.02105385,0.18091564,0.9996716,0.0010031447,0.00020028322,-0.025606394,4
527906068,0.099644706,-0.11581073,0.03369242,0.9832909,-0.0004033378,0.021296838,0.18079105,0.9996716,0.0010031447,0.00020028322,-0.025606394,4
527938068,0.034738265,-0.068843536,0.040143352,0.9833071,0.00033129074,0.021638028,0.18066208,0.9996716,0.0010031447,0.00020028322,-0.025606394,4
527970068,0.023653489,-0.03096375,0.039855193,0.9833197,0.0010174644,0.022033297,0.18054356,0.9996716,0.0010031447,0.00020028322,-0.025606394,4
528002069,-0.022789504,0.016979797,0.04647341,0.98332894,0.0015933571,0.022446388,0.18043785,0.9996716,0.0010031447,0.00020028322,-0.025606394,4
528034075,-0.04639211,0.055406787,0.041616853,0.98333764,0.001976363,0.022816785,0.1803403,0.9996716,0.0010031447,0.00020028322,-0.025606394,4
528070068,0.25246915,-0.058878426,0.015548452,0.98334855,0.00283752,0.023150971,0.18022653,0.9996716,0.0010031447,0.00020028322,-0.025606394,4
528098068,-0.08165845,0.15178381,0.03600024,0.98337203,0.0026168702,0.02358345,0.18004599,0.9996716,0.0010031447,0.00020028322,-0.025606394,4
528130079,-0.048716154,0.18457139,0.031027623,0.9833827,0.0029809577,0.02402553,0.17992379,0.9996716,0.0010031447,0.00020028322,-0.025606394,4
528162068,-0.0025085562,0.18981555,0.030965917,0.983396,0.0033779184,0.024461458,0.17978533,0.9996716,0.0010031447,0.00020028322,-0.025606394,4
528194068,0.048643928,0.16195768,0.022364192,0.9834112,0.0037225771,0.02475235,0.17965503,0.9996716,0.0010031447,0.00020028322,-0.025606394,4
528226074,0.107736394,0.1451773,0.017932978,0.98343176,0.0041990657,0.024916053,0.1795095,0.9996716,0.0010031447,0.00020028322,-0.025606394,4
528257299,0.110125214,0.13947476,0.0103606265,0.9834575,0.0043634386,0.025231296,0.17932048,0.9996716,0.0010031447,0.00020028322,-0.025606394,4
528289272,0.117169365,0.10403034,0.009349242,0.98348176,0.0047753025,0.0253813,0.17915498,0.9996716,0.0010031447,0.00020028322,-0.025606394,4
528321268,0.17618163,0.022550963,0.00598054,0.98350614,0.005150021,0.025480028,0.17899716,0.9996716,0.0010031447,0.00020028322,-0.025606394,4
528353281,0.20868301,-0.043885566,-0.0016739741,0.98352647,0.005475642,0.025404958,0.1788866,0.9996716,0.0010031447,0.00020028322,-0.025606394,4
528385319,0.23769112,-0.085683435,0.0032496885,0.9835495,0.005791857,0.025342427,0.1787585,0.9996716,0.0010031447,0.00020028322,-0.025606394,4
528417275,0.21701501,-0.12539361,-0.0033214567,0.98357344,0.0060987235,0.02521494,0.17863487,0.9996716,0.0010031447,0.00020028322,-0.025606394,4
528449276,0.18657269,-0.12162464,-0.012721404,0.9835884,0.006475997,0.025127329,0.17855099,0.9996716,0.0010031447,0.00020028322,-0.025606394,4
528481288,0.17917539,-0.13940634,-0.009634333,0.9835963,0.0069438396,0.024959354,0.17851403,0.9996716,0.0010031447,0.00020028322,-0.025606394,4
528513271,0.13524874,-0.13777028,-0.015824374,0.9836019,0.0073814713,0.0247692,0.17849186,0.9996716,0.0010031447,0.00020028322,-0.025606394,4
528545273,0.07656302,-0.10165738,-0.023741933,0.9836048,0.0077282297,0.02466029,0.17847615,0.9996716,0.0010031447,0.00020028322,-0.025606394,4
528577276,0.035793666,-0.09609534,-0.03570989,0.9835987,0.0079980055,0.024640445,0.1785012,0.9996716,0.0010031447,0.00020028322,-0.025606394,4
528608473,0.049848314,-0.08213746,-0.033805136,0.9835973,0.00833182,0.024551904,0.17850596,0.9996716,0.0010031447,0.00020028322,-0.025606394,4
528640482,0.007908026,-0.046317518,-0.040133625,0.9835826,0.008465566,0.0246293,0.17856923,0.9996716,0.0010031447,0.00020028322,-0.025606394,4
528672468,0.011648329,-0.026265683,-0.04455954,0.98357934,0.008591946,0.024584835,0.1785873,0.9996716,0.0010031447,0.00020028322,-0.025606394,4
528704474,-0.025173146,-0.002639007,-0.053774692,0.9835764,0.0086643305,0.024523452,0.1786089,0.9996716,0.0010031447,0.00020028322,-0.025606394,4
528736468,-0.015077891,0.00014327868,-0.061251093,0.98357224,0.008675585,0.024431005,0.17864378,0.9996716,0.0010031447,0.00020028322,-0.025606394,4
528768533,0.021841317,0.008450335,-0.065942846,0.9835677,0.008659096,0.02439656,0.17867427,0.9996716,0.0010031447,0.00020028322,-0.025606394,4
528800468,0.063897364,-0.04355408,-0.073913395,0.98355925,0.008586174,0.024315914,0.17873506,0.9996716,0.0010031447,0.00020028322,-0.025606394,4
528832468,0.118003845,-0.0834881,-0.07360295,0.98355633,0.008474098,0.024277095,0.17876208,0.9996716,0.0010031447,0.00020028322,-0.025606394,4
528864468,0.11625849,-0.117348105,-0.07241519,0.98355144,0.008261916,0.02425893,0.17880143,0.9996716,0.0010031447,0.00020028322,-0.025606394,4
528896489,0.12290992,-0.123964086,-0.073499136,0.98355055,0.008088313,0.024238603,0.17881656,0.9996716,0.0010031447,0.00020028322,-0.025606394,4
528928468,0.10887739,-0.12741321,-0.06670504,0.98354757,0.007877094,0.024252877,0.1788411,0.9996716,0.0010031447,0.00020028322,-0.025606394,4
528959668,0.12516429,-0.09449181,-0.06996185,0.98353225,0.007638494,0.0243415,0.1789228,0.9996716,0.0010031447,0.00020028322,-0.025606394,4
528991668,0.15253724,-0.1186115,-0.060328532,0.9835205,0.0074961833,0.02447519,0.1789756,0.9996716,0.0010031447,0.00020028322,-0.025606394,4
529023680,0.14458206,-0.12706196,-0.06346169,0.9835062,0.0073693157,0.024645457,0.17903644,0.9996716,0.0010031447,0.00020028322,-0.025606394,4
529055668,0.13279259,-0.11243918,-0.047665194,0.9834864,0.0072269714,0.024863865,0.17912067,0.9996716,0.0010031447,0.00020028322,-0.025606394,4
529087676,0.12434258,-0.086398445,-0.04472078,0.9834683,0.0071570133,0.025151573,0.17918289,0.9996716,0.0010031447,0.00020028322,-0.025606394,4
529119674,0.12374378,-0.07331864,-0.037860822,0.9834419,0.0069866353,0.025477884,0.17928816,0.9996716,0.0010031447,0.00020028322,-0.025606394,4
529151697,0.1379563,-0.051175494,-0.03608261,0.9834157,0.0067916773,0.025718987,0.17940423,0.9996716,0.0010031447,0.00020028322,-0.025606394,4
529183668,0.10734098,-0.033223145,-0.04024795,0.98339427,0.006538933,0.025941443,0.17949949,0.9996716,0.0010031447,0.00020028322,-0.025606394,4
529215668,0.077112705,-0.025248066,-0.029432671,0.9833668,0.0061538923,0.026089447,0.17964205,0.9996716,0.0010031447,0.00020028322,-0.025606394,4
529247668,0.08720195,-0.054527856,-0.03074863,0.9833508,0.005895686,0.0259252,0.17976178,0.9996716,0.0010031447,0.00020028322,-0.025606394,4
529279695,0.041935068,-0.14162172,-0.022486253,0.983358,0.0054895133,0.024628865,0.17991751,0.9996716,0.0010031447,0.00020028322,-0.025606394,4
529311668,0.03784272,-0.24926086,-0.023375042,0.98339844,0.0052420483,0.021740925,0.18007632,0.9996716,0.0010031447,0.00020028322,-0.025606394,4
529342883,0.06426507,-0.3955322,-0.03990582,0.98345155,0.0052394425,0.017496841,0.18024866,0.9996716,0.0010031447,0.00020028322,-0.025606394,4
529374121,0.048152145,-0.4862074,-0.023373593,0.98349065,0.005434974,0.011918065,0.18048441,0.9996716,0.0010031447,0.00020028322,-0.025606394,4
529406879,-0.01613004,-0.47938508,-0.0070364075,0.98349273,0.006011376,0.005027564,0.18077834,0.9996716,0.0010031447,0.00020028322,-0.025606394,4
529438897,-0.09250544,-0.46245068,0.01325709,0.9834427,0.0068313233,-0.0029097684,0.18106762,0.9996716,0.0010031447,0.00020028322,-0.025606394,4
529470868,-0.11826663,-0.46388176,-0.0011861739,0.9833226,0.007959235,-0.011965096,0.18130122,0.9996716,0.0010031447,0.00020028322,-0.025606394,4
529502868,-0.13848497,-0.5105233,-0.023539983,0.98310405,0.00936657,-0.021890076,0.181493,0.9996716,0.0010031447,0.00020028322,-0.025606394,4
529534868,-0.14111258,-0.58521664,-0.03958485,0.9827699,0.011013589,-0.032459665,0.18162744,0.9996716,0.0010031447,0.00020028322,-0.025606394,4
529566874,-0.15585876,-0.6618764,-0.067380026,0.98230475,0.012867239,-0.043424312,0.18173102,0.9996716,0.0010031447,0.00020028322,-0.025606394,4
529598895,-0.08712681,-0.7471896,-0.07378551,0.98169875,0.015036003,-0.054695692,0.18179666,0.9996716,0.0010031447,0.00020028322,-0.025606394,4
529630868,0.04981686,-0.84365463,-0.05146155,0.98094404,0.017313782,-0.0662662,0.18181862,0.9996716,0.0010031447,0.00020028322,-0.025606394,4
529662868,0.17213413,-0.9216023,-0.02370334,0.98003227,0.019747559,-0.07799664,0.18183304,0.9996716,0.0010031447,0.00020028322,-0.025606394,4
529697296,0.017913325,-0.6133884,0.03406159,0.97893316,0.02215654,-0.090246804,0.18180911,0.9996716,0.0010031447,0.00020028322,-0.025606394,4
529726076,0.17800477,-0.8080699,0.02155834,0.97786945,0.024408428,-0.100942604,0.18162099,0.9996716,0.0010031447,0.00020028322,-0.025606394,4
529758069,0.06710378,-0.6655501,0.024169562,0.9765761,0.026711741,-0.11254341,0.18143772,0.9996716,0.0010031447,0.00020028322,-0.025606394,4
529790075,0.029879455,-0.6005675,0.011690243,0.97513,0.029272677,-0.1242171,0.18120362,0.9996716,0.0010031447,0.00020028322,-0.025606394,4
529822068,0.08045495,-0.7128905,0.007558892,0.9735361,0.031934377,-0.13587704,0.1809561,0.9996716,0.0010031447,0.00020028322,-0.025606394,4
529854068,0.088718385,-0.8332706,0.023364311,0.9718533,0.0345656,-0.14714485,0.18070655,0.9996716,0.0010031447,0.00020028322,-0.025606394,4
529886068,-0.14700916,-0.6358668,0.008421665,0.9701879,0.03675365,-0.15765953,0.18035577,0.9996716,0.0010031447,0.00020028322,-0.025606394,4
529914081,0.038146477,-0.76101875,0.022176085,0.9686276,0.03906172,-0.16672345,0.18010578,0.9996716,0.0010031447,0.00020028322,-0.025606394,4
529946117,-0.11447235,-0.55517244,0.006096895,0.96697843,0.04082243,-0.17606117,0.17969108,0.9996716,0.0010031447,0.00020028322,-0.025606394,4
529978076,-0.2355182,-0.48247993,-0.04052238,0.965371,0.04241135,-0.18481341,0.17917648,0.9996716,0.0010031447,0.00020028322,-0.025606394,4
530010068,0.0811542,-0.6339607,-0.026296746,0.9638499,0.04433769,-0.19251457,0.17878976,0.9996716,0.0010031447,0.00020028322,-0.025606394,4
530040494,0.20727995,-0.45788,-0.00051625026,0.9627416,0.04558326,-0.19798262,0.17847636,0.9996716,0.0010031447,0.00020028322,-0.025606394,4
530073271,0.10749533,-0.06314598,-0.04138861,0.9621997,0.046456024,-0.20070419,0.17813352,0.9996716,0.0010031447,0.00020028322,-0.025606394,4
530105280,0.014889016,0.43697873,-0.10188224,0.9629697,0.046044968,-0.19737127,0.17780294,0.9996716,0.0010031447,0.00020028322,-0.025606394,4
530137268,0.11165631,0.98618436,-0.083808266,0.9653114,0.044505328,-0.18594345,0.17781511,0.9996716,0.0010031447,0.00020028322,-0.025606394,4
530169288,-0.2556289,1.2774035,-0.05767657,0.9686699,0.04125874,-0.16850296,0.17771646,0.9996716,0.0010031447,0.00020028322,-0.025606394,4
530201271,-0.09598566,1.2771537,0.014596544,0.97204363,0.038020834,-0.1481509,0.17814852,0.9996716,0.0010031447,0.00020028322,-0.025606394,4
530229277,0.040347435,1.287733,0.07667877,0.97479934,0.03489731,-0.12956607,0.17821628,0.9996716,0.0010031447,0.00020028322,-0.025606394,4
530261268,0.06976811,1.4215436,0.055413913,0.9775442,0.030939426,-0.10794363,0.178321,0.9996716,0.0010031447,0.00020028322,-0.025606394,4
530293268,-0.26045033,1.5001999,-0.016436735,0.9798141,0.026361948,-0.08632294,0.17837523,0.9996716,0.0010031447,0.00020028322,-0.025606394,4
530325272,-0.21495147,1.4283521,-0.12165748,0.98156774,0.0216827,-0.06489506,0.17844687,0.9996716,0.0010031447,0.00020028322,-0.025606394,4
530357268,-0.12866846,1.404649,-0.111751035,0.98280656,0.016280157,-0.043475796,0.17870668,0.9996716,0.0010031447,0.00020028322,-0.025606394,4
530389270,-0.1766537,1.2700286,-0.10446727,0.9835059,0.009717691,-0.023219291,0.1791164,0.9996716,0.0010031447,0.00020028322,-0.025606394,4
530420474,-0.26017597,1.1232812,-0.12610349,0.98372483,0.0023891856,-0.004984604,0.17959645,0.9996716,0.0010031447,0.00020028322,-0.025606394,4
530452467,-0.32212043,1.0446373,-0.06659064,0.98354596,-0.006131731,0.011869154,0.18016338,0.9996716,0.0010031447,0.00020028322,-0.025606394,4
530484509,-0.4182696,0.99597764,0.02450203,0.983019,-0.01543931,0.026602263,0.1809081,0.9996716,0.0010031447,0.00020028322,-0.025606394,4
530512468,-0.3095962,0.7031772,-0.018485392,0.9823759,-0.02381073,0.03770109,0.18151975,0.9996716,0.0010031447,0.00020028322,-0.025606394,4
530544468,-0.39870816,0.60101795,0.0034357086,0.98142356,-0.03388044,0.048945293,0.18238509,0.9996716,0.0010031447,0.00020028322,-0.025606394,4
530576468,-0.49118203,0.6106176,0.06281816,0.98025185,-0.04456192,0.05875686,0.18348922,0.9996716,0.0010031447,0.00020028322,-0.025606394,4
530608468,-0.5480361,0.6205793,0.09445254,0.9789134,-0.055622473,0.06701519,0.18478025,0.9996716,0.0010031447,0.00020028322,-0.025606394,4
530640468,-0.57213765,0.5630314,0.110421784,0.977426,-0.06707781,0.07381938,0.18625207,0.9996716,0.0010031447,0.00020028322,-0.025606394,4
530672491,-0.55044657,0.4526315,0.064411916,0.97587466,-0.0784085,0.07936763,0.18767431,0.9996716,0.0010031447,0.00020028322,-0.025606394,4
530704496,-0.51053745,0.3529952,0.026102453,0.9743053,-0.088630535,0.08458488,0.18899576,0.9996716,0.0010031447,0.00020028322,-0.025606394,4
530736468,-0.37621102,0.325504,0.03302923,0.97284925,-0.097132936,0.089432895,0.19008248,0.9996716,0.0010031447,0.00020028322,-0.025606394,4
530768468,-0.22175659,0.27076873,0.06370094,0.9716233,-0.10336098,0.09394593,0.19088969,0.9996716,0.0010031447,0.00020028322,-0.025606394,4
530800476,-0.048944302,0.12151205,0.09911419,0.9707585,-0.10692756,0.09722933,0.19167934,0.9996716,0.0010031447,0.00020028322,-0.025606394,4
530831668,0.090505846,-0.22383651,-0.04111066,0.9706433,-0.10729076,0.096996926,0.19217682,0.9996716,0.0010031447,0.00020028322,-0.025606394,4
530863668,0.1236499,-0.5203025,-0.06163364,0.9712823,-0.104136765,0.092318945,0.19298558,0.9996716,0.0010031447,0.00020028322,-0.025606394,4
530895668,0.28116673,-0.66885567,-0.046993997,0.9725538,-0.09738176,0.08454348,0.19367062,0.9996716,0.0010031447,0.00020028322,-0.025606394,4
530927674,0.40839794,-0.7489559,-0.13924812,0.97407377,-0.08759589,0.075685956,0.19436812,0.9996716,0.0010031447,0.00020028322,-0.025606394,4
530959668,0.5346016,-0.64136064,-0.022409575,0.9755156,-0.076409265,0.06719761,0.19497572,0.9996716,0.0010031447,0.00020028322,-0.025606394,4
530991668,0.5797388,-0.65500426,-0.092383265,0.9768478,-0.0647821,0.059152525,0.19512206,0.9996716,0.0010031447,0.00020028322,-0.025606394,4
531023668,0.6405479,-0.54142773,-0.12835348,0.9779307,-0.0529268,0.05216263,0.19526765,0.9996716,0.0010031447,0.00020028322,-0.025606394,4
531055668,0.5905009,-0.6023378,-0.1155246,0.97884923,-0.040600102,0.04586648,0.19519763,0.9996716,0.0010031447,0.00020028322,-0.025606394,4
531087668,0.6690321,-0.6055066,-0.0785325,0.97954994,-0.027699498,0.040591847,0.19510736,0.9996716,0.0010031447,0.00020028322,-0.025606394,4
531119674,0.69267887,-0.43379694,-0.061105635,0.9800696,-0.014771379,0.036337283,0.19474326,0.9996716,0.0010031447,0.00020028322,-0.025606394,4
531150887,0.656934,-0.41395867,-0.07333394,0.9803823,-0.0022733603,0.032868754,0.19433211,0.9996716,0.0010031447,0.00020028322,-0.025606394,4
531182868,0.6875293,-0.39852518,-0.060070794,0.9805099,0.010496231,0.030245028,0.19384411,0.9996716,0.0010031447,0.00020028322,-0.025606394,4
531214908,0.7217003,-0.40823638,-0.04723259,0.980478,0.022951966,0.028254883,0.19323002,0.9996716,0.0010031447,0.00020028322,-0.025606394,4
531246868,0.8103824,-0.38057676,-0.028402703,0.9802808,0.034984674,0.026845198,0.1926264,0.9996716,0.0010031447,0.00020028322,-0.025606394,4
531278868,0.74348766,-0.22013219,-0.009639962,0.97995055,0.046661478,0.026158668,0.1919256,0.9996716,0.0010031447,0.00020028322,-0.025606394,4
531306868,0.6636086,-0.309942,-0.0893471,0.9795596,0.05672548,0.025785921,0.19126007,0.9996716,0.0010031447,0.00020028322,-0.025606394,4
531338891,0.6579458,-0.1825969,-0.069313996,0.97898626,0.06811052,0.025913578,0.19046122,0.9996716,0.0010031447,0.00020028322,-0.025606394,4
531370868,0.6065552,-0.06940325,-0.06122797,0.97830427,0.079258375,0.026230702,0.18960719,0.9996716,0.0010031447,0.00020028322,-0.025606394,4
531402868,0.61959857,-0.07354687,-0.053545732,0.9774831,0.09054133,0.026885584,0.1886966,0.9996716,0.0010031447,0.00020028322,-0.025606394,4
531434875,0.73138237,-0.12764911,-0.029031342,0.9765174,0.1018765,0.028040538,0.18774642,0.9996716,0.0010031447,0.00020028322,-0.025606394,4
531466917,0.82130533,-0.111132145,0.0069640693,0.97541845,0.11293894,0.02974744,0.18686599,0.9996716,0.0010031447,0.00020028322,-0.025606394,4
531498868,0.7702292,0.11264748,0.05219756,0.97426176,0.1234301,0.032359876,0.18582809,0.9996716,0.0010031447,0.00020028322,-0.025606394,4
531530068,0.6519133,0.25005865,0.025304971,0.9731435,0.1327662,0.035650928,0.18464501,0.9996716,0.0010031447,0.00020028322,-0.025606394,4
531566074,0.45639178,0.13950646,-0.068986654,0.9719524,0.14159986,0.040261332,0.18340416,0.9996716,0.0010031447,0.00020028322,-0.025606394,4
531594078,0.09945435,0.12927608,-0.06394538,0.9716584,0.14369002,0.04335275,0.18262987,0.9996716,0.0010031447,0.00020028322,-0.025606394,4
531626068,-0.28259173,0.035707437,-0.03140928,0.97212976,0.14015342,0.045139786,0.18243681,0.9996716,0.0010031447,0.00020028322,-0.025606394,4
531658082,-0.5673129,0.10549799,-0.0325083,0.9732888,0.13151236,0.045423213,0.18262061,0.9996716,0.0010031447,0.00020028322,-0.025606394,4
531690068,-0.7664144,0.16373491,0.0029010698,0.9748501,0.11949488,0.04441671,0.18279877,0.9996716,0.0010031447,0.00020028322,-0.025606394,4
531722067,-0.9251049,0.19155867,0.020071993,0.97648585,0.10583841,0.04295793,0.18283455,0.9996716,0.0010031447,0.00020028322,-0.025606394,4
531758068,-0.84803915,0.05056143,-0.11743028,0.978148,0.09017795,0.041859057,0.18259914,0.9996716,0.0010031447,0.00020028322,-0.025606394,4
531790112,-0.8232204,0.072989345,-0.11671442,0.97935987,0.0760623,0.041490912,0.18261288,0.9996716,0.0010031447,0.00020028322,-0.025606394,4
531818068,-0.9182789,0.30027202,-0.06436466,0.9801749,0.06381458,0.041649863,0.18289384,0.9996716,0.0010031447,0.00020028322,-0.025606394,4
531853272,-0.6530839,0.11829433,-0.09601415,0.98096496,0.049534738,0.042236097,0.18294863,0.9996716,0.0010031447,0.00020028322,-0.025606394,4
531881276,-0.79005146,0.33202645,-0.047123097,0.98134136,0.03840068,0.043572303,0.18329233,0.9996716,0.0010031447,0.00020028322,-0.025606394,4
531913297,-0.6503401,0.3454901,-0.07223597,0.98161083,0.026999958,0.045685243,0.18336846,0.9996716,0.0010031447,0.00020028322,-0.025606394,4
531945280,-0.5177235,0.40209776,-0.06706187,0.9816847,0.016779115,0.048800036,0.18339121,0.9996716,0.0010031447,0.00020028322,-0.025606394,4
