timestamp,x,y,z,r,flaps,aux1,aux2,aux3,aux4,aux5,aux6,mode_switch,return_switch,rattitude_switch,posctl_switch,loiter_switch,acro_switch,offboard_switch,kill_switch,arm_switch,transition_switch,gear_switch,mode_slot,data_source,stab_switch,man_switch,armlock_switch
519039526,0.0,0.0,0.0,1.0,0.0,0.0,0.0,0.0,0.0,0.0,0.0,0,3,0,0,0,0,0,0,0,0,0,3,1,0,0,0
519239532,0.0,0.0,3e-45,1.0,0.0,0.0,0.0,0.0,0.0,0.0,0.0,0,3,0,0,0,0,0,0,0,0,0,3,1,0,0,0
519459957,0.0,0.0,0.0,1.0,0.0,0.0,0.0,0.0,0.0,0.0,0.0,0,3,0,0,0,0,0,0,0,0,0,3,1,0,0,0
519660315,0.0,0.0,0.0,1.0,0.0,0.0,0.0,0.0,0.0,0.0,0.0,0,3,0,0,0,0,0,0,0,0,0,3,1,0,0,0
519860524,0.0,0.0,0.0,1.0,0.0,0.0,0.0,0.0,0.0,0.0,0.0,0,3,0,0,0,0,0,0,0,0,0,3,1,0,0,0
520060815,0.0,0.0,0.0,1.0,0.0,0.0,0.0,0.0,0.0,0.0,0.0,0,3,0,0,0,0,0,0,0,0,0,3,1,0,0,0
520260799,0.0,0.0,0.0,1.0,0.0,0.0,0.0,0.0,0.0,0.0,0.0,0,3,0,0,0,0,0,0,0,0,0,3,1,0,0,0
520461067,0.0,0.0,0.0,1.0,0.0,0.0,0.0,0.0,0.0,0.0,0.0,0,3,0,0,0,0,0,0,0,0,0,3,1,0,0,0
520661288,0.0,0.0,0.0,1.0,0.0,0.0,0.0,0.0,0.0,0.0,0.0,0,3,0,0,0,0,0,0,0,0,0,3,1,0,0,0
520861481,0.0,0.0,0.0,1.0,0.0,0.0,0.0,0.0,0.0,0.0,0.0,0,3,0,0,0,0,0,0,0,0,0,3,1,0,0,0
521061587,0.0,0.0,0.0,1.0,0.0,0.0,0.0,0.0,0.0,0.0,0.0,0,3,0,0,0,0,0,0,0,0,0,3,1,0,0,0
521281601,0.0,0.0,0.0,1.0,0.0,0.0,0.0,0.0,0.0,0.0,0.0,0,3,0,0,0,0,0,0,0,0,0,3,1,0,0,0
521481875,0.0,0.0,0.0,0.9861603,0.0,0.0,0.0,0.0,0.0,0.0,0.0,0,3,0,0,0,0,0,0,0,0,0,3,1,0,0,0
521682013,0.0,0.0,0.5055204,-0.018075587,0.0,0.0,0.0,0.0,0.0,0.0,0.0,0,3,0,0,0,0,0,0,0,0,0,3,1,0,0,0
521882119,0.0,0.0,0.49322915,3.669639e-05,0.0,0.0,0.0,0.0,0.0,0.0,0.0,0,3,0,0,0,0,0,0,0,0,0,3,1,0,0,0
522062691,0.0,0.0,0.49325156,-1.08185624e-07,0.0,0.0,0.0,0.0,0.0,0.0,0.0,0,3,0,0,0,0,0,0,0,0,0,3,1,0,0,0
522282701,0.0,0.0,0.49325156,9.9878855e-11,0.0,0.0,0.0,0.0,0.0,0.0,0.0,0,3,0,0,0,0,0,0,0,0,0,3,1,0,0,0
522482787,0.0,0.0,0.49325156,-1.4212626e-13,0.0,0.0,0.0,0.0,0.0,0.0,0.0,0,3,0,0,0,0,0,0,0,0,0,3,1,0,0,0
522682922,0.0,0.0,0.49325156,8.012742e-17,0.0,0.0,0.0,0.0,0.0,0.0,0.0,0,3,0,0,0,0,0,0,0,0,0,3,1,0,0,0
522903472,0.0,0.0,0.49325156,1.03752844e-20,0.0,0.0,0.0,0.0,0.0,0.0,0.0,0,3,0,0,0,0,0,0,0,0,0,3,1,0,0,0
523103750,0.0,0.0,0.49325156,-1.4432715e-24,0.0,0.0,0.0,0.0,0.0,0.0,0.0,0,3,0,0,0,0,0,0,0,0,0,3,1,0,0,0
523303815,0.0,0.0,0.49325156,-2.2261766e-27,0.0,0.0,0.0,0.0,0.0,0.0,0.0,0,3,0,0,0,0,0,0,0,0,0,3,1,0,0,0
523504006,0.0,0.0,0.49325156,-3.8553323e-31,0.0,0.0,0.0,0.0,0.0,0.0,0.0,0,3,0,0,0,0,0,0,0,0,0,3,1,0,0,0
523704153,0.0,0.0,0.49325156,9.703215e-35,0.0,0.0,0.0,0.0,0.0,0.0,0.0,0,3,0,0,0,0,0,0,0,0,0,3,1,0,0,0
523904691,0.0,0.0,0.49325156,3.6036184e-38,0.0,0.0,0.0,0.0,0.0,0.0,0.0,0,3,0,0,0,0,0,0,0,0,0,3,1,0,0,0
524104629,0.0,0.0,0.49325156,3.7274e-40,0.0,0.0,0.0,0.0,0.0,0.0,0.0,0,3,0,0,0,0,0,0,0,0,0,3,1,0,0,0
524324610,0.0,0.0,0.49325156,8.8e-44,0.0,0.0,0.0,0.0,0.0,0.0,0.0,0,3,0,0,0,0,0,0,0,0,0,3,1,0,0,0
524524844,0.0,0.0,0.49325156,0.0,0.0,0.0,0.0,0.0,0.0,0.0,0.0,0,3,0,0,0,0,0,0,0,0,0,3,1,0,0,0
524725063,0.0,0.0,0.49325156,0.0,0.0,0.0,0.0,0.0,0.0,0.0,0.0,0,3,0,0,0,0,0,0,0,0,0,3,1,0,0,0
524925155,0.0,0.0,0.56928253,0.0,0.0,0.0,0.0,0.0,0.0,0.0,0.0,0,3,0,0,0,0,0,0,0,0,0,3,1,0,0,0
525125346,0.0,0.0,0.6179739,0.0,0.0,0.0,0.0,0.0,0.0,0.0,0.0,0,3,0,0,0,0,0,0,0,0,0,3,1,0,0,0
525325664,0.0,0.0,0.62444484,0.0,0.0,0.0,0.0,0.0,0.0,0.0,0.0,0,3,0,0,0,0,0,0,0,0,0,3,1,0,0,0
525525840,0.0,0.0,0.622674,0.0,0.0,0.0,0.0,0.0,0.0,0.0,0.0,0,3,0,0,0,0,0,0,0,0,0,3,1,0,0,0
525725969,0.0,0.0,0.657195,0.0,0.0,0.0,0.0,0.0,0.0,0.0,0.0,0,3,0,0,0,0,0,0,0,0,0,3,1,0,0,0
525946489,0.0,0.0,0.72727,0.0,0.0,0.0,0.0,0.0,0.0,0.0,0.0,0,3,0,0,0,0,0,0,0,0,0,3,1,0,0,0
526146916,0.0,0.0,0.7300408,0.0,0.0,0.0,0.0,0.0,0.0,0.0,0.0,0,3,0,0,0,0,0,0,0,0,0,3,1,0,0,0
526346818,0.0,0.0,0.71484375,0.0,0.0,0.0,0.0,0.0,0.0,0.0,0.0,0,3,0,0,0,0,0,0,0,0,0,3,1,0,0,0
526547069,0.0,0.0,0.71931005,0.0,0.0,0.0,0.0,0.0,0.0,0.0,0.0,0,3,0,0,0,0,0,0,0,0,0,3,1,0,0,0
526747306,0.0,0.0,0.72447973,0.0,0.0,0.0,0.0,0.0,0.0,0.0,0.0,0,3,0,0,0,0,0,0,0,0,0,3,1,0,0,0
526947484,0.0,0.0,0.7246644,0.0,0.0,0.0,0.0,0.0,0.0,0.0,0.0,0,3,0,0,0,0,0,0,0,0,0,3,1,0,0,0
527167451,0.0,0.0,0.73618376,0.0,0.0,0.0,0.0,0.0,0.0,0.0,0.0,0,3,0,0,0,0,0,0,0,0,0,3,1,0,0,0
527367799,0.0,0.0,0.7327528,0.0,0.0,0.0,0.0,0.0,0.0,0.0,0.0,0,3,0,0,0,0,0,0,0,0,0,3,1,0,0,0
527567948,0.0,0.0,0.7327666,0.0,0.0,0.0,0.0,0.0,0.0,0.0,0.0,0,3,0,0,0,0,0,0,0,0,0,3,1,0,0,0
527768057,0.0,0.0,0.73921436,0.0,0.0,0.0,0.0,0.0,0.0,0.0,0.0,0,3,0,0,0,0,0,0,0,0,0,3,1,0,0,0
527968389,0.0,0.0,0.7373009,0.0,0.0,0.0,0.0,0.0,0.0,0.0,0.0,0,3,0,0,0,0,0,0,0,0,0,3,1,0,0,0
528168560,0.0,0.0,0.7686098,0.0,0.0,0.0,0.0,0.0,0.0,0.0,0.0,0,3,0,0,0,0,0,0,0,0,0,3,1,0,0,0
528368745,0.0,0.0,0.75260705,0.0,0.0,0.0,0.0,0.0,0.0,0.0,0.0,0,3,0,0,0,0,0,0,0,0,0,3,1,0,0,0
528568843,0.0,0.0,0.74839973,0.0,0.0,0.0,0.0,0.0,0.0,0.0,0.0,0,3,0,0,0,0,0,0,0,0,0,3,1,0,0,0
528769025,0.0,0.0,0.73667574,0.0,0.0,0.0,0.0,0.0,0.0,0.0,0.0,0,3,0,0,0,0,0,0,0,0,0,3,1,0,0,0
528949474,0.032102253,0.0,0.73751533,0.0,0.0,0.0,0.0,0.0,0.0,0.0,0.0,0,3,0,0,0,0,0,0,0,0,0,3,1,0,0,0
529189826,0.09776733,0.0,0.73602676,0.0,0.0,0.0,0.0,0.0,0.0,0.0,0.0,0,3,0,0,0,0,0,0,0,0,0,3,1,0,0,0
529389888,0.37220544,0.0,0.7374217,0.0,0.0,0.0,0.0,0.0,0.0,0.0,0.0,0,3,0,0,0,0,0,0,0,0,0,3,1,0,0,0
529590125,0.4653797,0.0,0.7375433,0.0,0.0,0.0,0.0,0.0,0.0,0.0,0.0,0,3,0,0,0,0,0,0,0,0,0,3,1,0,0,0
529790347,0.38085452,0.0,0.7374233,0.0,0.0,0.0,0.0,0.0,0.0,0.0,0.0,0,3,0,0,0,0,0,0,0,0,0,3,1,0,0,0
529990659,0.062961474,0.0,0.73132885,0.0,0.0,0.0,0.0,0.0,0.0,0.0,0.0,0,3,0,0,0,0,0,0,0,0,0,3,1,0,0,0
530190794,-3.2910055e-05,-0.029803935,0.7159412,0.0,0.0,0.0,0.0,0.0,0.0,0.0,0.0,0,3,0,0,0,0,0,0,0,0,0,3,1,0,0,0
530391120,-1.17733265e-07,-1.0,0.7026633,0.0,0.0,0.0,0.0,0.0,0.0,0.0,0.0,0,3,0,0,0,0,0,0,0,0,0,3,1,0,0,0
530610923,-8.699766e-11,-0.15658283,0.7032507,0.0,0.0,0.0,0.0,0.0,0.0,0.0,0.0,0,3,0,0,0,0,0,0,0,0,0,3,1,0,0,0
530811093,-9.982992e-15,0.005384418,0.69783634,0.0,0.0,0.0,0.0,0.0,0.0,0.0,0.0,0,3,0,0,0,0,0,0,0,0,0,3,1,0,0,0
531011254,1.5442218e-17,0.9974292,0.6976473,0.0,0.0,0.0,0.0,0.0,0.0,0.0,0.0,0,3,0,0,0,0,0,0,0,0,0,3,1,0,0,0
531211525,-9.2485295e-21,0.9907752,0.70197815,0.0,0.0,0.0,0.0,0.0,0.0,0.0,0.0,0,3,0,0,0,0,0,0,0,0,0,3,1,0,0,0
531411719,1.5334347e-24,0.23022681,0.69633114,0.0,0.0,0.0,0.0,0.0,0.0,0.0,0.0,0,3,0,0,0,0,0,0,0,0,0,3,1,0,0,0
531611883,2.5767177e-27,0.00049287267,0.6946028,0.0,0.0,0.0,0.0,0.0,0.0,0.0,0.0,0,3,0,0,0,0,0,0,0,0,0,3,1,0,0,0
531792384,-2.8973914e-30,-1.9433631e-07,0.68976957,0.0,0.0,0.0,0.0,0.0,0.0,0.0,0.0,0,3,0,0,0,0,0,0,0,0,0,3,1,0,0,0
532032654,-1.0,-0.08930196,0.69818544,0.0,0.0,0.0,0.0,0.0,0.0,0.0,0.0,0,3,0,0,0,0,0,0,0,0,0,3,1,0,0,0
532232750,-1.0,-0.02262103,0.69082963,0.0,0.0,0.0,0.0,0.0,0.0,0.0,0.0,0,3,0,0,0,0,0,0,0,0,0,3,1,0,0,0
532432938,-0.2911316,1.1840641e-05,0.69717807,0.0,0.0,0.0,0.0,0.0,0.0,0.0,0.0,0,3,0,0,0,0,0,0,0,0,0,3,1,0,0,0
532633161,0.0040520644,-8.990014e-09,0.6823615,0.0,0.0,0.0,0.0,0.0,0.0,0.0,0.0,0,3,0,0,0,0,0,0,0,0,0,3,1,0,0,0
532833472,-5.81263e-06,1.3604999e-11,0.6837479,0.0,0.0,0.0,0.0,0.0,0.0,0.0,0.0,0,3,0,0,0,0,0,0,0,0,0,3,1,0,0,0
533033470,1.0,0.0009412508,0.6892498,0.0,0.0,0.0,0.0,0.0,0.0,0.0,0.0,0,3,0,0,0,0,0,0,0,0,0,3,1,0,0,0
533233864,1.0,-1.6113786e-07,0.6832528,0.0,0.0,0.0,0.0,0.0,0.0,0.0,0.0,0,3,0,0,0,0,0,0,0,0,0,3,1,0,0,0
533433961,1.0,-1.9816263e-10,0.67925984,0.0,0.0,0.0,0.0,0.0,0.0,0.0,0.0,0,3,0,0,0,0,0,0,0,0,0,3,1,0,0,0
533653910,0.0014202471,-3.161069e-14,0.664442,0.0,0.0,0.0,0.0,0.0,0.0,0.0,0.0,0,3,0,0,0,0,0,0,0,0,0,3,1,0,0,0
533854196,-7.814017e-07,3.7208582e-17,0.6360246,0.0,0.0,0.0,0.0,0.0,0.0,0.0,0.0,0,3,0,0,0,0,0,0,0,0,0,3,1,0,0,0
534054404,-2.3133628e-10,2.6575318e-21,0.4929436,0.00094137754,0.0,0.0,0.0,0.0,0.0,0.0,0.0,0,3,0,0,0,0,0,0,0,0,0,3,1,0,0,0
534254739,1.7118784e-13,-6.2348797e-24,0.0,-1.3161548e-07,0.0,0.0,0.0,0.0,0.0,0.0,0.0,0,3,0,0,0,0,0,0,0,0,0,3,1,0,0,0
534454721,3.2160792e-17,1.6715654e-28,0.0,-2.0190362e-10,0.0,0.0,0.0,0.0,0.0,0.0,0.0,0,3,0,0,0,0,0,0,0,0,0,3,1,0,0,0
534654798,-6.891037e-21,5.5470803e-31,0.0,-3.4906543e-14,0.0,0.0,0.0,0.0,0.0,0.0,0.0,0,3,0,0,0,0,0,0,0,0,0,3,1,0,0,0
534875438,-9.201815e-25,7.125131e-35,0.49130684,-4.2878164e-18,0.0,0.0,0.0,0.0,0.0,0.0,0.0,0,3,0,0,0,0,0,0,0,0,0,3,1,0,0,0
535075703,2.0117084e-27,-1.095527e-37,0.81522566,0.24990228,0.0,0.0,0.0,0.0,0.0,0.0,0.0,0,3,0,0,0,0,0,0,0,0,0,3,1,0,0,0
535275916,-7.0748405e-30,4.3318e-41,0.9991755,0.23726635,0.0,0.0,0.0,0.0,0.0,0.0,0.0,0,3,0,0,0,0,0,0,0,0,0,3,1,0,0,0
535475901,7.352577e-33,1e-43,1.0,0.12668166,0.0,0.0,0.0,0.0,0.0,0.0,0.0,0,3,0,0,0,0,0,0,0,0,0,3,1,0,0,0
535676389,-2.157173e-36,0.0,1.0,0.12655096,0.0,0.0,0.0,0.0,0.0,0.0,0.0,0,3,0,0,0,0,0,0,0,0,0,3,1,0,0,0
535876540,-1.098918e-39,0.0,1.0,0.12827803,0.0,0.0,0.0,0.0,0.0,0.0,0.0,0,3,0,0,0,0,0,0,0,0,0,3,1,0,0,0
536076586,-6.9e-44,0.0,1.0,0.12909664,0.0,0.0,0.0,0.0,0.0,0.0,0.0,0,3,0,0,0,0,0,0,0,0,0,3,1,0,0,0
536276806,0.0,0.0,0.81699395,0.12723519,0.0,0.0,0.0,0.0,0.0,0.0,0.0,0,3,0,0,0,0,0,0,0,0,0,3,1,0,0,0
536477125,0.0,0.0,0.5152087,0.0059576724,0.0,0.0,0.0,0.0,0.0,0.0,0.0,0,3,0,0,0,0,0,0,0,0,0,3,1,0,0,0
536696932,0.0,0.0,0.48992518,0.44189543,0.0,0.0,0.0,0.0,0.0,0.0,0.0,0,3,0,0,0,0,0,0,0,0,0,3,1,0,0,0
536897193,0.0,0.0,0.49325585,1.0,0.0,0.0,0.0,0.0,0.0,0.0,0.0,0,3,0,0,0,0,0,0,0,0,0,3,1,0,0,0
537097342,0.0,0.0,0.500938,0.523302,0.0,0.0,0.0,0.0,0.0,0.0,0.0,0,3,0,0,0,0,0,0,0,0,0,3,1,0,0,0
537297692,0.0,0.0,0.49335408,-0.00013142967,0.0,0.0,0.0,0.0,0.0,0.0,0.0,0,3,0,0,0,0,0,0,0,0,0,3,1,0,0,0
537497856,0.0,0.0,0.49325144,-0.37692186,0.0,0.0,0.0,0.0,0.0,0.0,0.0,0,3,0,0,0,0,0,0,0,0,0,3,1,0,0,0
537678374,0.0,0.0,0.49325156,-0.003431995,0.0,0.0,0.0,0.0,0.0,0.0,0.0,0,3,0,0,0,0,0,0,0,0,0,3,1,0,0,0
537898135,0.0,0.0,0.55569446,-0.009319664,0.0,0.0,0.0,0.0,0.0,0.0,0.0,0,3,0,0,0,0,0,0,0,0,0,3,1,0,0,0
538098488,0.0,0.0,0.4932276,4.032619e-06,0.0,0.0,0.0,0.0,0.0,0.0,0.0,0,3,0,0,0,0,0,0,0,0,0,3,1,0,0,0
538298714,0.0,0.0,0.49325156,4.2616022e-10,0.0,0.0,0.0,0.0,0.0,0.0,0.0,0,3,0,0,0,0,0,0,0,0,0,3,1,0,0,0
538518994,0.0,0.0,0.49325156,-2.078774e-12,0.0,0.0,0.0,0.0,0.0,0.0,0.0,0,3,0,0,0,0,0,0,0,0,0,3,1,0,0,0
538719288,0.0,0.0,0.49325156,1.6245057e-16,0.0,0.0,0.0,0.0,0.0,0.0,0.0,0,3,0,0,0,0,0,0,0,0,0,3,1,0,0,0
538919508,0.0,0.0,0.49325156,2.0916185e-19,0.0,0.0,0.0,0.0,0.0,0.0,0.0,0,3,0,0,0,0,0,0,0,0,0,3,1,0,0,0
539099525,0.0,0.0,0.49325156,-3.1048545e-22,0.0,0.0,0.0,0.0,0.0,0.0,0.0,0,3,0,0,0,0,0,0,0,0,0,3,1,0,0,0
539319821,0.0,0.0,0.54085404,6.4806714e-05,0.0,0.0,0.0,0.0,0.0,0.0,0.0,0,3,0,0,0,0,0,0,0,0,0,3,1,0,0,0
539520069,0.0,0.0,0.6282586,0.0001015167,0.0,0.0,0.0,0.0,0.0,0.0,0.0,0,3,0,0,0,0,0,0,0,0,0,3,1,0,0,0
539740111,0.0,0.0,0.6665133,1.342572e-08,0.0,0.0,0.0,0.0,0.0,0.0,0.0,0,3,0,0,0,0,0,0,0,0,0,3,1,0,0,0
539940334,0.0,0.0,0.65612435,6.561478e-12,0.0,0.0,0.0,0.0,0.0,0.0,0.0,0,3,0,0,0,0,0,0,0,0,0,3,1,0,0,0
540140405,0.0,0.0,0.65907085,-3.5344724e-15,0.0,0.0,0.0,0.0,0.0,0.0,0.0,0,3,0,0,0,0,0,0,0,0,0,3,1,0,0,0
540340563,0.0,0.0,0.662299,-1.0782633e-18,0.0,0.0,0.0,0.0,0.0,0.0,0.0,0,3,0,0,0,0,0,0,0,0,0,3,1,0,0,0
540540903,0.0,0.0,0.6634254,7.816339e-22,0.0,0.0,0.0,0.0,0.0,0.0,0.0,0,3,0,0,0,0,0,0,0,0,0,3,1,0,0,0
540741151,0.0,0.0,0.67845803,-2.2560847e-25,0.0,0.0,0.0,0.0,0.0,0.0,0.0,0,3,0,0,0,0,0,0,0,0,0,3,1,0,0,0
540941171,0.0,0.0,0.68351483,-1.3399505e-28,0.0,0.0,0.0,0.0,0.0,0.0,0.0,0,3,0,0,0,0,0,0,0,0,0,3,1,0,0,0
541161823,0.0,0.0,0.6876071,-1.6022878e-32,0.0,0.0,0.0,0.0,0.0,0.0,0.0,0,3,0,0,0,0,0,0,0,0,0,3,1,0,0,0
541361934,0.0,0.0,0.6955129,2.680866e-35,0.0,0.0,0.0,0.0,0.0,0.0,0.0,0,3,0,0,0,0,0,0,0,0,0,3,1,0,0,0
541541933,0.0,0.0,0.69079834,-1.6609774e-38,0.0,0.0,0.0,0.0,0.0,0.0,0.0,0,3,0,0,0,0,0,0,0,0,0,3,1,0,0,0
541762224,0.0,0.0,0.71116275,-4.132e-42,0.0,0.0,0.0,0.0,0.0,0.0,0.0,0,3,0,0,0,0,0,0,0,0,0,3,1,0,0,0
541962513,0.0,0.0,0.70523214,0.0,0.0,0.0,0.0,0.0,0.0,0.0,0.0,0,3,0,0,0,0,0,0,0,0,0,3,1,0,0,0
542162912,0.0,0.0,0.7101884,0.0,0.0,0.0,0.0,0.0,0.0,0.0,0.0,0,3,0,0,0,0,0,0,0,0,0,3,1,0,0,0
542362945,0.0,0.0,0.72131383,0.0,0.0,0.0,0.0,0.0,0.0,0.0,0.0,0,3,0,0,0,0,0,0,0,0,0,3,1,0,0,0
542563048,0.0,0.0,0.72305334,0.0,0.0,0.0,0.0,0.0,0.0,0.0,0.0,0,3,0,0,0,0,0,0,0,0,0,3,1,0,0,0
542783040,0.0,0.0,0.7446826,0.0,0.0,0.0,0.0,0.0,0.0,0.0,0.0,0,3,0,0,0,0,0,0,0,0,0,3,1,0,0,0
542983249,0.0,0.0,0.7630839,0.0,0.0,0.0,0.0,0.0,0.0,0.0,0.0,0,3,0,0,0,0,0,0,0,0,0,3,1,0,0,0
543183537,0.0,0.0,0.76804835,0.0,0.0,0.0,0.0,0.0,0.0,0.0,0.0,0,3,0,0,0,0,0,0,0,0,0,3,1,0,0,0
543383616,0.0,0.0,0.77828085,0.0,0.0,0.0,0.0,0.0,0.0,0.0,0.0,0,3,0,0,0,0,0,0,0,0,0,3,1,0,0,0
543583989,0.0,0.0,0.7540028,0.0,0.0,0.0,0.0,0.0,0.0,0.0,0.0,0,3,0,0,0,0,0,0,0,0,0,3,1,0,0,0
543784048,0.0,0.0,0.78934234,0.0,0.0,0.0,0.0,0.0,0.0,0.0,0.0,0,3,0,0,0,0,0,0,0,0,0,3,1,0,0,0
543964641,0.0,0.0,0.7993768,0.0,0.0,0.0,0.0,0.0,0.0,0.0,0.0,0,3,0,0,0,0,0,0,0,0,0,3,1,0,0,0
544184406,0.0,0.0,0.82681113,0.0,0.0,0.0,0.0,0.0,0.0,0.0,0.0,0,3,0,0,0,0,0,0,0,0,0,3,1,0,0,0
544404927,0.0,0.0,0.84052265,0.0,0.0,0.0,0.0,0.0,0.0,0.0,0.0,0,3,0,0,0,0,0,0,0,0,0,3,1,0,0,0
544605176,0.0,0.0,0.8623599,0.0,0.0,0.0,0.0,0.0,0.0,0.0,0.0,0,3,0,0,0,0,0,0,0,0,0,3,1,0,0,0
544805341,0.0,0.0,0.8519705,0.0,0.0,0.0,0.0,0.0,0.0,0.0,0.0,0,3,0,0,0,0,0,0,0,0,0,3,1,0,0,0
545005447,0.03636084,0.0,0.8611903,0.0,0.0,0.0,0.0,0.0,0.0,0.0,0.0,0,3,0,0,0,0,0,0,0,0,0,3,1,0,0,0
545185452,0.4175424,0.0,0.87442434,0.0,0.0,0.0,0.0,0.0,0.0,0.0,0.0,0,3,0,0,0,0,0,0,0,0,0,3,1,0,0,0
545405970,0.29146913,0.0,0.8653195,0.0,0.0,0.0,0.0,0.0,0.0,0.0,0.0,0,3,0,0,0,0,0,0,0,0,0,3,1,0,0,0
545606085,0.25708166,0.0,0.86611426,0.0,0.0,0.0,0.0,0.0,0.0,0.0,0.0,0,3,0,0,0,0,0,0,0,0,0,3,1,0,0,0
545826092,0.24558577,0.0,0.86909807,0.0,0.0,0.0,0.0,0.0,0.0,0.0,0.0,0,3,0,0,0,0,0,0,0,0,0,3,1,0,0,0
546026305,0.14370082,0.0,0.825011,0.0,0.0,0.0,0.0,0.0,0.0,0.0,0.0,0,3,0,0,0,0,0,0,0,0,0,3,1,0,0,0
546226457,0.18153195,0.0,0.843461,0.0,0.0,0.0,0.0,0.0,0.0,0.0,0.0,0,3,0,0,0,0,0,0,0,0,0,3,1,0,0,0
546426756,0.19952425,0.0,0.86419505,0.0,0.0,0.0,0.0,0.0,0.0,0.0,0.0,0,3,0,0,0,0,0,0,0,0,0,3,1,0,0,0
546626763,0.16737366,0.0,0.85894954,0.0,0.0,0.0,0.0,0.0,0.0,0.0,0.0,0,3,0,0,0,0,0,0,0,0,0,3,1,0,0,0
546827061,0.15395178,0.0,0.8597876,0.0,0.0,0.0,0.0,0.0,0.0,0.0,0.0,0,3,0,0,0,0,0,0,0,0,0,3,1,0,0,0
547027294,0.1145606,0.0,0.8774678,0.0,0.0,0.0,0.0,0.0,0.0,0.0,0.0,0,3,0,0,0,0,0,0,0,0,0,3,1,0,0,0
547247901,0.10409873,0.0,0.8862244,0.0,0.0,0.0,0.0,0.0,0.0,0.0,0.0,0,3,0,0,0,0,0,0,0,0,0,3,1,0,0,0
547447921,0.11041781,0.0,0.8770207,0.0,0.0,0.0,0.0,0.0,0.0,0.0,0.0,0,3,0,0,0,0,0,0,0,0,0,3,1,0,0,0
547648294,0.11717876,0.0,0.8774361,0.0,0.0,0.0,0.0,0.0,0.0,0.0,0.0,0,3,0,0,0,0,0,0,0,0,0,3,1,0,0,0
547848502,0.10989601,0.0,0.8768315,0.0,0.0,0.0,0.0,0.0,0.0,0.0,0.0,0,3,0,0,0,0,0,0,0,0,0,3,1,0,0,0
548048682,0.1023962,0.0,0.8811153,0.0,0.0,0.0,0.0,0.0,0.0,0.0,0.0,0,3,0,0,0,0,0,0,0,0,0,3,1,0,0,0
548248755,0.08227873,0.0,0.8900869,0.0,0.0,0.0,0.0,0.0,0.0,0.0,0.0,0,3,0,0,0,0,0,0,0,0,0,3,1,0,0,0
548449099,0.07845869,0.0,0.8876389,0.0,0.0,0.0,0.0,0.0,0.0,0.0,0.0,0,3,0,0,0,0,0,0,0,0,0,3,1,0,0,0
548649316,0.095807485,0.0,0.87995625,0.0,0.0,0.0,0.0,0.0,0.0,0.0,0.0,0,3,0,0,0,0,0,0,0,0,0,3,1,0,0,0
548849465,0.116695456,0.0,0.8944492,0.0,0.0,0.0,0.0,0.0,0.0,0.0,0.0,0,3,0,0,0,0,0,0,0,0,0,3,1,0,0,0
549049466,0.1638149,0.0,0.86914915,0.0,0.0,0.0,0.0,0.0,0.0,0.0,0.0,0,3,0,0,0,0,0,0,0,0,0,3,1,0,0,0
549269629,0.15568878,0.0,0.8017251,0.0,0.0,0.0,0.0,0.0,0.0,0.0,0.0,0,3,0,0,0,0,0,0,0,0,0,3,1,0,0,0
549449947,0.16175988,0.0,0.84501284,0.0,0.0,0.0,0.0,0.0,0.0,0.0,0.0,0,3,0,0,0,0,0,0,0,0,0,3,1,0,0,0
549669930,0.15899299,0.0,0.857206,0.0,0.0,0.0,0.0,0.0,0.0,0.0,0.0,0,3,0,0,0,0,0,0,0,0,0,3,1,0,0,0
549870118,0.16176108,0.0,0.90788084,0.0,0.0,0.0,0.0,0.0,0.0,0.0,0.0,0,3,0,0,0,0,0,0,0,0,0,3,1,0,0,0
550070433,0.15969561,0.0,0.98497546,0.0,0.0,0.0,0.0,0.0,0.0,0.0,0.0,0,3,0,0,0,0,0,0,0,0,0,3,1,0,0,0
550270622,0.15718678,0.0,1.0,0.0,0.0,0.0,0.0,0.0,0.0,0.0,0.0,0,3,0,0,0,0,0,0,0,0,0,3,1,0,0,0
550470730,0.1593747,0.0,1.0,0.0,0.0,0.0,0.0,0.0,0.0,0.0,0.0,0,3,0,0,0,0,0,0,0,0,0,3,1,0,0,0
550691173,0.1631361,0.0,1.0,0.0,0.0,0.0,0.0,0.0,0.0,0.0,0.0,0,3,0,0,0,0,0,0,0,0,0,3,1,0,0,0
550891445,0.16633286,0.0,1.0,0.0,0.0,0.0,0.0,0.0,0.0,0.0,0.0,0,3,0,0,0,0,0,0,0,0,0,3,1,0,0,0
551091728,0.15677801,0.0,1.0,0.0,0.0,0.0,0.0,0.0,0.0,0.0,0.0,0,3,0,0,0,0,0,0,0,0,0,3,1,0,0,0
551292002,0.15629578,0.0,1.0,0.0,0.0,0.0,0.0,0.0,0.0,0.0,0.0,0,3,0,0,0,0,0,0,0,0,0,3,1,0,0,0
551471719,0.16111279,0.0,1.0,0.0,0.0,0.0,0.0,0.0,0.0,0.0,0.0,0,3,0,0,0,0,0,0,0,0,0,3,1,0,0,0
551692270,0.2799652,0.0,1.0,0.0,0.0,0.0,0.0,0.0,0.0,0.0,0.0,0,3,0,0,0,0,0,0,0,0,0,3,1,0,0,0
551892516,0.49917305,0.0,1.0,0.0,0.0,0.0,0.0,0.0,0.0,0.0,0.0,0,3,0,0,0,0,0,0,0,0,0,3,1,0,0,0
552092700,0.47607163,0.0,1.0,0.0,0.0,0.0,0.0,0.0,0.0,0.0,0.0,0,3,0,0,0,0,0,0,0,0,0,3,1,0,0,0
552312515,0.46758294,0.0,1.0,0.0,0.0,0.0,0.0,0.0,0.0,0.0,0.0,0,3,0,0,0,0,0,0,0,0,0,3,1,0,0,0
552512861,0.5203592,0.0,1.0,0.0,0.0,0.0,0.0,0.0,0.0,0.0,0.0,0,3,0,0,0,0,0,0,0,0,0,3,1,0,0,0
552693316,0.6081909,0.0,1.0,0.0,0.0,0.0,0.0,0.0,0.0,0.0,0.0,0,3,0,0,0,0,0,0,0,0,0,3,1,0,0,0
552913211,0.5422517,0.0,1.0,0.0,0.0,0.0,0.0,0.0,0.0,0.0,0.0,0,3,0,0,0,0,0,0,0,0,0,3,1,0,0,0
553113292,0.53351325,0.0,1.0,0.0,0.0,0.0,0.0,0.0,0.0,0.0,0.0,0,3,0,0,0,0,0,0,0,0,0,3,1,0,0,0
553293847,0.49588323,0.0,1.0,0.0,0.0,0.0,0.0,0.0,0.0,0.0,0.0,0,3,0,0,0,0,0,0,0,0,0,3,1,0,0,0
553513686,0.44594514,0.0,1.0,0.0,0.0,0.0,0.0,0.0,0.0,0.0,0.0,0,3,0,0,0,0,0,0,0,0,0,3,1,0,0,0
553694279,0.4521827,0.0,1.0,0.0,0.0,0.0,0.0,0.0,0.0,0.0,0.0,0,3,0,0,0,0,0,0,0,0,0,3,1,0,0,0
553914133,0.46903396,0.0,1.0,0.0,0.0,0.0,0.0,0.0,0.0,0.0,0.0,0,3,0,0,0,0,0,0,0,0,0,3,1,0,0,0
554114449,0.45517913,0.0,1.0,0.0,0.0,0.0,0.0,0.0,0.0,0.0,0.0,0,3,0,0,0,0,0,0,0,0,0,3,1,0,0,0
554334801,0.31331447,0.0,0.6661308,0.0,0.0,0.0,0.0,0.0,0.0,0.0,0.0,0,3,0,0,0,0,0,0,0,0,0,3,1,0,0,0
554534991,0.38175696,0.0,0.4932637,0.0,0.0,0.0,0.0,0.0,0.0,0.0,0.0,0,3,0,0,0,0,0,0,0,0,0,3,1,0,0,0
554735258,0.44324476,0.0,0.4932515,0.0,0.0,0.0,0.0,0.0,0.0,0.0,0.0,0,3,0,0,0,0,0,0,0,0,0,3,1,0,0,0
554935528,0.39904177,0.0,0.49325153,0.0,0.0,0.0,0.0,0.0,0.0,0.0,0.0,0,3,0,0,0,0,0,0,0,0,0,3,1,0,0,0
555135717,0.39895153,0.0,0.49325153,0.0,0.0,0.0,0.0,0.0,0.0,0.0,0.0,0,3,0,0,0,0,0,0,0,0,0,3,1,0,0,0
555335823,0.41257572,0.0,0.49325153,0.0,0.0,0.0,0.0,0.0,0.0,0.0,0.0,0,3,0,0,0,0,0,0,0,0,0,3,1,0,0,0
555535988,0.4210444,0.0,0.49325153,0.0,0.0,0.0,0.0,0.0,0.0,0.0,0.0,0,3,0,0,0,0,0,0,0,0,0,3,1,0,0,0
555756037,0.40725768,0.0,0.49325153,0.0,0.0,0.0,0.0,0.0,0.0,0.0,0.0,0,3,0,0,0,0,0,0,0,0,0,3,1,0,0,0
555956291,0.39885765,0.0,0.49325153,0.0,0.0,0.0,0.0,0.0,0.0,0.0,0.0,0,3,0,0,0,0,0,0,0,0,0,3,1,0,0,0
556156413,0.39868703,0.0,0.49325153,0.0,0.0,0.0,0.0,0.0,0.0,0.0,0.0,0,3,0,0,0,0,0,0,0,0,0,3,1,0,0,0
556356535,0.4020203,0.0,0.49325153,0.0,0.0,0.0,0.0,0.0,0.0,0.0,0.0,0,3,0,0,0,0,0,0,0,0,0,3,1,0,0,0
556537093,0.41651997,0.0,0.49325153,0.0,0.0,0.0,0.0,0.0,0.0,0.0,0.0,0,3,0,0,0,0,0,0,0,0,0,3,1,0,0,0
556757133,0.43658474,0.0,0.49325153,0.0,0.0,0.0,0.0,0.0,0.0,0.0,0.0,0,3,0,0,0,0,0,0,0,0,0,3,1,0,0,0
556957159,0.4384942,0.0,0.49325153,0.060451027,0.0,0.0,0.0,0.0,0.0,0.0,0.0,0,3,0,0,0,0,0,0,0,0,0,3,1,0,0,0
557177718,0.42663246,0.0,0.49325153,0.043359686,0.0,0.0,0.0,0.0,0.0,0.0,0.0,0,3,0,0,0,0,0,0,0,0,0,3,1,0,0,0
557378121,0.4335427,0.0,0.49325153,0.18479742,0.0,0.0,0.0,0.0,0.0,0.0,0.0,0,3,0,0,0,0,0,0,0,0,0,3,1,0,0,0
557558027,0.42685005,0.0,0.49325153,0.35877663,0.0,0.0,0.0,0.0,0.0,0.0,0.0,0,3,0,0,0,0,0,0,0,0,0,3,1,0,0,0
557778381,0.41407236,0.0,0.49325153,0.16790897,0.0,0.0,0.0,0.0,0.0,0.0,0.0,0,3,0,0,0,0,0,0,0,0,0,3,1,0,0,0
557978515,0.42768285,0.0,0.49325153,0.29299632,0.0,0.0,0.0,0.0,0.0,0.0,0.0,0,3,0,0,0,0,0,0,0,0,0,3,1,0,0,0
558178819,0.42228755,0.0,0.49325153,0.22038293,0.0,0.0,0.0,0.0,0.0,0.0,0.0,0,3,0,0,0,0,0,0,0,0,0,3,1,0,0,0
558378920,0.4030795,0.0,0.49325153,0.113019615,0.0,0.0,0.0,0.0,0.0,0.0,0.0,0,3,0,0,0,0,0,0,0,0,0,3,1,0,0,0
558579052,0.38038456,0.0,0.49325153,8.553842e-05,0.0,0.0,0.0,0.0,0.0,0.0,0.0,0,3,0,0,0,0,0,0,0,0,0,3,1,0,0,0
558779317,0.3756109,0.0,0.49325153,8.732789e-08,0.0,0.0,0.0,0.0,0.0,0.0,0.0,0,3,0,0,0,0,0,0,0,0,0,3,1,0,0,0
558979491,0.3978126,0.0,0.49325153,-1.12404794e-10,0.0,0.0,0.0,0.0,0.0,0.0,0.0,0,3,0,0,0,0,0,0,0,0,0,3,1,0,0,0
559199435,0.40749118,0.0,0.49325153,-6.1332834e-15,0.0,0.0,0.0,0.0,0.0,0.0,0.0,0,3,0,0,0,0,0,0,0,0,0,3,1,0,0,0
559399750,0.4188775,0.0,0.49325153,7.92491e-18,0.0,0.0,0.0,0.0,0.0,0.0,0.0,0,3,0,0,0,0,0,0,0,0,0,3,1,0,0,0
559580114,0.42046133,0.0,0.49325153,-8.900685e-22,0.0,0.0,0.0,0.0,0.0,0.0,0.0,0,3,0,0,0,0,0,0,0,0,0,3,1,0,0,0
559800053,0.42957228,0.0,0.49325153,-1.7271064e-24,0.0,0.0,0.0,0.0,0.0,0.0,0.0,0,3,0,0,0,0,0,0,0,0,0,3,1,0,0,0
560000354,0.42786965,0.0,0.49325153,2.6260344e-27,0.0,0.0,0.0,0.0,0.0,0.0,0.0,0,3,0,0,0,0,0,0,0,0,0,3,1,0,0,0
560180644,0.4413918,0.0,0.49325153,-7.281802e-31,0.0,0.0,0.0,0.0,0.0,0.0,0.0,0,3,0,0,0,0,0,0,0,0,0,3,1,0,0,0
560400677,0.47610074,0.0,0.49325153,4.517972e-33,0.0,0.0,0.0,0.0,0.0,0.0,0.0,0,3,0,0,0,0,0,0,0,0,0,3,1,0,0,0
560621078,0.48684344,0.0,0.49325153,-3.9902075e-37,0.0,0.0,0.0,0.0,0.0,0.0,0.0,0,3,0,0,0,0,0,0,0,0,0,3,1,0,0,0
560821327,0.48283035,0.0,0.49325153,-5.91555e-40,0.0,0.0,0.0,0.0,0.0,0.0,0.0,0,3,0,0,0,0,0,0,0,0,0,3,1,0,0,0
561021588,0.47274336,0.0,0.49325153,1.67e-43,0.0,0.0,0.0,0.0,0.0,0.0,0.0,0,3,0,0,0,0,0,0,0,0,0,3,1,0,0,0
561221862,0.4747393,0.0,0.49325153,0.0,0.0,0.0,0.0,0.0,0.0,0.0,0.0,0,3,0,0,0,0,0,0,0,0,0,3,1,0,0,0
561421964,0.47519127,0.0,0.49325153,0.0,0.0,0.0,0.0,0.0,0.0,0.0,0.0,0,3,0,0,0,0,0,0,0,0,0,3,1,0,0,0
561622100,0.45676684,0.0,0.49325153,0.0,0.0,0.0,0.0,0.0,0.0,0.0,0.0,0,3,0,0,0,0,0,0,0,0,0,3,1,0,0,0
561822304,0.4718899,0.0,0.49325153,0.0,0.0,0.0,0.0,0.0,0.0,0.0,0.0,0,3,0,0,0,0,0,0,0,0,0,3,1,0,0,0
562022515,0.4697524,0.0,0.49325153,0.0,0.0,0.0,0.0,0.0,0.0,0.0,0.0,0,3,0,0,0,0,0,0,0,0,0,3,1,0,0,0
562222783,0.48358682,0.0,0.49325153,0.0,0.0,0.0,0.0,0.0,0.0,0.0,0.0,0,3,0,0,0,0,0,0,0,0,0,3,1,0,0,0
562423099,0.47554994,0.0,0.49325153,0.0,0.0,0.0,0.0,0.0,0.0,0.0,0.0,0,3,0,0,0,0,0,0,0,0,0,3,1,0,0,0
562642892,0.48602816,0.0,0.49325153,0.0,0.0,0.0,0.0,0.0,0.0,0.0,0.0,0,3,0,0,0,0,0,0,0,0,0,3,1,0,0,0
562843052,0.47229686,0.0,0.49325153,0.0,0.0,0.0,0.0,0.0,0.0,0.0,0.0,0,3,0,0,0,0,0,0,0,0,0,3,1,0,0,0
563043278,0.48411983,0.0,0.49325153,0.0,0.0,0.0,0.0,0.0,0.0,0.0,0.0,0,3,0,0,0,0,0,0,0,0,0,3,1,0,0,0
563243518,0.48088115,0.0,0.49325153,0.0,0.0,0.0,0.0,0.0,0.0,0.0,0.0,0,3,0,0,0,0,0,0,0,0,0,3,1,0,0,0
563443728,0.4823628,0.0,0.49325153,0.0,0.0,0.0,0.0,0.0,0.0,0.0,0.0,0,3,0,0,0,0,0,0,0,0,0,3,1,0,0,0
563643850,0.45989951,0.0,0.49325153,0.0,0.0,0.0,0.0,0.0,0.0,0.0,0.0,0,3,0,0,0,0,0,0,0,0,0,3,1,0,0,0
563844019,0.45878574,0.0,0.49325153,0.0,0.0,0.0,0.0,0.0,0.0,0.0,0.0,0,3,0,0,0,0,0,0,0,0,0,3,1,0,0,0
564044313,0.4412805,0.0,0.49325153,0.0,0.0,0.0,0.0,0.0,0.0,0.0,0.0,0,3,0,0,0,0,0,0,0,0,0,3,1,0,0,0
564264795,0.46368605,0.0,0.49325153,0.0,0.0,0.0,0.0,0.0,0.0,0.0,0.0,0,3,0,0,0,0,0,0,0,0,0,3,1,0,0,0
564464935,0.4987968,0.0,0.49325153,0.0,0.0,0.0,0.0,0.0,0.0,0.0,0.0,0,3,0,0,0,0,0,0,0,0,0,3,1,0,0,0
564665316,0.5289555,0.0,0.49325153,0.0,0.0,0.0,0.0,0.0,0.0,0.0,0.0,0,3,0,0,0,0,0,0,0,0,0,3,1,0,0,0
564865448,0.5106431,0.0,0.49325153,0.0,0.0,0.0,0.0,0.0,0.0,0.0,0.0,0,3,0,0,0,0,0,0,0,0,0,3,1,0,0,0
565065444,0.44940886,0.0,0.49325153,0.0,0.0,0.0,0.0,0.0,0.0,0.0,0.0,0,3,0,0,0,0,0,0,0,0,0,3,1,0,0,0
565265870,0.46378303,0.0,0.49325153,0.0,0.0,0.0,0.0,0.0,0.0,0.0,0.0,0,3,0,0,0,0,0,0,0,0,0,3,1,0,0,0
565465962,0.46963397,0.0,0.49325153,0.0,0.0,0.0,0.0,0.0,0.0,0.0,0.0,0,3,0,0,0,0,0,0,0,0,0,3,1,0,0,0
565666261,0.42703667,0.0,0.49325153,0.0,0.0,0.0,0.0,0.0,0.0,0.0,0.0,0,3,0,0,0,0,0,0,0,0,0,3,1,0,0,0
565886119,0.5741826,0.0,0.49325153,0.0,0.0,0.0,0.0,0.0,0.0,0.0,0.0,0,3,0,0,0,0,0,0,0,0,0,3,1,0,0,0
566086327,0.5405667,0.0,0.49325153,0.0,0.0,0.0,0.0,0.0,0.0,0.0,0.0,0,3,0,0,0,0,0,0,0,0,0,3,1,0,0,0
566286680,0.5332231,0.0,0.49325153,0.0,0.0,0.0,0.0,0.0,0.0,0.0,0.0,0,3,0,0,0,0,0,0,0,0,0,3,1,0,0,0
566486749,0.4974902,0.0,0.49325153,0.0,0.0,0.0,0.0,0.0,0.0,0.0,0.0,0,3,0,0,0,0,0,0,0,0,0,3,1,0,0,0
566686813,0.48209083,0.0,0.49325153,0.0,0.0,0.0,0.0,0.0,0.0,0.0,0.0,0,3,0,0,0,0,0,0,0,0,0,3,1,0,0,0
566887140,0.5466013,0.0,0.49325153,0.0,0.0,0.0,0.0,0.0,0.0,0.0,0.0,0,3,0,0,0,0,0,0,0,0,0,3,1,0,0,0
567087349,0.51634324,0.0,0.49325153,0.0,0.0,0.0,0.0,0.0,0.0,0.0,0.0,0,3,0,0,0,0,0,0,0,0,0,3,1,0,0,0
567287523,0.48300198,0.0,0.49325153,0.0,0.0,0.0,0.0,0.0,0.0,0.0,0.0,0,3,0,0,0,0,0,0,0,0,0,3,1,0,0,0
567508026,0.43353772,0.0,0.49325153,0.0,0.0,0.0,0.0,0.0,0.0,0.0,0.0,0,3,0,0,0,0,0,0,0,0,0,3,1,0,0,0
567708328,0.42801982,0.0,0.49325153,0.0,0.0,0.0,0.0,0.0,0.0,0.0,0.0,0,3,0,0,0,0,0,0,0,0,0,3,1,0,0,0
567908518,0.47241667,0.0,0.49325153,0.0,0.0,0.0,0.0,0.0,0.0,0.0,0.0,0,3,0,0,0,0,0,0,0,0,0,3,1,0,0,0
568108738,0.47475508,0.0,0.49325153,0.0,0.0,0.0,0.0,0.0,0.0,0.0,0.0,0,3,0,0,0,0,0,0,0,0,0,3,1,0,0,0
568308899,0.47325718,0.0,0.49325153,0.0,0.0,0.0,0.0,0.0,0.0,0.0,0.0,0,3,0,0,0,0,0,0,0,0,0,3,1,0,0,0
568509106,0.47318313,0.0,0.49325153,0.0,0.0,0.0,0.0,0.0,0.0,0.0,0.0,0,3,0,0,0,0,0,0,0,0,0,3,1,0,0,0
568729061,0.47931677,0.0,0.49325153,0.0,0.0,0.0,0.0,0.0,0.0,0.0,0.0,0,3,0,0,0,0,0,0,0,0,0,3,1,0,0,0
568929173,0.48744267,0.0,0.49325153,0.0,0.0,0.0,0.0,0.0,0.0,0.0,0.0,0,3,0,0,0,0,0,0,0,0,0,3,1,0,0,0
569129310,0.49190632,0.0,0.49325153,0.0,0.0,0.0,0.0,0.0,0.0,0.0,0.0,0,3,0,0,0,0,0,0,0,0,0,3,1,0,0,0
569309983,0.49120417,0.0,0.49325153,0.0,0.0,0.0,0.0,0.0,0.0,0.0,0.0,0,3,0,0,0,0,0,0,0,0,0,3,1,0,0,0
569529917,0.53430814,0.0,0.49325153,0.0,0.0,0.0,0.0,0.0,0.0,0.0,0.0,0,3,0,0,0,0,0,0,0,0,0,3,1,0,0,0
569729998,0.5627616,0.0,0.49325153,0.19809358,0.0,0.0,0.0,0.0,0.0,0.0,0.0,0,3,0,0,0,0,0,0,0,0,0,3,1,0,0,0
569930127,0.51483893,0.0,0.49325153,0.027654277,0.0,0.0,0.0,0.0,0.0,0.0,0.0,0,3,0,0,0,0,0,0,0,0,0,3,1,0,0,0
570150656,0.5171293,0.0,0.49325153,0.04859637,0.0,0.0,0.0,0.0,0.0,0.0,0.0,0,3,0,0,0,0,0,0,0,0,0,3,1,0,0,0
570350943,0.56712824,0.0,0.49325153,-3.144561e-05,0.0,0.0,0.0,0.0,0.0,0.0,0.0,0,3,0,0,0,0,0,0,0,0,0,3,1,0,0,0
570551131,0.49882564,0.0,0.49325153,-7.323643e-09,0.0,0.0,0.0,0.0,0.0,0.0,0.0,0,3,0,0,0,0,0,0,0,0,0,3,1,0,0,0
570751241,0.52062166,0.0,0.49325153,9.445026e-13,0.0,0.0,0.0,0.0,0.0,0.0,0.0,0,3,0,0,0,0,0,0,0,0,0,3,1,0,0,0
570951459,0.534533,0.0,0.49325153,0.07641487,0.0,0.0,0.0,0.0,0.0,0.0,0.0,0,3,0,0,0,0,0,0,0,0,0,3,1,0,0,0
571131483,0.5459264,0.0,0.49325153,0.00018356279,0.0,0.0,0.0,0.0,0.0,0.0,0.0,0,3,0,0,0,0,0,0,0,0,0,3,1,0,0,0
571351815,0.53168553,0.0,0.49325153,0.046587754,0.0,0.0,0.0,0.0,0.0,0.0,0.0,0,3,0,0,0,0,0,0,0,0,0,3,1,0,0,0
571551965,0.5350435,0.0,0.49325153,0.00046325178,0.0,0.0,0.0,0.0,0.0,0.0,0.0,0,3,0,0,0,0,0,0,0,0,0,3,1,0,0,0
571772116,0.52717805,0.0,0.49325153,-1.6730442e-07,0.0,0.0,0.0,0.0,0.0,0.0,0.0,0,3,0,0,0,0,0,0,0,0,0,3,1,0,0,0
571972334,0.53143,0.0,0.49325153,3.301954e-10,0.0,0.0,0.0,0.0,0.0,0.0,0.0,0,3,0,0,0,0,0,0,0,0,0,3,1,0,0,0
572172354,0.5321688,0.0,0.49325153,-8.9808564e-13,0.0,0.0,0.0,0.0,0.0,0.0,0.0,0,3,0,0,0,0,0,0,0,0,0,3,1,0,0,0
572372533,0.53181237,0.0,0.49325153,1.605095e-16,0.0,0.0,0.0,0.0,0.0,0.0,0.0,0,3,0,0,0,0,0,0,0,0,0,3,1,0,0,0
572572923,0.5317927,0.0,0.49325153,9.897081e-20,0.0,0.0,0.0,0.0,0.0,0.0,0.0,0,3,0,0,0,0,0,0,0,0,0,3,1,0,0,0
572773116,0.53687954,0.0,0.49325153,-1.5429762e-22,0.0,0.0,0.0,0.0,0.0,0.0,0.0,0,3,0,0,0,0,0,0,0,0,0,3,1,0,0,0
572973178,0.54710406,0.0,0.49325153,9.2740244e-26,0.0,0.0,0.0,0.0,0.0,0.0,0.0,0,3,0,0,0,0,0,0,0,0,0,3,1,0,0,0
573173319,0.5437314,0.0,0.49325153,-1.5609534e-29,0.0,0.0,0.0,0.0,0.0,0.0,0.0,0,3,0,0,0,0,0,0,0,0,0,3,1,0,0,0
573373694,0.5543303,0.0,0.49325153,-2.5634972e-32,0.0,0.0,0.0,0.0,0.0,0.0,0.0,0,3,0,0,0,0,0,0,0,0,0,3,1,0,0,0
573594042,0.54775375,0.0,0.49325153,6.845071e-36,0.0,0.0,0.0,0.0,0.0,0.0,0.0,0,3,0,0,0,0,0,0,0,0,0,3,1,0,0,0
573794246,0.5614148,0.0,0.49325153,2.305963e-39,0.0,0.0,0.0,0.0,0.0,0.0,0.0,0,3,0,0,0,0,0,0,0,0,0,3,1,0,0,0
573994439,0.55339587,0.0,0.49325153,-1.88e-42,0.0,0.0,0.0,0.0,0.0,0.0,0.0,0,3,0,0,0,0,0,0,0,0,0,3,1,0,0,0
574194731,0.56100535,0.0,0.49325153,3e-45,0.0,0.0,0.0,0.0,0.0,0.0,0.0,0,3,0,0,0,0,0,0,0,0,0,3,1,0,0,0
574394928,0.5475584,0.0,0.49325153,0.0,0.0,0.0,0.0,0.0,0.0,0.0,0.0,0,3,0,0,0,0,0,0,0,0,0,3,1,0,0,0
574595025,0.5428898,0.0,0.49325153,0.0,0.0,0.0,0.0,0.0,0.0,0.0,0.0,0,3,0,0,0,0,0,0,0,0,0,3,1,0,0,0
574795308,0.56599146,0.0,0.49325153,0.0,0.0,0.0,0.0,0.0,0.0,0.0,0.0,0,3,0,0,0,0,0,0,0,0,0,3,1,0,0,0
574995489,0.5567052,0.0,0.49325153,0.0,0.0,0.0,0.0,0.0,0.0,0.0,0.0,0,3,0,0,0,0,0,0,0,0,0,3,1,0,0,0
575195740,0.56071967,0.0,0.49325153,0.0,0.0,0.0,0.0,0.0,0.0,0.0,0.0,0,3,0,0,0,0,0,0,0,0,0,3,1,0,0,0
575415597,0.5427919,0.0,0.49325153,0.0,0.0,0.0,0.0,0.0,0.0,0.0,0.0,0,3,0,0,0,0,0,0,0,0,0,3,1,0,0,0
575615864,0.5387722,0.0,0.49325153,0.0,0.0,0.0,0.0,0.0,0.0,0.0,0.0,0,3,0,0,0,0,0,0,0,0,0,3,1,0,0,0
575816124,0.557614,0.0,0.49325153,0.0,0.0,0.0,0.0,0.0,0.0,0.0,0.0,0,3,0,0,0,0,0,0,0,0,0,3,1,0,0,0
576016234,0.5737737,0.0,0.49325153,0.0,0.0,0.0,0.0,0.0,0.0,0.0,0.0,0,3,0,0,0,0,0,0,0,0,0,3,1,0,0,0
576216495,0.5569972,0.0,0.49325153,0.0,0.0,0.0,0.0,0.0,0.0,0.0,0.0,0,3,0,0,0,0,0,0,0,0,0,3,1,0,0,0
576416631,0.58721364,0.0,0.49325153,0.0,0.0,0.0,0.0,0.0,0.0,0.0,0.0,0,3,0,0,0,0,0,0,0,0,0,3,1,0,0,0
576616840,0.58276355,0.0,0.49325153,0.0,0.0,0.0,0.0,0.0,0.0,0.0,0.0,0,3,0,0,0,0,0,0,0,0,0,3,1,0,0,0
576817164,0.6125688,0.0,0.49325153,0.0,0.0,0.0,0.0,0.0,0.0,0.0,0.0,0,3,0,0,0,0,0,0,0,0,0,3,1,0,0,0
577037482,0.612054,0.0,0.49325153,0.0,0.0,0.0,0.0,0.0,0.0,0.0,0.0,0,3,0,0,0,0,0,0,0,0,0,3,1,0,0,0
577237718,0.64186966,0.0,0.49325153,0.0,0.0,0.0,0.0,0.0,0.0,0.0,0.0,0,3,0,0,0,0,0,0,0,0,0,3,1,0,0,0
577437893,0.5454696,0.0,0.49325153,0.0,0.0,0.0,0.0,0.0,0.0,0.0,0.0,0,3,0,0,0,0,0,0,0,0,0,3,1,0,0,0
577638150,0.6470183,0.0,0.49325153,0.0,0.0,0.0,0.0,0.0,0.0,0.0,0.0,0,3,0,0,0,0,0,0,0,0,0,3,1,0,0,0
577838431,0.5945714,0.0,0.49325153,0.0,0.0,0.0,0.0,0.0,0.0,0.0,0.0,0,3,0,0,0,0,0,0,0,0,0,3,1,0,0,0
578038688,0.5575419,0.0,0.49325153,0.0,0.0,0.0,0.0,0.0,0.0,0.0,0.0,0,3,0,0,0,0,0,0,0,0,0,3,1,0,0,0
578238762,0.5338654,0.0,0.49325153,0.0,0.0,0.0,0.0,0.0,0.0,0.0,0.0,0,3,0,0,0,0,0,0,0,0,0,3,1,0,0,0
578438913,0.57553416,0.0,0.49325153,0.0,0.0,0.0,0.0,0.0,0.0,0.0,0.0,0,3,0,0,0,0,0,0,0,0,0,3,1,0,0,0
578658770,0.5198864,0.0,0.49325153,0.0,0.0,0.0,0.0,0.0,0.0,0.0,0.0,0,3,0,0,0,0,0,0,0,0,0,3,1,0,0,0
578859038,0.54250056,0.0,0.49325153,0.0,0.0,0.0,0.0,0.0,0.0,0.0,0.0,0,3,0,0,0,0,0,0,0,0,0,3,1,0,0,0
579059255,0.49729052,0.0,0.49325153,0.0,0.0,0.0,0.0,0.0,0.0,0.0,0.0,0,3,0,0,0,0,0,0,0,0,0,3,1,0,0,0
579259524,0.5428874,0.0,0.49325153,0.0,0.0,0.0,0.0,0.0,0.0,0.0,0.0,0,3,0,0,0,0,0,0,0,0,0,3,1,0,0,0
579459564,0.47168317,0.0,0.49325153,0.0,0.0,0.0,0.0,0.0,0.0,0.0,0.0,0,3,0,0,0,0,0,0,0,0,0,3,1,0,0,0
579659854,0.46359515,0.0,0.49325153,0.0,0.0,0.0,0.0,0.0,0.0,0.0,0.0,0,3,0,0,0,0,0,0,0,0,0,3,1,0,0,0
579860076,0.54795617,0.0,0.49325153,0.0,0.0,0.0,0.0,0.0,0.0,0.0,0.0,0,3,0,0,0,0,0,0,0,0,0,3,1,0,0,0
580080570,0.49912798,0.0,0.49325153,0.0,0.0,0.0,0.0,0.0,0.0,0.0,0.0,0,3,0,0,0,0,0,0,0,0,0,3,1,0,0,0
580280718,0.51601785,0.0,0.49325153,0.0,0.0,0.0,0.0,0.0,0.0,0.0,0.0,0,3,0,0,0,0,0,0,0,0,0,3,1,0,0,0
580480945,0.53964686,0.0,0.49325153,0.0,0.0,0.0,0.0,0.0,0.0,0.0,0.0,0,3,0,0,0,0,0,0,0,0,0,3,1,0,0,0
580681135,0.5375776,0.0,0.49325153,0.0,0.0,0.0,0.0,0.0,0.0,0.0,0.0,0,3,0,0,0,0,0,0,0,0,0,3,1,0,0,0
580881473,0.5765397,0.0,0.49325153,0.0,0.0,0.0,0.0,0.0,0.0,0.0,0.0,0,3,0,0,0,0,0,0,0,0,0,3,1,0,0,0
581081489,0.57298046,0.0,0.49325153,0.0,0.0,0.0,0.0,0.0,0.0,0.0,0.0,0,3,0,0,0,0,0,0,0,0,0,3,1,0,0,0
581281707,0.6308559,0.0,0.49325153,0.0,0.0,0.0,0.0,0.0,0.0,0.0,0.0,0,3,0,0,0,0,0,0,0,0,0,3,1,0,0,0
581501722,0.66843146,0.0,0.49325153,0.0,0.0,0.0,0.0,0.0,0.0,0.0,0.0,0,3,0,0,0,0,0,0,0,0,0,3,1,0,0,0
581701998,0.66059893,0.0,0.49325153,0.0,0.0,0.0,0.0,0.0,0.0,0.0,0.0,0,3,0,0,0,0,0,0,0,0,0,3,1,0,0,0
581902134,0.6774474,0.0,0.49325153,0.0,0.0,0.0,0.0,0.0,0.0,0.0,0.0,0,3,0,0,0,0,0,0,0,0,0,3,1,0,0,0
582082754,0.7065359,0.0,0.49325153,0.0,0.0,0.0,0.0,0.0,0.0,0.0,0.0,0,3,0,0,0,0,0,0,0,0,0,3,1,0,0,0
582302651,0.730423,0.0,0.49325153,0.0,0.0,0.0,0.0,0.0,0.0,0.0,0.0,0,3,0,0,0,0,0,0,0,0,0,3,1,0,0,0
582502722,0.7263407,0.0,0.49325153,0.0,0.0,0.0,0.0,0.0,0.0,0.0,0.0,0,3,0,0,0,0,0,0,0,0,0,3,1,0,0,0
582702943,0.7077687,0.0,0.49325153,0.0,0.0,0.0,0.0,0.0,0.0,0.0,0.0,0,3,0,0,0,0,0,0,0,0,0,3,1,0,0,0
582903235,0.71126354,0.0,0.49325153,0.0,0.0,0.0,0.0,0.0,0.0,0.0,0.0,0,3,0,0,0,0,0,0,0,0,0,3,1,0,0,0
583103297,0.71406734,0.0,0.49325153,0.0,0.0,0.0,0.0,0.0,0.0,0.0,0.0,0,3,0,0,0,0,0,0,0,0,0,3,1,0,0,0
583303553,0.7198905,0.0,0.49325153,0.0,0.0,0.0,0.0,0.0,0.0,0.0,0.0,0,3,0,0,0,0,0,0,0,0,0,3,1,0,0,0
583524011,0.741949,0.0,0.49325153,0.0,0.0,0.0,0.0,0.0,0.0,0.0,0.0,0,3,0,0,0,0,0,0,0,0,0,3,1,0,0,0
583724136,0.7486021,0.0,0.49325153,0.0,0.0,0.0,0.0,0.0,0.0,0.0,0.0,0,3,0,0,0,0,0,0,0,0,0,3,1,0,0,0
583924518,0.7548817,0.0,0.49325153,0.0,0.0,0.0,0.0,0.0,0.0,0.0,0.0,0,3,0,0,0,0,0,0,0,0,0,3,1,0,0,0
584124699,0.7501372,0.0,0.49325153,0.0,0.0,0.0,0.0,0.0,0.0,0.0,0.0,0,3,0,0,0,0,0,0,0,0,0,3,1,0,0,0
584324731,0.76047236,0.0,0.49325153,0.0,0.0,0.0,0.0,0.0,0.0,0.0,0.0,0,3,0,0,0,0,0,0,0,0,0,3,1,0,0,0
584525128,0.7729175,0.0,0.49325153,0.0,0.0,0.0,0.0,0.0,0.0,0.0,0.0,0,3,0,0,0,0,0,0,0,0,0,3,1,0,0,0
584725299,0.7642335,0.0,0.49325153,0.0,0.0,0.0,0.0,0.0,0.0,0.0,0.0,0,3,0,0,0,0,0,0,0,0,0,3,1,0,0,0
584925401,0.7717132,0.0,0.49325153,0.0,0.0,0.0,0.0,0.0,0.0,0.0,0.0,0,3,0,0,0,0,0,0,0,0,0,3,1,0,0,0
585125599,0.76948464,0.0,0.49325153,0.0,0.0,0.0,0.0,0.0,0.0,0.0,0.0,0,3,0,0,0,0,0,0,0,0,0,3,1,0,0,0
585325950,0.78103364,0.0,0.49325153,0.0,0.0,0.0,0.0,0.0,0.0,0.0,0.0,0,3,0,0,0,0,0,0,0,0,0,3,1,0,0,0
585526221,0.7835721,0.0,0.49325153,0.0,0.0,0.0,0.0,0.0,0.0,0.0,0.0,0,3,0,0,0,0,0,0,0,0,0,3,1,0,0,0
585745990,0.78108627,0.0,0.49325153,0.0,0.0,0.0,0.0,0.0,0.0,0.0,0.0,0,3,0,0,0,0,0,0,0,0,0,3,1,0,0,0
585946112,0.7798868,0.0,0.49325153,0.0,0.0,0.0,0.0,0.0,0.0,0.0,0.0,0,3,0,0,0,0,0,0,0,0,0,3,1,0,0,0
586146276,0.7490246,0.0,0.49325153,0.0,0.0,0.0,0.0,0.0,0.0,0.0,0.0,0,3,0,0,0,0,0,0,0,0,0,3,1,0,0,0
586346530,0.7898678,0.0,0.49325153,0.0,0.0,0.0,0.0,0.0,0.0,0.0,0.0,0,3,0,0,0,0,0,0,0,0,0,3,1,0,0,0
586546800,0.78949606,0.0,0.49325153,0.0,0.0,0.0,0.0,0.0,0.0,0.0,0.0,0,3,0,0,0,0,0,0,0,0,0,3,1,0,0,0
586746924,0.7795564,0.0,0.49325153,0.0,0.0,0.0,0.0,0.0,0.0,0.0,0.0,0,3,0,0,0,0,0,0,0,0,0,3,1,0,0,0
586947203,0.77099466,0.0,0.49325153,0.0,0.0,0.0,0.0,0.0,0.0,0.0,0.0,0,3,0,0,0,0,0,0,0,0,0,3,1,0,0,0
587147337,0.7730731,0.0,0.49325153,0.0,0.0,0.0,0.0,0.0,0.0,0.0,0.0,0,3,0,0,0,0,0,0,0,0,0,3,1,0,0,0
587367810,0.7771527,0.0,0.49325153,0.0,0.0,0.0,0.0,0.0,0.0,0.0,0.0,0,3,0,0,0,0,0,0,0,0,0,3,1,0,0,0
587568052,0.7185897,0.0,0.49325153,0.0,0.0,0.0,0.0,0.0,0.0,0.0,0.0,0,3,0,0,0,0,0,0,0,0,0,3,1,0,0,0
587768344,0.707397,0.0,0.49325153,0.0,0.0,0.0,0.0,0.0,0.0,0.0,0.0,0,3,0,0,0,0,0,0,0,0,0,3,1,0,0,0
587968559,0.71392536,0.0,0.49325153,0.0,0.0,0.0,0.0,0.0,0.0,0.0,0.0,0,3,0,0,0,0,0,0,0,0,0,3,1,0,0,0
588168827,0.71910965,0.0,0.49325153,0.0,0.0,0.0,0.0,0.0,0.0,0.0,0.0,0,3,0,0,0,0,0,0,0,0,0,3,1,0,0,0
588368883,0.7214622,0.0,0.49325153,0.0,0.0,0.0,0.0,0.0,0.0,0.0,0.0,0,3,0,0,0,0,0,0,0,0,0,3,1,0,0,0
588569058,0.7185363,0.0,0.49325153,0.0,0.0,0.0,0.0,0.0,0.0,0.0,0.0,0,3,0,0,0,0,0,0,0,0,0,3,1,0,0,0
588789035,0.72882295,0.0,0.49325153,0.0,0.0,0.0,0.0,0.0,0.0,0.0,0.0,0,3,0,0,0,0,0,0,0,0,0,3,1,0,0,0
588989360,0.74860257,0.0,0.49325153,0.0,0.0,0.0,0.0,0.0,0.0,0.0,0.0,0,3,0,0,0,0,0,0,0,0,0,3,1,0,0,0
589189326,0.74614125,0.0,0.49325153,0.0,0.0,0.0,0.0,0.0,0.0,0.0,0.0,0,3,0,0,0,0,0,0,0,0,0,3,1,0,0,0
589389633,0.7510169,0.0,0.49325153,0.0,0.0,0.0,0.0,0.0,0.0,0.0,0.0,0,3,0,0,0,0,0,0,0,0,0,3,1,0,0,0
589589837,0.7715024,0.0,0.49325153,0.0,0.0,0.0,0.0,0.0,0.0,0.0,0.0,0,3,0,0,0,0,0,0,0,0,0,3,1,0,0,0
589789971,0.7784772,0.0,0.49325153,0.0,0.0,0.0,0.0,0.0,0.0,0.0,0.0,0,3,0,0,0,0,0,0,0,0,0,3,1,0,0,0
589990147,0.7255056,0.0,0.49325153,0.0,0.0,0.0,0.0,0.0,0.0,0.0,0.0,0,3,0,0,0,0,0,0,0,0,0,3,1,0,0,0
590190509,0.70192,0.0,0.49325153,0.0,0.0,0.0,0.0,0.0,0.0,0.0,0.0,0,3,0,0,0,0,0,0,0,0,0,3,1,0,0,0
590390763,0.70950514,0.0,0.49325153,0.0,0.0,0.0,0.0,0.0,0.0,0.0,0.0,0,3,0,0,0,0,0,0,0,0,0,3,1,0,0,0
590590749,0.73084503,0.0,0.49325153,0.0,0.0,0.0,0.0,0.0,0.0,0.0,0.0,0,3,0,0,0,0,0,0,0,0,0,3,1,0,0,0
590811296,0.74921685,0.0,0.49325153,0.0,0.0,0.0,0.0,0.0,0.0,0.0,0.0,0,3,0,0,0,0,0,0,0,0,0,3,1,0,0,0
591011489,0.76633507,0.0,0.49325153,0.0,0.0,0.0,0.0,0.0,0.0,0.0,0.0,0,3,0,0,0,0,0,0,0,0,0,3,1,0,0,0
591211719,0.92720985,0.0,0.49325153,0.0,0.0,0.0,0.0,0.0,0.0,0.0,0.0,0,3,0,0,0,0,0,0,0,0,0,3,1,0,0,0
591411837,0.87919,0.0,0.49325153,0.0,0.0,0.0,0.0,0.0,0.0,0.0,0.0,0,3,0,0,0,0,0,0,0,0,0,3,1,0,0,0
591612235,0.8474866,0.0,0.49325153,-0.0008282292,0.0,0.0,0.0,0.0,0.0,0.0,0.0,0,3,0,0,0,0,0,0,0,0,0,3,1,0,0,0
591812273,0.8140873,0.0,0.49325153,-7.1462733e-07,0.0,0.0,0.0,0.0,0.0,0.0,0.0,0,3,0,0,0,0,0,0,0,0,0,3,1,0,0,0
592012494,0.8220496,0.0,0.49325153,0.046085857,0.0,0.0,0.0,0.0,0.0,0.0,0.0,0,3,0,0,0,0,0,0,0,0,0,3,1,0,0,0
592232385,0.803724,0.0,0.49325153,-3.1258016e-05,0.0,0.0,0.0,0.0,0.0,0.0,0.0,0,3,0,0,0,0,0,0,0,0,0,3,1,0,0,0
592432750,0.8674935,0.0,0.49325153,0.018192006,0.0,0.0,0.0,0.0,0.0,0.0,0.0,0,3,0,0,0,0,0,0,0,0,0,3,1,0,0,0
592633024,0.8665609,0.0,0.49325153,0.045525663,0.0,0.0,0.0,0.0,0.0,0.0,0.0,0,3,0,0,0,0,0,0,0,0,0,3,1,0,0,0
592833162,0.8604071,0.0,0.49325153,0.24019466,0.0,0.0,0.0,0.0,0.0,0.0,0.0,0,3,0,0,0,0,0,0,0,0,0,3,1,0,0,0
593033216,0.8792015,0.0,0.49325153,0.12531276,0.0,0.0,0.0,0.0,0.0,0.0,0.0,0,3,0,0,0,0,0,0,0,0,0,3,1,0,0,0
593213736,0.86635923,0.0,0.49325153,0.08050071,0.0,0.0,0.0,0.0,0.0,0.0,0.0,0,3,0,0,0,0,0,0,0,0,0,3,1,0,0,0
593433650,0.8723215,0.0,0.49325153,-3.8011098e-05,0.0,0.0,0.0,0.0,0.0,0.0,0.0,0,3,0,0,0,0,0,0,0,0,0,3,1,0,0,0
593633950,0.8740233,0.0,0.49325153,1.6417165e-08,0.0,0.0,0.0,0.0,0.0,0.0,0.0,0,3,0,0,0,0,0,0,0,0,0,3,1,0,0,0
593854246,0.89691633,0.0,0.49325153,0.0071762023,0.0,0.0,0.0,0.0,0.0,0.0,0.0,0,3,0,0,0,0,0,0,0,0,0,3,1,0,0,0
594054537,0.8879946,0.0,0.49325153,0.29176947,0.0,0.0,0.0,0.0,0.0,0.0,0.0,0,3,0,0,0,0,0,0,0,0,0,3,1,0,0,0
594254894,0.83944094,0.0,0.49325153,0.16687939,0.0,0.0,0.0,0.0,0.0,0.0,0.0,0,3,0,0,0,0,0,0,0,0,0,3,1,0,0,0
594454897,0.84011036,0.0,0.49325153,0.12088994,0.0,0.0,0.0,0.0,0.0,0.0,0.0,0,3,0,0,0,0,0,0,0,0,0,3,1,0,0,0
594655148,0.8137223,0.0,0.49325153,0.17366466,0.0,0.0,0.0,0.0,0.0,0.0,0.0,0,3,0,0,0,0,0,0,0,0,0,3,1,0,0,0
594855301,0.8086666,0.0,0.49325153,0.26590493,0.0,0.0,0.0,0.0,0.0,0.0,0.0,0,3,0,0,0,0,0,0,0,0,0,3,1,0,0,0
595055532,0.8302655,0.0,0.49325153,0.16194315,0.0,0.0,0.0,0.0,0.0,0.0,0.0,0,3,0,0,0,0,0,0,0,0,0,3,1,0,0,0
595255830,0.8189519,0.0,0.49325153,0.046041623,0.0,0.0,0.0,0.0,0.0,0.0,0.0,0,3,0,0,0,0,0,0,0,0,0,3,1,0,0,0
595475713,0.8177215,0.0,0.49325153,0.04935997,0.0,0.0,0.0,0.0,0.0,0.0,0.0,0,3,0,0,0,0,0,0,0,0,0,3,1,0,0,0
595675872,0.79433197,0.0,0.49325153,-0.00032322414,0.0,0.0,0.0,0.0,0.0,0.0,0.0,0,3,0,0,0,0,0,0,0,0,0,3,1,0,0,0
595876049,0.5682975,0.0,0.49325153,-1.2096805e-07,0.0,0.0,0.0,0.0,0.0,0.0,0.0,0,3,0,0,0,0,0,0,0,0,0,3,1,0,0,0
596076303,0.63389516,0.0,0.49325153,1.4793507e-10,0.0,0.0,0.0,0.0,0.0,0.0,0.0,0,3,0,0,0,0,0,0,0,0,0,3,1,0,0,0
596276519,0.5850203,0.0,0.49325153,-1.5640804e-14,0.0,0.0,0.0,0.0,0.0,0.0,0.0,0,3,0,0,0,0,0,0,0,0,0,3,1,0,0,0
596476654,0.5985958,0.0,0.49325153,-1.5810755e-17,0.0,0.0,0.0,0.0,0.0,0.0,0.0,0,3,0,0,0,0,0,0,0,0,0,3,1,0,0,0
596676880,0.6144198,0.0,0.49325153,-2.2913525e-21,0.0,0.0,0.0,0.0,0.0,0.0,0.0,0,3,0,0,0,0,0,0,0,0,0,3,1,0,0,0
596897415,0.6090798,0.0,0.49325153,-2.7884574e-25,0.0,0.0,0.0,0.0,0.0,0.0,0.0,0,3,0,0,0,0,0,0,0,0,0,3,1,0,0,0
597097531,0.62479687,0.0,0.49325153,3.6930234e-28,0.0,0.0,0.0,0.0,0.0,0.0,0.0,0,3,0,0,0,0,0,0,0,0,0,3,1,0,0,0
597297749,0.62717277,0.0,0.49325153,-2.0420547e-31,0.0,0.0,0.0,0.0,0.0,0.0,0.0,0,3,0,0,0,0,0,0,0,0,0,3,1,0,0,0
597498119,0.6147799,0.0,0.49325153,-6.002539e-35,0.0,0.0,0.0,0.0,0.0,0.0,0.0,0,3,0,0,0,0,0,0,0,0,0,3,1,0,0,0
597698140,0.6622737,0.0,0.49325153,4.4638242e-38,0.0,0.0,0.0,0.0,0.0,0.0,0.0,0,3,0,0,0,0,0,0,0,0,0,3,1,0,0,0
597898290,0.655205,0.0,0.49325153,8.318e-42,0.0,0.0,0.0,0.0,0.0,0.0,0.0,0,3,0,0,0,0,0,0,0,0,0,3,1,0,0,0
598098663,0.6782532,0.0,0.49325153,-8e-45,0.0,0.0,0.0,0.0,0.0,0.0,0.0,0,3,0,0,0,0,0,0,0,0,0,3,1,0,0,0
598318529,0.67948574,0.0,0.49325153,0.0,0.0,0.0,0.0,0.0,0.0,0.0,0.0,0,3,0,0,0,0,0,0,0,0,0,3,1,0,0,0
598518740,0.69128793,0.0,0.49325153,0.0,0.0,0.0,0.0,0.0,0.0,0.0,0.0,0,3,0,0,0,0,0,0,0,0,0,3,1,0,0,0
598718921,0.70160407,0.0,0.49325153,0.0,0.0,0.0,0.0,0.0,0.0,0.0,0.0,0,3,0,0,0,0,0,0,0,0,0,3,1,0,0,0
598919134,0.7000076,0.0,0.49325153,0.0,0.0,0.0,0.0,0.0,0.0,0.0,0.0,0,3,0,0,0,0,0,0,0,0,0,3,1,0,0,0
599119439,0.70799387,0.0,0.49325153,0.0,0.0,0.0,0.0,0.0,0.0,0.0,0.0,0,3,0,0,0,0,0,0,0,0,0,3,1,0,0,0
599319621,0.71414244,0.0,0.49325153,0.0,0.0,0.0,0.0,0.0,0.0,0.0,0.0,0,3,0,0,0,0,0,0,0,0,0,3,1,0,0,0
599519741,0.7036403,0.0,0.49325153,0.0,0.0,0.0,0.0,0.0,0.0,0.0,0.0,0,3,0,0,0,0,0,0,0,0,0,3,1,0,0,0
599719891,0.6989114,0.0,0.49325153,0.0,0.0,0.0,0.0,0.0,0.0,0.0,0.0,0,3,0,0,0,0,0,0,0,0,0,3,1,0,0,0
599940515,0.6941964,0.0,0.49325153,0.0,0.0,0.0,0.0,0.0,0.0,0.0,0.0,0,3,0,0,0,0,0,0,0,0,0,3,1,0,0,0
600140672,0.7008001,0.0,0.49325153,0.0,0.0,0.0,0.0,0.0,0.0,0.0,0.0,0,3,0,0,0,0,0,0,0,0,0,3,1,0,0,0
600340856,0.70411086,0.0,0.49325153,0.0,0.0,0.0,0.0,0.0,0.0,0.0,0.0,0,3,0,0,0,0,0,0,0,0,0,3,1,0,0,0
600541027,0.6682473,0.0,0.49325153,0.0,0.0,0.0,0.0,0.0,0.0,0.0,0.0,0,3,0,0,0,0,0,0,0,0,0,3,1,0,0,0
600741314,0.66330117,0.0,0.49325153,0.0,0.0,0.0,0.0,0.0,0.0,0.0,0.0,0,3,0,0,0,0,0,0,0,0,0,3,1,0,0,0
600941496,0.66709244,0.0,0.49325153,0.0,0.0,0.0,0.0,0.0,0.0,0.0,0.0,0,3,0,0,0,0,0,0,0,0,0,3,1,0,0,0
601141502,0.69888085,0.0,0.49325153,0.0,0.0,0.0,0.0,0.0,0.0,0.0,0.0,0,3,0,0,0,0,0,0,0,0,0,3,1,0,0,0
601341902,0.68440086,0.0,0.49325153,0.0,0.0,0.0,0.0,0.0,0.0,0.0,0.0,0,3,0,0,0,0,0,0,0,0,0,3,1,0,0,0
601542092,0.6447806,0.0,0.49325153,0.0,0.0,0.0,0.0,0.0,0.0,0.0,0.0,0,3,0,0,0,0,0,0,0,0,0,3,1,0,0,0
601761937,0.59537494,0.0,0.49325153,0.0,0.0,0.0,0.0,0.0,0.0,0.0,0.0,0,3,0,0,0,0,0,0,0,0,0,3,1,0,0,0
601942388,0.54418164,0.0,0.49325153,0.0,0.0,0.0,0.0,0.0,0.0,0.0,0.0,0,3,0,0,0,0,0,0,0,0,0,3,1,0,0,0
602162327,0.52752227,0.0,0.49325153,0.0,0.0,0.0,0.0,0.0,0.0,0.0,0.0,0,3,0,0,0,0,0,0,0,0,0,3,1,0,0,0
602343033,0.55644876,0.0,0.49325153,0.0,0.0,0.0,0.0,0.0,0.0,0.0,0.0,0,3,0,0,0,0,0,0,0,0,0,3,1,0,0,0
602562748,0.5121962,0.0,0.49325153,0.0,0.0,0.0,0.0,0.0,0.0,0.0,0.0,0,3,0,0,0,0,0,0,0,0,0,3,1,0,0,0
602762892,0.5482728,0.0,0.49325153,0.0,0.0,0.0,0.0,0.0,0.0,0.0,0.0,0,3,0,0,0,0,0,0,0,0,0,3,1,0,0,0
602983426,0.5745989,0.0,0.49325153,0.0,0.0,0.0,0.0,0.0,0.0,0.0,0.0,0,3,0,0,0,0,0,0,0,0,0,3,1,0,0,0
603183729,0.580499,0.0,0.49325153,0.0,0.0,0.0,0.0,0.0,0.0,0.0,0.0,0,3,0,0,0,0,0,0,0,0,0,3,1,0,0,0
603383875,0.6758436,0.0,0.49325153,0.0,0.0,0.0,0.0,0.0,0.0,0.0,0.0,0,3,0,0,0,0,0,0,0,0,0,3,1,0,0,0
603584093,0.63002485,0.0,0.49325153,0.0,0.0,0.0,0.0,0.0,0.0,0.0,0.0,0,3,0,0,0,0,0,0,0,0,0,3,1,0,0,0
603784231,0.6303156,0.0,0.49325153,0.0,0.0,0.0,0.0,0.0,0.0,0.0,0.0,0,3,0,0,0,0,0,0,0,0,0,3,1,0,0,0
603984389,0.7574438,0.0,0.49325153,0.0,0.0,0.0,0.0,0.0,0.0,0.0,0.0,0,3,0,0,0,0,0,0,0,0,0,3,1,0,0,0
604184610,0.6935709,0.0,0.49325153,0.0,0.0,0.0,0.0,0.0,0.0,0.0,0.0,0,3,0,0,0,0,0,0,0,0,0,3,1,0,0,0
604384874,0.6780053,0.0,0.49325153,0.0,0.0,0.0,0.0,0.0,0.0,0.0,0.0,0,3,0,0,0,0,0,0,0,0,0,3,1,0,0,0
604585087,0.7034383,0.0,0.49325153,0.0,0.0,0.0,0.0,0.0,0.0,0.0,0.0,0,3,0,0,0,0,0,0,0,0,0,3,1,0,0,0
604805034,0.6996629,0.0,0.49325153,0.0,0.0,0.0,0.0,0.0,0.0,0.0,0.0,0,3,0,0,0,0,0,0,0,0,0,3,1,0,0,0
605005162,0.6995172,0.0,0.49325153,0.0,0.0,0.0,0.0,0.0,0.0,0.0,0.0,0,3,0,0,0,0,0,0,0,0,0,3,1,0,0,0
605205338,0.70506155,0.0,0.49325153,0.0,0.0,0.0,0.0,0.0,0.0,0.0,0.0,0,3,0,0,0,0,0,0,0,0,0,3,1,0,0,0
605405623,0.7043306,0.0,0.49325153,0.0,0.0,0.0,0.0,0.0,0.0,0.0,0.0,0,3,0,0,0,0,0,0,0,0,0,3,1,0,0,0
605605899,0.7103317,0.0,0.49325153,0.0,0.0,0.0,0.0,0.0,0.0,0.0,0.0,0,3,0,0,0,0,0,0,0,0,0,3,1,0,0,0
605805986,0.71603835,0.0,0.49325153,0.0,0.0,0.0,0.0,0.0,0.0,0.0,0.0,0,3,0,0,0,0,0,0,0,0,0,3,1,0,0,0
606006174,0.7172521,0.0,0.49325153,0.0,0.0,0.0,0.0,0.0,0.0,0.0,0.0,0,3,0,0,0,0,0,0,0,0,0,3,1,0,0,0
606206533,0.7189469,0.0,0.49325153,0.0,0.0,0.0,0.0,0.0,0.0,0.0,0.0,0,3,0,0,0,0,0,0,0,0,0,3,1,0,0,0
606406752,0.71447825,0.0,0.49325153,0.0,0.0,0.0,0.0,0.0,0.0,0.0,0.0,0,3,0,0,0,0,0,0,0,0,0,3,1,0,0,0
606627079,0.7214104,0.0,0.49325153,0.0,0.0,0.0,0.0,0.0,0.0,0.0,0.0,0,3,0,0,0,0,0,0,0,0,0,3,1,0,0,0
606827295,0.7122434,0.0,0.49325153,0.0,0.0,0.0,0.0,0.0,0.0,0.0,0.0,0,3,0,0,0,0,0,0,0,0,0,3,1,0,0,0
607007294,0.71210253,0.0,0.49325153,0.0,0.0,0.0,0.0,0.0,0.0,0.0,0.0,0,3,0,0,0,0,0,0,0,0,0,3,1,0,0,0
607227740,0.69567066,0.0,0.49325153,0.0,0.0,0.0,0.0,0.0,0.0,0.0,0.0,0,3,0,0,0,0,0,0,0,0,0,3,1,0,0,0
607427814,0.6901189,0.0,0.49325153,0.0,0.0,0.0,0.0,0.0,0.0,0.0,0.0,0,3,0,0,0,0,0,0,0,0,0,3,1,0,0,0
607628004,0.60084474,0.0,0.49325153,0.0,0.0,0.0,0.0,0.0,0.0,0.0,0.0,0,3,0,0,0,0,0,0,0,0,0,3,1,0,0,0
607828299,0.56978965,0.0,0.49325153,0.0,0.0,0.0,0.0,0.0,0.0,0.0,0.0,0,3,0,0,0,0,0,0,0,0,0,3,1,0,0,0
608048357,0.57962865,0.0,0.49325153,0.0,0.0,0.0,0.0,0.0,0.0,0.0,0.0,0,3,0,0,0,0,0,0,0,0,0,3,1,0,0,0
608248534,0.53137773,0.0,0.49325153,0.0,0.0,0.0,0.0,0.0,0.0,0.0,0.0,0,3,0,0,0,0,0,0,0,0,0,3,1,0,0,0
608448661,0.51759076,0.0,0.49325153,0.0,0.0,0.0,0.0,0.0,0.0,0.0,0.0,0,3,0,0,0,0,0,0,0,0,0,3,1,0,0,0
608648857,0.45031083,0.0,0.49325153,0.0,0.0,0.0,0.0,0.0,0.0,0.0,0.0,0,3,0,0,0,0,0,0,0,0,0,3,1,0,0,0
608849147,0.42570147,0.0,0.49325153,0.0,0.0,0.0,0.0,0.0,0.0,0.0,0.0,0,3,0,0,0,0,0,0,0,0,0,3,1,0,0,0
609049400,0.44390664,0.0,0.49325153,0.0,0.0,0.0,0.0,0.0,0.0,0.0,0.0,0,3,0,0,0,0,0,0,0,0,0,3,1,0,0,0
609249534,0.45021546,0.0,0.49325153,0.0,0.0,0.0,0.0,0.0,0.0,0.0,0.0,0,3,0,0,0,0,0,0,0,0,0,3,1,0,0,0
609449667,0.45734546,0.0,0.49325153,0.0,0.0,0.0,0.0,0.0,0.0,0.0,0.0,0,3,0,0,0,0,0,0,0,0,0,3,1,0,0,0
609649966,0.46353942,0.0,0.49325153,0.0,0.0,0.0,0.0,0.0,0.0,0.0,0.0,0,3,0,0,0,0,0,0,0,0,0,3,1,0,0,0
609870241,0.4770514,0.0,0.49325153,6.044713e-05,0.0,0.0,0.0,0.0,0.0,0.0,0.0,0,3,0,0,0,0,0,0,0,0,0,3,1,0,0,0
610050240,0.50151616,0.0,0.49325153,-4.3013433e-08,0.0,0.0,0.0,0.0,0.0,0.0,0.0,0,3,0,0,0,0,0,0,0,0,0,3,1,0,0,0
610250448,0.50011545,0.0,0.49325153,0.007764625,0.0,0.0,0.0,0.0,0.0,0.0,0.0,0,3,0,0,0,0,0,0,0,0,0,3,1,0,0,0
610470919,0.50845844,0.0,0.49325153,9.793069e-05,0.0,0.0,0.0,0.0,0.0,0.0,0.0,0,3,0,0,0,0,0,0,0,0,0,3,1,0,0,0
610671031,0.5156404,0.0,0.49325153,-1.3155538e-07,0.0,0.0,0.0,0.0,0.0,0.0,0.0,0,3,0,0,0,0,0,0,0,0,0,3,1,0,0,0
610871431,0.52463603,0.0,0.49325153,-6.186099e-12,0.0,0.0,0.0,0.0,0.0,0.0,0.0,0,3,0,0,0,0,0,0,0,0,0,3,1,0,0,0
611091293,0.4615511,0.0,0.49325153,-6.618632e-16,0.0,0.0,0.0,0.0,0.0,0.0,0.0,0,3,0,0,0,0,0,0,0,0,0,3,1,0,0,0
611291517,0.36130193,0.0,0.49325153,2.6685006e-18,0.0,0.0,0.0,0.0,0.0,0.0,0.0,0,3,0,0,0,0,0,0,0,0,0,3,1,0,0,0
611491765,0.5398613,0.0,0.49325153,-2.0482507e-21,0.0,0.0,0.0,0.0,0.0,0.0,0.0,0,3,0,0,0,0,0,0,0,0,0,3,1,0,0,0
611691868,0.42500567,0.0,0.49325153,0.0015377577,0.0,0.0,0.0,0.0,0.0,0.0,0.0,0,3,0,0,0,0,0,0,0,0,0,3,1,0,0,0
611892116,0.46156108,0.0,0.49325153,6.044713e-05,0.0,0.0,0.0,0.0,0.0,0.0,0.0,0,3,0,0,0,0,0,0,0,0,0,3,1,0,0,0
612092393,0.48244607,0.0,0.49325153,-7.2149845e-08,0.0,0.0,0.0,0.0,0.0,0.0,0.0,0,3,0,0,0,0,0,0,0,0,0,3,1,0,0,0
612292492,0.4666177,0.0,0.49325153,-4.956338e-12,0.0,0.0,0.0,0.0,0.0,0.0,0.0,0,3,0,0,0,0,0,0,0,0,0,3,1,0,0,0
612492658,0.3909961,0.0,0.49325153,1.20447086e-14,0.0,0.0,0.0,0.0,0.0,0.0,0.0,0,3,0,0,0,0,0,0,0,0,0,3,1,0,0,0
612692851,0.444486,0.0,0.49325153,-3.641184e-19,0.0,0.0,0.0,0.0,0.0,0.0,0.0,0,3,0,0,0,0,0,0,0,0,0,3,1,0,0,0
612893136,0.44756427,0.0,0.49325153,-1.7375038e-21,0.0,0.0,0.0,0.0,0.0,0.0,0.0,0,3,0,0,0,0,0,0,0,0,0,3,1,0,0,0
613113458,0.41074654,0.0,0.49325153,0.04791328,0.0,0.0,0.0,0.0,0.0,0.0,0.0,0,3,0,0,0,0,0,0,0,0,0,3,1,0,0,0
613313900,0.4116511,0.0,0.49325153,0.13428438,0.0,0.0,0.0,0.0,0.0,0.0,0.0,0,3,0,0,0,0,0,0,0,0,0,3,1,0,0,0
613513972,0.41034445,0.0,0.49325153,0.023915024,0.0,0.0,0.0,0.0,0.0,0.0,0.0,0,3,0,0,0,0,0,0,0,0,0,3,1,0,0,0
613714292,0.38808733,0.0,0.49325153,-1.541972e-05,0.0,0.0,0.0,0.0,0.0,0.0,0.0,0,3,0,0,0,0,0,0,0,0,0,3,1,0,0,0
613914329,0.38767335,0.0,0.49325153,3.3317467e-09,0.0,0.0,0.0,0.0,0.0,0.0,0.0,0,3,0,0,0,0,0,0,0,0,0,3,1,0,0,0
614114544,0.42467606,0.0,0.49325153,3.6197401e-12,0.0,0.0,0.0,0.0,0.0,0.0,0.0,0,3,0,0,0,0,0,0,0,0,0,3,1,0,0,0
614314915,0.41243526,0.0,0.49325153,0.0005125859,0.0,0.0,0.0,0.0,0.0,0.0,0.0,0,3,0,0,0,0,0,0,0,0,0,3,1,0,0,0
614515042,0.2582099,0.0,0.49325153,0.25798512,0.0,0.0,0.0,0.0,0.0,0.0,0.0,0,3,0,0,0,0,0,0,0,0,0,3,1,0,0,0
614715045,0.25850114,0.0,0.49325153,0.17270349,0.0,0.0,0.0,0.0,0.0,0.0,0.0,0,3,0,0,0,0,0,0,0,0,0,3,1,0,0,0
614935093,0.28423217,0.0,0.49325153,0.16152163,0.0,0.0,0.0,0.0,0.0,0.0,0.0,0,3,0,0,0,0,0,0,0,0,0,3,1,0,0,0
615135314,0.28357643,0.0,0.49325153,0.10342346,0.0,0.0,0.0,0.0,0.0,0.0,0.0,0,3,0,0,0,0,0,0,0,0,0,3,1,0,0,0
615335549,0.29637307,0.0,0.49325153,0.2315833,0.0,0.0,0.0,0.0,0.0,0.0,0.0,0,3,0,0,0,0,0,0,0,0,0,3,1,0,0,0
615535717,0.2936136,0.0,0.49325153,0.23191926,0.0,0.0,0.0,0.0,0.0,0.0,0.0,0,3,0,0,0,0,0,0,0,0,0,3,1,0,0,0
615736017,0.28621387,0.0,0.49325153,0.21151777,0.0,0.0,0.0,0.0,0.0,0.0,0.0,0,3,0,0,0,0,0,0,0,0,0,3,1,0,0,0
615936330,0.28949624,0.0,0.49325153,0.27644402,0.0,0.0,0.0,0.0,0.0,0.0,0.0,0,3,0,0,0,0,0,0,0,0,0,3,1,0,0,0
616156671,0.2862212,0.0,0.49325153,0.0904676,0.0,0.0,0.0,0.0,0.0,0.0,0.0,0,3,0,0,0,0,0,0,0,0,0,3,1,0,0,0
616336551,0.29904956,0.0,0.49325153,0.21846113,0.0,0.0,0.0,0.0,0.0,0.0,0.0,0,3,0,0,0,0,0,0,0,0,0,3,1,0,0,0
616557149,0.30006984,0.0,0.49325153,0.37409797,0.0,0.0,0.0,0.0,0.0,0.0,0.0,0,3,0,0,0,0,0,0,0,0,0,3,1,0,0,0
616757315,0.27340007,0.0,0.49325153,0.22743583,0.0,0.0,0.0,0.0,0.0,0.0,0.0,0,3,0,0,0,0,0,0,0,0,0,3,1,0,0,0
616937156,0.3558262,0.0,0.49325153,0.48655948,0.0,0.0,0.0,0.0,0.0,0.0,0.0,0,3,0,0,0,0,0,0,0,0,0,3,1,0,0,0
617157668,0.33070752,0.0,0.49325153,0.24048132,0.0,0.0,0.0,0.0,0.0,0.0,0.0,0,3,0,0,0,0,0,0,0,0,0,3,1,0,0,0
617357737,0.35467806,0.0,0.49325153,0.18156058,0.0,0.0,0.0,0.0,0.0,0.0,0.0,0,3,0,0,0,0,0,0,0,0,0,3,1,0,0,0
617558132,0.3518338,0.0,0.49325153,-0.0019005156,0.0,0.0,0.0,0.0,0.0,0.0,0.0,0,3,0,0,0,0,0,0,0,0,0,3,1,0,0,0
617758290,0.4119732,0.0,0.49325153,-5.2397667e-07,0.0,0.0,0.0,0.0,0.0,0.0,0.0,0,3,0,0,0,0,0,0,0,0,0,3,1,0,0,0
617958358,0.46606565,0.0,0.49325153,4.0749168e-10,0.0,0.0,0.0,0.0,0.0,0.0,0.0,0,3,0,0,0,0,0,0,0,0,0,3,1,0,0,0
618158740,0.45574263,0.0,0.49325153,7.036108e-14,0.0,0.0,0.0,0.0,0.0,0.0,0.0,0,3,0,0,0,0,0,0,0,0,0,3,1,0,0,0
618378710,0.49494946,0.0,0.49325153,-1.7808737e-17,0.0,0.0,0.0,0.0,0.0,0.0,0.0,0,3,0,0,0,0,0,0,0,0,0,3,1,0,0,0
618578749,0.50965106,0.0,0.49325153,-6.5537803e-21,0.0,0.0,0.0,0.0,0.0,0.0,0.0,0,3,0,0,0,0,0,0,0,0,0,3,1,0,0,0
618778927,0.4891006,0.0,0.49325153,4.9565235e-24,0.0,0.0,0.0,0.0,0.0,0.0,0.0,0,3,0,0,0,0,0,0,0,0,0,3,1,0,0,0
618979137,0.47704765,0.0,0.49325153,1.6679316e-27,0.0,0.0,0.0,0.0,0.0,0.0,0.0,0,3,0,0,0,0,0,0,0,0,0,3,1,0,0,0
619179477,0.47921968,0.0,0.49325153,-0.33957526,0.0,0.0,0.0,0.0,0.0,0.0,0.0,0,3,0,0,0,0,0,0,0,0,0,3,1,0,0,0
619379583,0.49302176,0.0,0.49325153,-0.034799714,0.0,0.0,0.0,0.0,0.0,0.0,0.0,0,3,0,0,0,0,0,0,0,0,0,3,1,0,0,0
619579809,0.4689818,0.0,0.49325153,-1.0873287e-05,0.0,0.0,0.0,0.0,0.0,0.0,0.0,0,3,0,0,0,0,0,0,0,0,0,3,1,0,0,0
619800160,0.46171314,0.0,0.49325153,4.1703024e-10,0.0,0.0,0.0,0.0,0.0,0.0,0.0,0,3,0,0,0,0,0,0,0,0,0,3,1,0,0,0
620000522,0.46371213,0.0,0.49325153,-2.1639535e-12,0.0,0.0,0.0,0.0,0.0,0.0,0.0,0,3,0,0,0,0,0,0,0,0,0,3,1,0,0,0
620180407,0.47784215,0.0,0.49325153,5.169377e-15,0.0,0.0,0.0,0.0,0.0,0.0,0.0,0,3,0,0,0,0,0,0,0,0,0,3,1,0,0,0
620400800,0.46404827,0.0,0.49325153,2.132523e-18,0.0,0.0,0.0,0.0,0.0,0.0,0.0,0,3,0,0,0,0,0,0,0,0,0,3,1,0,0,0
620601066,0.46078286,0.0,0.49325153,-1.270573e-21,0.0,0.0,0.0,0.0,0.0,0.0,0.0,0,3,0,0,0,0,0,0,0,0,0,3,1,0,0,0
620801208,0.4656523,0.0,0.49325153,-3.3512409e-25,0.0,0.0,0.0,0.0,0.0,0.0,0.0,0,3,0,0,0,0,0,0,0,0,0,3,1,0,0,0
621001532,0.45362622,0.0,0.49325153,2.6894487e-28,0.0,0.0,0.0,0.0,0.0,0.0,0.0,0,3,0,0,0,0,0,0,0,0,0,3,1,0,0,0
621201643,0.43326646,0.0,0.49325153,4.3955175e-32,0.0,0.0,0.0,0.0,0.0,0.0,0.0,0,3,0,0,0,0,0,0,0,0,0,3,1,0,0,0
621401957,0.46324953,0.0,0.49325153,-5.074078e-35,0.0,0.0,0.0,0.0,0.0,0.0,0.0,0,3,0,0,0,0,0,0,0,0,0,3,1,0,0,0
621602162,0.46787873,0.0,0.49325153,6.795217e-38,0.0,0.0,0.0,0.0,0.0,0.0,0.0,0,3,0,0,0,0,0,0,0,0,0,3,1,0,0,0
621802229,0.45520473,0.0,0.49325153,-4.5385e-41,0.0,0.0,0.0,0.0,0.0,0.0,0.0,0,3,0,0,0,0,0,0,0,0,0,3,1,0,0,0
622002408,0.23821767,0.0,0.49325153,1e-44,0.0,0.0,0.0,0.0,0.0,0.0,0.0,0,3,0,0,0,0,0,0,0,0,0,3,1,0,0,0
622222438,0.0004367406,0.0,0.49325153,0.0,0.0,0.0,0.0,0.0,0.0,0.0,0.0,0,3,0,0,0,0,0,0,0,0,0,3,1,0,0,0
622422767,-3.5527648e-07,0.0,0.49325153,0.0,0.0,0.0,0.0,0.0,0.0,0.0,0.0,0,3,0,0,0,0,0,0,0,0,0,3,1,0,0,0
622622931,3.5284728e-10,0.0,0.49325153,0.0,0.0,0.0,0.0,0.0,0.0,0.0,0.0,0,3,0,0,0,0,0,0,0,0,0,3,1,0,0,0
622822932,-7.0658697e-13,0.0,0.49325153,0.0,0.0,0.0,0.0,0.0,0.0,0.0,0.0,0,3,0,0,0,0,0,0,0,0,0,3,1,0,0,0
623023203,4.6718033e-16,0.0,0.49325153,0.0,0.0,0.0,0.0,0.0,0.0,0.0,0.0,0,3,0,0,0,0,0,0,0,0,0,3,1,0,0,0
623223447,1.0523249e-19,0.0,0.49325153,0.0,0.0,0.0,0.0,0.0,0.0,0.0,0.0,0,3,0,0,0,0,0,0,0,0,0,3,1,0,0,0
623423549,-1.484309e-23,0.0,0.49325153,0.0,0.0,0.0,0.0,0.0,0.0,0.0,0.0,0,3,0,0,0,0,0,0,0,0,0,3,1,0,0,0
623623747,-1.209034e-26,0.0,0.49325153,0.0,0.0,0.0,0.0,0.0,0.0,0.0,0.0,0,3,0,0,0,0,0,0,0,0,0,3,1,0,0,0
623824030,-1.513243e-30,0.0,0.49325153,0.0,0.0,0.0,0.0,0.0,0.0,0.0,0.0,0,3,0,0,0,0,0,0,0,0,0,3,1,0,0,0
624044515,6.587251e-34,0.0,0.49325153,0.0,0.0,0.0,0.0,0.0,0.0,0.0,0.0,0,3,0,0,0,0,0,0,0,0,0,3,1,0,0,0
624244627,7.7723754e-38,0.0,0.49325153,0.0,0.0,0.0,0.0,0.0,0.0,0.0,0.0,0,3,0,0,0,0,0,0,0,0,0,3,1,0,0,0
624444835,-3.46643e-40,0.0,0.49325153,0.0,0.0,0.0,0.0,0.0,0.0,0.0,0.0,0,3,0,0,0,0,0,0,0,0,0,3,1,0,0,0
624645107,2.69e-43,0.0,0.49325153,0.0,0.0,0.0,0.0,0.0,0.0,0.0,0.0,0,3,0,0,0,0,0,0,0,0,0,3,1,0,0,0
624845322,0.0,0.0,0.49325153,0.0,0.0,0.0,0.0,0.0,0.0,0.0,0.0,0,3,0,0,0,0,0,0,0,0,0,3,1,0,0,0
625045432,0.0,0.0,0.49325153,-0.107762486,0.0,0.0,0.0,0.0,0.0,0.0,0.0,0,3,0,0,0,0,0,0,0,0,0,3,1,0,0,0
625245729,0.0,0.0,0.49325153,0.009136535,0.0,0.0,0.0,0.0,0.0,0.0,0.0,0,3,0,0,0,0,0,0,0,0,0,3,1,0,0,0
625445911,0.0,0.0,0.49325153,-1.2125031e-05,0.0,0.0,0.0,0.0,0.0,0.0,0.0,0,3,0,0,0,0,0,0,0,0,0,3,1,0,0,0
625665883,0.0,0.0,0.49325153,-1.5238554e-09,0.0,0.0,0.0,0.0,0.0,0.0,0.0,0,3,0,0,0,0,0,0,0,0,0,3,1,0,0,0
625866188,0.0,0.0,0.49325153,1.770917e-12,0.0,0.0,0.0,0.0,0.0,0.0,0.0,0,3,0,0,0,0,0,0,0,0,0,3,1,0,0,0
626066270,0.0,0.0,0.49325153,-2.8561125e-16,0.0,0.0,0.0,0.0,0.0,0.0,0.0,0,3,0,0,0,0,0,0,0,0,0,3,1,0,0,0
626266534,0.0,0.0,0.49325153,-2.1159249e-19,0.0,0.0,0.0,0.0,0.0,0.0,0.0,0,3,0,0,0,0,0,0,0,0,0,3,1,0,0,0
626466638,0.0,0.0,0.49325153,9.170311e-23,0.0,0.0,0.0,0.0,0.0,0.0,0.0,0,3,0,0,0,0,0,0,0,0,0,3,1,0,0,0
626666919,0.0,0.0,0.49325153,9.547189e-27,0.0,0.0,0.0,0.0,0.0,0.0,0.0,0,3,0,0,0,0,0,0,0,0,0,3,1,0,0,0
626867042,0.0,0.0,0.49325153,-2.2480332e-29,0.0,0.0,0.0,0.0,0.0,0.0,0.0,0,3,0,0,0,0,0,0,0,0,0,3,1,0,0,0
627067244,0.0,0.0,0.49325153,3.711785e-33,0.0,0.0,0.0,0.0,0.0,0.0,0.0,0,3,0,0,0,0,0,0,0,0,0,3,1,0,0,0
627267603,0.0,0.0,0.49325153,6.276753e-36,0.0,0.0,0.0,0.0,0.0,0.0,0.0,0,3,0,0,0,0,0,0,0,0,0,3,1,0,0,0
627467742,0.0,0.0,0.49325153,-4.87168e-39,0.0,0.0,0.0,0.0,0.0,0.0,0.0,0,3,0,0,0,0,0,0,0,0,0,3,1,0,0,0
627667866,0.0,0.0,0.49325153,3.492e-42,0.0,0.0,0.0,0.0,0.0,0.0,0.0,0,3,0,0,0,0,0,0,0,0,0,3,1,0,0,0
627868049,0.0,0.0,0.49325153,0.0,0.0,0.0,0.0,0.0,0.0,0.0,0.0,0,3,0,0,0,0,0,0,0,0,0,3,1,0,0,0
628088683,0.0,0.0,0.49325153,0.0,0.0,0.0,0.0,0.0,0.0,0.0,0.0,0,3,0,0,0,0,0,0,0,0,0,3,1,0,0,0
628288819,0.0,0.0,0.49325153,0.0,0.0,0.0,0.0,0.0,0.0,0.0,0.0,0,3,0,0,0,0,0,0,0,0,0,3,1,0,0,0
628488907,0.0,0.0,0.49325153,0.0,0.0,0.0,0.0,0.0,0.0,0.0,0.0,0,3,0,0,0,0,0,0,0,0,0,3,1,0,0,0
628689180,0.0,0.0,0.49325153,0.0,0.0,0.0,0.0,0.0,0.0,0.0,0.0,0,3,0,0,0,0,0,0,0,0,0,3,1,0,0,0
628889322,0.0,0.0,0.49325153,0.0,0.0,0.0,0.0,0.0,0.0,0.0,0.0,0,3,0,0,0,0,0,0,0,0,0,3,1,0,0,0
629089417,0.0,0.0,0.49325153,0.0,0.0,0.0,0.0,0.0,0.0,0.0,0.0,0,3,0,0,0,0,0,0,0,0,0,3,1,0,0,0
629289724,0.0,0.0,0.49325153,0.0,0.0,0.0,0.0,0.0,0.0,0.0,0.0,0,3,0,0,0,0,0,0,0,0,0,3,1,0,0,0
629509636,0.0,0.0,0.49325153,0.0,0.0,0.0,0.0,0.0,0.0,0.0,0.0,0,3,0,0,0,0,0,0,0,0,0,3,1,0,0,0
629690273,0.0,0.0,0.49325153,0.0,0.0,0.0,0.0,0.0,0.0,0.0,0.0,0,3,0,0,0,0,0,0,0,0,0,3,1,0,0,0
629910135,0.0,0.0,0.49325153,0.0,0.0,0.0,0.0,0.0,0.0,0.0,0.0,0,3,0,0,0,0,0,0,0,0,0,3,1,0,0,0
630110391,0.0,0.0,0.49325153,0.0,0.0,0.0,0.0,0.0,0.0,0.0,0.0,0,3,0,0,0,0,0,0,0,0,0,3,1,0,0,0
630310661,0.0,0.0,0.49325153,0.0,0.0,0.0,0.0,0.0,0.0,0.0,0.0,0,3,0,0,0,0,0,0,0,0,0,3,1,0,0,0
630510739,0.0,0.0,0.49325153,0.0,0.0,0.0,0.0,0.0,0.0,0.0,0.0,0,3,0,0,0,0,0,0,0,0,0,3,1,0,0,0
630710927,0.0,0.0,0.49325153,0.0,0.0,0.0,0.0,0.0,0.0,0.0,0.0,0,3,0,0,0,0,0,0,0,0,0,3,1,0,0,0
630911098,0.0,0.0,0.49325153,0.0,0.0,0.0,0.0,0.0,0.0,0.0,0.0,0,3,0,0,0,0,0,0,0,0,0,3,1,0,0,0
631111291,0.0,0.0,0.49325153,0.0,0.0,0.0,0.0,0.0,0.0,0.0,0.0,0,3,0,0,0,0,0,0,0,0,0,3,1,0,0,0
631331852,0.0,0.0,0.49325153,0.0,0.0,0.0,0.0,0.0,0.0,0.0,0.0,0,3,0,0,0,0,0,0,0,0,0,3,1,0,0,0
631531857,0.0,0.0,0.49325153,0.0,0.0,0.0,0.0,0.0,0.0,0.0,0.0,0,3,0,0,0,0,0,0,0,0,0,3,1,0,0,0
631732113,0.0,0.0,0.49325153,0.0,0.0,0.0,0.0,0.0,0.0,0.0,0.0,0,3,0,0,0,0,0,0,0,0,0,3,1,0,0,0
631932332,0.0,0.0,0.49325153,0.0,0.0,0.0,0.0,0.0,0.0,0.0,0.0,0,3,0,0,0,0,0,0,0,0,0,3,1,0,0,0
632132678,0.0,0.0,0.49325153,0.0,0.0,0.0,0.0,0.0,0.0,0.0,0.0,0,3,0,0,0,0,0,0,0,0,0,3,1,0,0,0
632332687,0.0,0.0,0.49325153,0.0,0.0,0.0,0.0,0.0,0.0,0.0,0.0,0,3,0,0,0,0,0,0,0,0,0,3,1,0,0,0
632533063,0.0,0.0,0.49325153,0.0,0.0,0.0,0.0,0.0,0.0,0.0,0.0,0,3,0,0,0,0,0,0,0,0,0,3,1,0,0,0
632733162,0.0,0.0,0.49325153,0.0,0.0,0.0,0.0,0.0,0.0,0.0,0.0,0,3,0,0,0,0,0,0,0,0,0,3,1,0,0,0
632913110,0.0,0.0,0.49325153,0.0,0.0,0.0,0.0,0.0,0.0,0.0,0.0,0,3,0,0,0,0,0,0,0,0,0,3,1,0,0,0
633133611,0.0,0.0,0.49325153,0.0,0.0,0.0,0.0,0.0,0.0,0.0,0.0,0,3,0,0,0,0,0,0,0,0,0,3,1,0,0,0
633353630,0.0,0.0,0.49325153,0.0,0.0,0.0,0.0,0.0,0.0,0.0,0.0,0,3,0,0,0,0,0,0,0,0,0,3,1,0,0,0
633553699,0.0,0.0,0.49325153,0.0,0.0,0.0,0.0,0.0,0.0,0.0,0.0,0,3,0,0,0,0,0,0,0,0,0,3,1,0,0,0
633753925,0.0,0.0,0.51081276,0.0,0.0,0.0,0.0,0.0,0.0,0.0,0.0,0,3,0,0,0,0,0,0,0,0,0,3,1,0,0,0
633954101,0.0,0.0,0.49347204,0.0,0.0,0.0,0.0,0.0,0.0,0.0,0.0,0,3,0,0,0,0,0,0,0,0,0,3,1,0,0,0
634154296,0.0,0.0,0.49325144,0.0,0.0,0.0,0.0,0.0,0.0,0.0,0.0,0,3,0,0,0,0,0,0,0,0,0,3,1,0,0,0
634354537,0.0,0.0,0.49325156,0.0,0.0,0.0,0.0,0.0,0.0,0.0,0.0,0,3,0,0,0,0,0,0,0,0,0,3,1,0,0,0
634554761,0.0,0.0,0.49325156,0.0,0.0,0.0,0.0,0.0,0.0,0.0,0.0,0,3,0,0,0,0,0,0,0,0,0,3,1,0,0,0
634754806,0.0,0.0,0.49340412,-0.0001406141,0.0,0.0,0.0,0.0,0.0,0.0,0.0,0,3,0,0,0,0,0,0,0,0,0,3,1,0,0,0
634975524,0.0,0.0,0.49325156,-1.7735506e-08,0.0,0.0,0.0,0.0,0.0,0.0,0.0,0,3,0,0,0,0,0,0,0,0,0,3,1,0,0,0
635175715,0.0,0.0,0.49325156,-1.11398744e-13,0.0,0.0,0.0,0.0,0.0,0.0,0.0,0,3,0,0,0,0,0,0,0,0,0,3,1,0,0,0
635375990,0.0,0.0,0.49325156,1.444727e-15,0.0,0.0,0.0,0.0,0.0,0.0,0.0,0,3,0,0,0,0,0,0,0,0,0,3,1,0,0,0
635576022,0.0,0.0,0.49325156,3.3706723e-19,0.0,0.0,0.0,0.0,0.0,0.0,0.0,0,3,0,0,0,0,0,0,0,0,0,3,1,0,0,0
635776296,0.0,0.0,0.49325156,-4.325956e-23,0.0,0.0,0.0,0.0,0.0,0.0,0.0,0,3,0,0,0,0,0,0,0,0,0,3,1,0,0,0
635976519,0.0,0.0,0.50054944,-4.1039912e-26,0.0,0.0,0.0,0.0,0.0,0.0,0.0,0,3,0,0,0,0,0,0,0,0,0,3,1,0,0,0
636176673,0.0,0.0,0.4933026,5.412034e-29,0.0,0.0,0.0,0.0,0.0,0.0,0.0,0,3,0,0,0,0,0,0,0,0,0,3,1,0,0,0
636396540,0.0,0.0,0.49325156,2.7194777e-33,0.0,0.0,0.0,0.0,0.0,0.0,0.0,0,3,0,0,0,0,0,0,0,0,0,3,1,0,0,0
636596858,0.0,0.0,0.49325156,-3.8686607e-36,0.0,0.0,0.0,0.0,0.0,0.0,0.0,0,3,0,0,0,0,0,0,0,0,0,3,1,0,0,0
636797199,0.0,0.0,0.5151328,4.76013e-40,0.0,0.0,0.0,0.0,0.0,0.0,0.0,0,3,0,0,0,0,0,0,0,0,0,3,1,0,0,0
636977466,0.0,0.0,0.51926637,3.4412e-41,0.0,0.0,0.0,0.0,0.0,0.0,0.0,0,3,0,0,0,0,0,0,0,0,0,3,1,0,0,0
637197344,0.0,0.0,0.5222655,3e-45,0.0,0.0,0.0,0.0,0.0,0.0,0.0,0,3,0,0,0,0,0,0,0,0,0,3,1,0,0,0
637397531,0.0,0.0,0.51404697,0.0,0.0,0.0,0.0,0.0,0.0,0.0,0.0,0,3,0,0,0,0,0,0,0,0,0,3,1,0,0,0
637597892,0.0,0.0,0.55081064,0.0,0.0,0.0,0.0,0.0,0.0,0.0,0.0,0,3,0,0,0,0,0,0,0,0,0,3,1,0,0,0
637818304,0.0,0.0,0.49341574,0.0,0.0,0.0,0.0,0.0,0.0,0.0,0.0,0,3,0,0,0,0,0,0,0,0,0,3,1,0,0,0
638018448,0.0,0.0,0.50863427,0.0,0.0,0.0,0.0,0.0,0.0,0.0,0.0,0,3,0,0,0,0,0,0,0,0,0,3,1,0,0,0
638198533,0.0,0.0,0.4927732,0.0,0.0,0.0,0.0,0.0,0.0,0.0,0.0,0,3,0,0,0,0,0,0,0,0,0,3,1,0,0,0
638418929,0.0,0.0,0.49639586,0.0,0.0,0.0,0.0,0.0,0.0,0.0,0.0,0,3,0,0,0,0,0,0,0,0,0,3,1,0,0,0
638619023,0.0,0.0,0.49324444,0.0,0.0,0.0,0.0,0.0,0.0,0.0,0.0,0,3,0,0,0,0,0,0,0,0,0,3,1,0,0,0
