timestamp,lat,lon,alt,alt_ellipsoid,delta_alt,vel_n,vel_e,vel_d,yaw,eph,epv,terrain_alt,lat_lon_reset_counter,alt_reset_counter,terrain_alt_valid,dead_reckoning
519050071,30.657172297585305,-84.20851679613087,67.77227,34.890533,-0.0,-0.016273424,0.026891064,0.0017518878,0.41541156,0.75033146,1.1592019,0.0,2,0,0,0
519257274,30.657172308417817,-84.20851679306756,67.77,34.89058,-0.0,-0.016567187,0.0266606,0.0017687362,0.41534093,0.75052494,1.1593032,0.0,2,0,0,0
519457271,30.657172318524538,-84.20851680247371,67.76844,34.891277,-0.0,-0.016454274,0.024918761,0.0002086547,0.4154737,0.75051105,1.1590621,0.0,2,0,0,0
519664468,30.65717233389032,-84.20851681527405,67.766754,34.892014,-0.0,-0.015922751,0.023770763,-3.1159376e-05,0.41565216,0.75070506,1.1585456,0.0,2,0,0,0
519863668,30.65717235923175,-84.20851683512198,67.764,34.891434,-0.0,-0.014056869,0.022404255,0.0011837787,0.4154214,0.7484198,1.1568187,0.0,2,0,0,0
520063674,30.657172387977305,-84.20851684313793,67.75998,34.889732,-0.0,-0.013113014,0.02274059,0.0028489116,0.41519302,0.74841034,1.1560438,0.0,2,0,0,0
520270878,30.65717240393862,-84.20851684278462,67.75219,34.88433,-0.0,-0.0141304545,0.02284032,0.005651707,0.4154196,0.74857944,1.1568003,0.0,2,0,0,0
520470877,30.657172419663816,-84.20851684155612,67.74806,34.882656,-0.0,-0.01315928,0.024173936,0.0074180937,0.41485015,0.7485723,1.1566198,0.0,2,0,0,0
520670068,30.65717243358337,-84.20851684478454,67.744865,34.881973,-0.0,-0.0126533685,0.023391405,0.0065217833,0.41703334,0.7485825,1.1564654,0.0,2,0,0,0
520870068,30.657172454577537,-84.20851684286873,67.7431,34.88263,-0.0,-0.011330238,0.021093655,0.004327048,0.41734225,0.74857527,1.1568716,0.0,2,0,0,0
521077288,30.657172463118215,-84.20851683925738,67.74024,34.882236,-0.0,-0.008814482,0.018383177,0.00568294,0.414854,0.7487619,1.1570134,0.0,2,0,0,0
521277275,30.65717245917245,-84.20851683432531,67.73867,34.88314,-0.0,-0.015753217,0.017652174,0.0067483396,0.41351914,0.7487434,1.156819,0.0,2,0,0,0
521480504,30.657172452231837,-84.20851683033729,67.73713,34.884174,-0.0,-0.011735616,0.023982463,0.008253579,0.41710865,0.7487413,1.1566621,0.0,2,0,0,0
521688474,30.657172464471987,-84.20851683795941,67.73458,34.884243,-0.0,-0.005715967,0.018684456,0.006069062,0.4175874,0.74900466,1.1569464,0.0,2,0,0,0
521891675,30.65717247786032,-84.20851685263692,67.7385,34.89071,-0.0,-0.008549057,0.013843011,0.009393526,0.41692173,0.74907637,1.1563343,0.0,2,0,0,0
522090868,30.65717249097448,-84.20851687387196,67.74341,34.8981,-0.0,-0.020630587,0.021419488,0.0014228462,0.41618827,0.74907815,1.1567955,0.0,2,0,0,0
522290868,30.657172514889524,-84.20851689738187,67.74416,34.901237,-0.0,-0.0041734977,0.019857172,0.010699269,0.41655874,0.74906325,1.1566335,0.0,2,0,0,0
522498068,30.657172541525224,-84.20851691500788,67.74224,34.901676,-0.0,-0.0065407483,0.010977172,0.0054871035,0.41671675,0.7492333,1.1568125,0.0,2,0,0,0
522698068,30.657172559190077,-84.20851692617327,67.73814,34.89999,-0.0,-0.0058834427,0.014636991,0.012913109,0.41651425,0.7492218,1.1566498,0.0,2,0,0,0
522905316,30.65717259974184,-84.20851693440841,67.73442,34.89869,-0.0,-0.008894411,0.022471903,-0.0027620746,0.41643828,0.7493956,1.1568174,0.0,2,0,0,0
523105275,30.6571726293673,-84.20851694721061,67.731606,34.89827,-0.0,-0.010266592,0.013243772,0.011968672,0.416361,0.7493887,1.1566466,0.0,2,0,0,0
523312474,30.6571726456481,-84.20851696179808,67.72768,34.89685,-0.0,0.006746775,0.003972477,0.0021631345,0.41629592,0.7495476,1.1567949,0.0,2,0,0,0
523511668,30.657172671909365,-84.20851697316367,67.7237,34.895294,-0.0,-0.003411904,0.01687644,0.0068521365,0.41624776,0.74954695,1.1566763,0.0,2,0,0,0
523711690,30.657172688616324,-84.20851698991402,67.719284,34.893265,-0.0,-0.015174942,0.0149844745,0.008043402,0.4163421,0.7495263,1.1565299,0.0,2,0,0,0
523918883,30.657172711412382,-84.20851700574465,67.71716,34.894836,-0.0,0.006489825,0.0045738374,0.014368336,0.41619983,0.7497109,1.156723,0.0,2,0,0,0
524118868,30.65717274067467,-84.20851701073747,67.71744,34.896408,-0.0,0.0044100126,0.0066083767,0.010443012,0.4162529,0.7496942,1.1571649,0.0,2,0,0,0
524326068,30.657172762063894,-84.20851701902106,67.72037,34.903015,-0.0,-0.011566578,0.015303029,0.007318389,0.41639322,0.74988353,1.1573453,0.0,2,0,0,0
524526068,30.65717278906223,-84.2085170232077,67.72232,34.90737,-0.0,0.00012373202,0.008081926,0.002749599,0.4163551,0.74985427,1.1571712,0.0,2,0,0,0
524725278,30.657172812684063,-84.20851702271963,67.72005,34.90744,-0.0,0.0030808602,-0.00075082324,0.0010006011,0.41600734,0.7498615,1.1576316,0.0,2,0,0,0
524933271,30.657172828441148,-84.2085170242999,67.71799,34.90772,-0.0,0.00022431755,0.011568358,0.0068717725,0.41616404,0.75002265,1.1577699,0.0,2,0,0,0
525136468,30.65717285044039,-84.20851702336677,67.713524,34.90564,-0.0,-0.008963972,0.014173785,0.0009874566,0.41637596,0.7500921,1.1577488,0.0,2,0,0,0
525336498,30.65717287519836,-84.20851701544927,67.70999,34.904503,-0.0,0.0028377515,-0.002065672,0.012748747,0.41619796,0.7500916,1.1576036,0.0,2,0,0,0
525535668,30.657172888164567,-84.20851700474638,67.70713,34.90409,-0.0,0.0010702957,0.009324776,0.0048281266,0.41565567,0.7500865,1.1574374,0.0,2,0,0,0
525742868,30.657172904864552,-84.20851699634379,67.702934,34.902306,-0.0,-0.00951126,0.017261792,0.012348641,0.41569072,0.7502753,1.1576173,0.0,2,0,0,0
525942874,30.657172922814294,-84.20851698945789,67.70064,34.90253,-0.0,-4.916219e-07,0.014741479,0.004963965,0.4176581,0.7502573,1.1574545,0.0,2,0,0,0
526146074,30.657172947361058,-84.20851697773152,67.69985,34.9042,-0.0,0.020552155,0.0074930186,-0.004311933,0.41830587,0.75024563,1.1573229,0.0,2,0,0,0
526354073,30.6571729810218,-84.20851696042408,67.70587,34.912548,-0.0,-0.007078252,0.014593955,-0.0048940526,0.42107296,0.7505106,1.1576247,0.0,2,0,0,0
526553271,30.657173027681708,-84.20851688759356,67.732544,34.94123,-0.0,0.032946654,0.06042394,-0.1593107,0.4262788,0.75050557,1.1580882,0.0,2,0,0,0
526753273,30.657173118424275,-84.20851670261335,67.83348,35.04333,-0.0,0.057080276,0.10897013,-0.6227624,0.4262499,0.75048834,1.1579089,0.0,2,0,0,0
526960468,30.657173303039585,-84.20851644282668,68.05335,35.263103,-0.0,0.11349964,0.116855316,-1.1295635,0.42411134,0.7484202,1.156521,0.0,2,0,0,0
527159668,30.657173557711772,-84.20851616945765,68.36274,35.57151,-0.0,0.1308672,0.100331,-1.558344,0.4211959,0.75075465,1.1573144,0.0,2,0,0,0
527359672,30.657173856162146,-84.20851596536416,68.71798,35.92501,-0.0,0.15908219,0.052130915,-1.6122551,0.41873142,0.75080764,1.1577647,0.0,2,0,0,0
527567668,30.65717421762559,-84.20851589879173,69.073456,36.278255,-0.0,0.1704391,-0.0137512535,-1.6107795,0.41715765,0.7487275,1.1557989,0.0,2,0,0,0
527770874,30.657174591875144,-84.20851597264604,69.40029,36.60233,-0.0,0.17696112,-0.06925987,-1.6073745,0.41596225,0.7488523,1.1563938,0.0,2,0,0,0
527970068,30.65717491338505,-84.20851612295651,69.71446,36.91402,-0.0,0.16263762,-0.08734651,-1.6175097,0.36338165,0.74886614,1.1562622,0.0,2,0,0,0
528178068,30.65717526392836,-84.20851628799188,70.04133,37.238102,-0.0,0.13059674,-0.09421696,-1.6374604,0.36174554,0.74890214,1.1569924,0.0,2,0,0,0
528377268,30.657175545753795,-84.20851647352761,70.360596,37.554535,-0.0,0.11205342,-0.10143837,-1.6592665,0.35986578,0.748791,1.1568416,0.0,2,0,0,0
528577276,30.657175754579526,-84.20851663834115,70.67999,37.87123,-0.0,0.070253894,-0.09554476,-1.6500518,0.3596082,0.7488558,1.1566567,0.0,2,0,0,0
528784504,30.65717593558275,-84.20851677178632,71.00942,38.198067,-0.0,0.047199808,-0.07078311,-1.670671,0.3599828,0.74945223,1.1567856,0.0,2,0,0,0
528983677,30.65717608595733,-84.20851685823503,71.33468,38.520985,-0.0,0.025550652,-0.054744653,-1.6863081,0.36090815,0.7500996,1.1572291,0.0,2,0,0,0
529191683,30.657176218820652,-84.20851690459435,71.67878,38.862793,-0.0,0.0018673101,-0.04123576,-1.6622416,0.36181656,0.75114644,1.1573477,0.0,2,0,0,0
529390868,30.65717630200938,-84.20851691397571,72.00802,39.190163,-0.0,-0.0022286195,-0.027737347,-1.6864283,0.36351994,0.75199217,1.1571786,0.0,2,0,0,0
529598895,30.657176496247374,-84.20851689259503,72.35503,39.534893,-0.0,0.16229063,0.033124592,-1.7338169,0.3656739,0.7530486,1.1578867,0.0,2,0,0,0
529798109,30.657177221406876,-84.20851666978487,72.701546,39.87854,-0.0,0.6060585,0.18107513,-1.8059614,0.36571065,0.7536434,1.1577055,0.0,2,0,0,0
529998081,30.657179029836392,-84.20851597631517,73.06949,40.2429,-0.0,1.3430685,0.47436273,-1.909871,0.3633946,0.75410044,1.1580971,0.0,2,0,0,0
530201271,30.65718242699083,-84.20851451123424,73.451485,40.620686,-0.0,2.159772,0.81565446,-1.8837762,0.3590995,0.7543708,1.1579024,0.0,2,0,0,0
530408468,30.65718712427188,-84.20851232168891,73.85716,41.022858,-0.0,2.5393543,0.9771654,-1.9569205,0.36075097,0.7550801,1.1581496,0.0,2,0,0,0
530608468,30.6571918069791,-84.20851004800804,74.24404,41.406857,-0.0,2.449837,0.86850786,-1.9702923,0.3666226,0.7551361,1.157934,0.0,2,0,0,0
530816468,30.657196175409723,-84.20850836851278,74.63735,41.7962,-0.0,2.182395,0.42240158,-1.9498492,0.36967084,0.7555045,1.1580619,0.0,2,0,0,0
531015705,30.657199802515656,-84.2085079485313,74.98804,42.144447,-0.0,2.007904,0.020987505,-1.8027842,0.3894816,0.7553747,1.1578447,0.0,2,0,0,0
531218868,30.65720312684627,-84.2085082663211,75.336075,42.490326,-0.0,1.8778195,-0.08565169,-1.8282361,0.39056435,0.75517744,1.1582509,0.0,2,0,0,0
531418868,30.65720611935468,-84.20850852288343,75.69558,42.84788,-0.0,1.7272172,0.120832354,-1.8873215,0.38277227,0.75507253,1.1587785,0.0,2,0,0,0
531626068,30.657208881898665,-84.20850794142902,76.07246,43.22279,-0.0,1.5073901,0.6251055,-1.8549486,0.37643144,0.755097,1.1588748,0.0,2,0,0,0
531826076,30.65721111475178,-84.20850629697416,76.40753,43.556896,-0.0,1.3093619,0.9748514,-1.702004,0.37261966,0.754754,1.1586223,0.0,2,0,0,0
532033317,30.657213080104977,-84.2085041499684,76.74162,43.889748,-0.0,1.1150084,0.98930657,-1.8171422,0.36938062,0.7546994,1.1592925,0.0,2,0,0,0
532232484,30.657214599423565,-84.20850230428476,77.101585,44.24872,-0.0,0.86405075,0.8220462,-1.8819263,0.363796,0.75437516,1.159063,0.0,2,0,0,0
532432468,30.657215551361578,-84.20850100570092,77.48125,44.627693,-0.0,0.44528005,0.55069,-1.8927791,0.3591987,0.75408643,1.1588167,0.0,2,0,0,0
532639668,30.657215541862914,-84.20850044583825,77.87909,45.02521,-0.0,-0.18655363,0.17763907,-1.8878113,0.3583464,0.7540597,1.1589134,0.0,2,0,0,0
532839671,30.657214437917403,-84.20850065934036,78.22462,45.37074,-0.0,-0.69490236,-0.1014223,-1.606057,0.36652312,0.75378275,1.1592731,0.0,2,0,0,0
533042868,30.65721267254464,-84.2085014362272,78.53194,45.677658,-0.0,-0.92739236,-0.2608105,-1.6022861,0.36982444,0.7535636,1.1590415,0.0,2,0,0,0
533242875,30.65721086647593,-84.2085024136635,78.85521,46.000225,-0.0,-0.83788824,-0.28219613,-1.7585462,0.36852136,0.75344086,1.1595404,0.0,2,0,0,0
533450079,30.657209488834088,-84.20850332708179,79.225266,46.369106,-0.0,-0.5083112,-0.16977529,-1.7735393,0.36481133,0.7534985,1.1596104,0.0,2,0,0,0
533650068,30.657209085888358,-84.20850380485703,79.5866,46.728863,-0.0,0.061414655,0.035171393,-1.7760613,0.36029434,0.7532336,1.159334,0.0,2,0,0,0
533857275,30.657209914567936,-84.2085037022423,79.92502,47.065334,-0.0,0.60618865,0.24325034,-1.4221474,0.35544956,0.7531159,1.1599863,0.0,2,0,0,0
534056468,30.657211428560625,-84.20850320753267,80.17938,47.3189,-0.0,0.7742151,0.31110758,-1.069718,0.35353562,0.75275975,1.1597329,0.0,2,0,0,0
534264468,30.657213074126897,-84.2085026040718,80.33654,47.47631,-0.0,0.7007919,0.2764127,-0.49569184,0.3520948,0.75257343,1.1597615,0.0,2,0,0,0
534463714,30.65721437468662,-84.20850213706281,80.35327,47.494514,-0.0,0.5345041,0.20703329,0.09344108,0.35332158,0.75223786,1.1601292,0.0,2,0,0,0
534663691,30.657215290157072,-84.20850183128137,80.24984,47.39378,-0.0,0.3435498,0.13090658,0.68897194,0.35511708,0.75192326,1.1598411,0.0,2,0,0,0
534870916,30.65721582206057,-84.2085016744568,80.01672,47.16408,-0.0,0.15879294,0.072025314,1.2642466,0.35455024,0.74940425,1.1583226,0.0,2,0,0,0
535070868,30.657215892058492,-84.20850166327908,79.728386,46.880005,-0.0,-0.10990175,0.021758575,1.1594428,0.35608122,0.7491961,1.1586401,0.0,2,0,0,0
535274068,30.657215461144425,-84.20850176852838,79.53655,46.691795,-0.0,-0.3095713,-0.0031268327,0.5860494,0.36476284,0.7491054,1.1591042,0.0,2,0,0,0
535482068,30.65721470794752,-84.20850197002393,79.489975,46.64759,-0.0,-0.41553703,-0.05908021,0.008903418,0.38574097,0.7491771,1.1591332,0.0,2,0,0,0
535681272,30.657213901387006,-84.20850222565457,79.57472,46.73334,-0.0,-0.44515964,-0.09100803,-0.5826336,0.4042659,0.749074,1.1594331,0.0,2,0,0,0
535888483,30.657213053440138,-84.20850256613188,79.79992,46.958065,-0.0,-0.4448662,-0.12712662,-1.1702781,0.4213213,0.7491954,1.1594633,0.0,2,0,0,0
536088470,30.657212245095707,-84.20850296942945,80.12691,47.283134,-0.0,-0.45185813,-0.16620941,-1.7168937,0.43638772,0.7491444,1.1591535,0.0,2,0,0,0
536287674,30.65721149776951,-84.20850342248643,80.55102,47.703762,-0.0,-0.43354234,-0.20351857,-2.2688692,0.4493188,0.749112,1.1588734,0.0,2,0,0,0
536495668,30.657210804334365,-84.20850387758604,81.08736,48.23539,-0.0,-0.3933956,-0.179285,-2.5234532,0.46008524,0.74928105,1.1588854,0.0,2,0,0,0
536694874,30.657210265350916,-84.20850426319411,81.56383,48.706745,-0.0,-0.34048712,-0.15777688,-2.1128852,0.46415272,0.7493333,1.1592342,0.0,2,0,0,0
536902868,30.657209853348274,-84.20850460246494,81.921684,49.06004,-0.0,-0.26816788,-0.12993416,-1.5450648,0.49778742,0.749534,1.1592463,0.0,2,0,0,0
537102068,30.657209616110993,-84.20850485094941,82.144165,49.27855,-0.0,-0.19020267,-0.08904282,-1.0785432,0.6521443,0.7495186,1.158977,0.0,2,0,0,0
537305302,30.657209542562384,-84.20850498926814,82.26315,49.39482,-0.0,-0.1192774,-0.052008897,-0.46306098,0.83843994,0.7494753,1.1592882,0.0,2,0,0,0
537505271,30.657209530598028,-84.20850503889423,82.268074,49.39837,-0.0,-0.12325837,-0.016553326,-0.097992025,0.93219936,0.7495113,1.1597489,0.0,2,0,0,0
537712468,30.65720950791722,-84.2085050601592,82.24796,49.37793,-0.0,-0.1088485,0.009501112,-0.070072144,0.9745493,0.7496595,1.159781,0.0,2,0,0,0
537912488,30.657209494061725,-84.20850508020155,82.25203,49.382088,-0.0,-0.09248594,0.028745664,-0.07038647,0.99221903,0.74962765,1.1594696,0.0,2,0,0,0
538111668,30.657209489198795,-84.20850509717188,82.27788,49.408173,-0.0,-0.10366607,0.04278807,-0.11741798,0.9971315,0.7496645,1.1591971,0.0,2,0,0,0
538319668,30.657209491883272,-84.20850512026509,82.29648,49.42717,-0.0,-0.09953995,0.049416132,-0.05762981,0.9931133,0.749903,1.1598221,0.0,2,0,0,0
538522868,30.65720951447833,-84.2085051579869,82.29967,49.430702,-0.0,-0.07585497,0.06363379,-0.013289666,0.98394436,0.75013477,1.1596769,0.0,2,0,0,0
538726068,30.657209578211038,-84.2085051937309,82.29898,49.43042,-0.0,-0.06671744,0.07754965,-0.0009456901,0.97106534,0.7503189,1.1593996,0.0,2,0,0,0
538926074,30.65720969328756,-84.20850521767903,82.2969,49.428833,-0.0,-0.050220232,0.11213776,0.0036928665,0.9570557,0.7506351,1.1598679,0.0,2,0,0,0
539133298,30.657209865377016,-84.20850519472911,82.30109,49.433537,-0.0,-0.025104107,0.13253185,-0.027693767,0.94318146,0.7510996,1.1598963,0.0,2,0,0,0
539333293,30.65721007369403,-84.20850514292077,82.30549,49.438442,-0.0,-0.014879684,0.14686114,-0.017317448,0.9334865,0.7513276,1.160198,0.0,2,0,0,0
539532468,30.657210318230025,-84.20850509013538,82.32147,49.45476,-0.0,0.013279013,0.15528621,-0.24258724,0.9300579,0.75156516,1.1599089,0.0,2,0,0,0
539740468,30.6572105910302,-84.20850504544566,82.43892,49.57172,-0.0,0.0027621011,0.14113845,-0.8398131,0.9349368,0.7520017,1.1599123,0.0,2,0,0,0
539939668,30.657210843109315,-84.20850502549675,82.677444,49.808582,-0.0,0.022669611,0.13527451,-1.239926,0.944724,0.7522252,1.1602523,0.0,2,0,0,0
540147686,30.657211134610765,-84.20850506399493,82.95479,50.083805,-0.0,0.040157467,0.09833256,-1.2226024,0.9546223,0.75262845,1.1602553,0.0,2,0,0,0
540346878,30.65721143769921,-84.2085051241008,83.20981,50.33659,-0.0,0.04892114,0.07366582,-1.2384903,0.96010756,0.7527369,1.1599405,0.0,2,0,0,0
540546868,30.657211732442626,-84.20850520766004,83.46284,50.587654,-0.0,0.029612562,0.0673236,-1.3038516,0.96088845,0.7528241,1.160267,0.0,2,0,0,0
540754074,30.65721195537418,-84.20850530040671,83.72975,50.852703,-0.0,-0.018142005,0.07376505,-1.3064256,0.9573602,0.75306344,1.1602559,0.0,2,0,0,0
540953276,30.65721204899634,-84.20850536335658,83.99753,51.118584,-0.0,-0.07508008,0.07909234,-1.4349749,0.95315,0.75306916,1.1599665,0.0,2,0,0,0
541161292,30.65721203005064,-84.2085054033952,84.29954,51.41871,-0.0,-0.110521995,0.090078086,-1.4938018,0.95001,0.7532583,1.1605881,0.0,2,0,0,0
541360477,30.657211921642432,-84.2085054034189,84.612144,51.72976,-0.0,-0.14250116,0.10308934,-1.5604388,0.94925344,0.7503472,1.1587281,0.0,2,0,0,0
541567725,30.657211775578656,-84.20850539887006,84.95378,52.069523,-0.0,-0.14880651,0.08096768,-1.6093351,0.9482495,0.7504839,1.1587259,0.0,2,0,0,0
541767710,30.657211595422893,-84.20850538225868,85.28061,52.394554,-0.0,-0.16742258,0.08960705,-1.653036,0.94659346,0.75037414,1.1590291,0.0,2,0,0,0
541974868,30.657211385472035,-84.20850534081805,85.63691,52.748955,-0.0,-0.17400214,0.08700517,-1.7144469,0.9448841,0.750475,1.159058,0.0,2,0,0,0
542174881,30.657211164783263,-84.2085052880352,85.984344,53.094494,-0.0,-0.18198118,0.08697474,-1.7163185,0.94281214,0.75032675,1.1593603,0.0,2,0,0,0
542370068,30.65721092734011,-84.20850523990465,86.321686,53.43003,-0.0,-0.1865763,0.07178804,-1.7545493,0.9411491,0.7500096,1.1587614,0.0,2,0,0,0
542578087,30.65721065219423,-84.20850520339674,86.69976,53.80619,-0.0,-0.19905059,0.06909805,-1.853692,0.94062346,0.75016415,1.1589108,0.0,2,0,0,0
542777280,30.65721040927492,-84.20850517531976,87.080864,54.185364,-0.0,-0.17829835,0.06896552,-1.9612261,0.9408862,0.7500563,1.1592356,0.0,2,0,0,0
542985275,30.65721016542505,-84.20850513114983,87.51308,54.615234,-0.0,-0.16467886,0.07616921,-2.1571105,0.94212884,0.75010914,1.1592307,0.0,2,0,0,0
543184468,30.657209949016007,-84.20850506798439,87.96454,55.06419,-0.0,-0.15032294,0.09504992,-2.282265,0.9432759,0.7499939,1.1589592,0.0,2,0,0,0
543384521,30.65720975242318,-84.20850496620481,88.42976,55.526875,-0.0,-0.14349644,0.11542723,-2.4043546,0.9451884,0.7498561,1.1586617,0.0,2,0,0,0
543583668,30.657209583721464,-84.20850483660496,88.91523,56.009613,-0.0,-0.10180955,0.10649936,-2.493384,0.94641215,0.7497248,1.15837,0.0,2,0,0,0
543790884,30.65720948293783,-84.20850472927576,89.40789,56.499287,-0.0,-0.06289744,0.093821615,-2.3879747,0.9483013,0.7498275,1.1590387,0.0,2,0,0,0
543990868,30.657209423330464,-84.20850466218084,89.89465,56.983303,-0.0,-0.053054236,0.071183324,-2.6068296,0.95044935,0.74972594,1.1587532,0.0,2,0,0,0
544194078,30.657209366639137,-84.20850461821153,90.44301,57.528835,-0.0,-0.050059017,0.05017387,-2.8870478,0.9521813,0.74962175,1.1584934,0.0,2,0,0,0
544394067,30.657209299763107,-84.20850459821777,91.050064,58.13289,-0.0,-0.061916888,0.04251954,-3.1279597,0.95284086,0.74961424,1.1589688,0.0,2,0,0,0
544593276,30.657209243890843,-84.20850458644311,91.69107,58.770504,-0.0,-0.0643809,0.03559769,-3.234673,0.9549798,0.7495673,1.1587038,0.0,2,0,0,0
544800502,30.657209172083263,-84.2085045580745,92.377045,59.453014,-0.0,-0.06892793,0.051227514,-3.4513798,0.95860225,0.74970067,1.1593326,0.0,2,0,0,0
545000475,30.657209091244525,-84.20850448708376,93.06215,60.134552,-0.0,-0.06111315,0.07586747,-3.541269,0.9618037,0.749657,1.1590407,0.0,2,0,0,0
545207668,30.657209015804746,-84.20850436566185,93.78831,60.85708,-0.0,-0.05236717,0.092486255,-3.6101418,0.96406424,0.7498101,1.1590921,0.0,2,0,0,0
545407668,30.65720898136968,-84.208504178066,94.51451,61.58007,-0.0,0.0011232835,0.15867633,-3.7070677,0.965411,0.74977773,1.1588022,0.0,2,0,0,0
545606868,30.657209157408598,-84.20850365841393,95.24494,62.307156,-0.0,0.18385497,0.4269716,-3.8220427,0.96567273,0.7497725,1.1591575,0.0,2,0,0,0
545814911,30.657209889446882,-84.20850222837586,96.02965,63.08612,-0.0,0.5503243,0.9418001,-3.824915,0.96599466,0.74992365,1.1591754,0.0,2,0,0,0
546010068,30.6572113026385,-84.20849969619213,96.75116,63.805733,-0.0,0.9583706,1.5110725,-3.6774683,0.9652997,0.749722,1.1592151,0.0,2,0,0,0
546217288,30.657213543668917,-84.20849576450478,97.466934,64.51668,-0.0,1.3027406,1.9538685,-3.3535519,0.963533,0.7499601,1.1593912,0.0,2,0,0,0
546417267,30.657216142145977,-84.20849119486002,98.11253,65.16017,-0.0,1.5042118,2.2225838,-3.3680058,0.9612195,0.74991155,1.1590946,0.0,2,0,0,0
546617268,30.657218993542408,-84.2084861922191,98.7857,65.831314,-0.0,1.6189879,2.357798,-3.6090045,0.9613055,0.74991184,1.1588405,0.0,2,0,0,0
546824468,30.657222075756255,-84.20848082808988,99.51572,66.55965,-0.0,1.6789659,2.4084828,-3.6024458,0.96287656,0.7500927,1.158875,0.0,2,0,0,0
547023668,30.657225024612426,-84.20847568801565,100.22866,67.271645,-0.0,1.6623604,2.3687904,-3.6941903,0.96349925,0.7501107,1.158638,0.0,2,0,0,0
547231680,30.65722793542261,-84.20847058109165,101.015625,68.05797,-0.0,1.545673,2.2146127,-3.9490218,0.96219933,0.7502837,1.1592907,0.0,2,0,0,0
547430868,30.65723043266068,-84.20846614743758,101.825134,68.86644,-0.0,1.4059981,2.0139873,-3.977593,0.96098644,0.75030816,1.1590501,0.0,2,0,0,0
547638098,30.65723273076297,-84.20846205182418,102.64415,69.68472,-0.0,1.2442423,1.794227,-3.8213375,0.95909905,0.7504923,1.1590881,0.0,2,0,0,0
547834068,30.657234600074126,-84.2084586890821,103.3821,70.42223,-0.0,1.0818709,1.5716552,-3.7968557,0.95336694,0.75034446,1.159269,0.0,2,0,0,0
548041325,30.65723627610741,-84.2084556622821,104.15075,71.190765,-0.0,0.94001293,1.3506304,-3.7557228,0.94458854,0.7504903,1.1593276,0.0,2,0,0,0
548241271,30.65723768642502,-84.20845324522782,104.902054,71.94179,-0.0,0.83862,1.1279728,-3.858891,0.9396036,0.7504098,1.159653,0.0,2,0,0,0
548448467,30.65723896757062,-84.20845120758526,105.712814,72.75227,-0.0,0.7428415,0.9450783,-3.9513884,0.9390302,0.75056744,1.1591002,0.0,2,0,0,0
548648468,30.657240045712648,-84.20844964906036,106.50044,73.53967,-0.0,0.63365823,0.77570724,-3.942329,0.943338,0.75053215,1.1594437,0.0,2,0,0,0
548855708,30.65724100850383,-84.20844838857631,107.30226,74.34147,-0.0,0.53573143,0.6440434,-3.9023573,0.9506103,0.7506867,1.1594911,0.0,2,0,0,0
549054868,30.65724181073262,-84.20844736455295,108.07602,75.11523,-0.0,0.4821539,0.59635526,-3.9637718,0.9567738,0.75069267,1.1592549,0.0,2,0,0,0
549254876,30.657242622635803,-84.20844631066916,108.8463,75.88568,-0.0,0.5098745,0.6476044,-3.7539697,0.9608531,0.7506771,1.159602,0.0,2,0,0,0
549462077,30.657243622992436,-84.20844499839541,109.55609,76.596054,-0.0,0.5993519,0.78072464,-3.2765517,0.9633316,0.74856114,1.1581197,0.0,2,0,0,0
549662068,30.657244823046383,-84.20844333444656,110.19089,77.23205,-0.0,0.7340049,0.98058647,-3.3521664,0.964599,0.7508509,1.1593997,0.0,2,0,0,0
549869276,30.657246337192205,-84.20844112424122,110.89438,77.93668,-0.0,0.8567224,1.1641672,-3.5350704,0.9643395,0.7486884,1.1579127,0.0,2,0,0,0
550069272,30.657247999704385,-84.20843860704669,111.63986,78.683716,-0.0,0.9413182,1.3054327,-3.9191644,0.96306753,0.7486526,1.1576442,0.0,2,0,0,0
550272476,30.657249826372418,-84.20843576511118,112.50183,79.54634,-0.0,0.9912128,1.4065263,-4.461808,0.96265775,0.74864566,1.1574194,0.0,2,0,0,0
550472475,30.65725170447417,-84.2084327939233,113.47714,80.52172,-0.0,1.0382912,1.4601485,-5.032578,0.9620321,0.74873513,1.1579278,0.0,2,0,0,0
550679673,30.657253699389017,-84.2084296659954,114.60298,81.6467,-0.0,1.0841011,1.4553156,-5.553285,0.9594341,0.74895966,1.1574172,0.0,2,0,0,0
550878875,30.65725566035771,-84.20842666211527,115.75496,82.79672,-0.0,1.086514,1.4667189,-5.7271976,0.9585989,0.74900615,1.1571827,0.0,2,0,0,0
551078877,30.65725765239931,-84.20842360047824,116.913574,83.953,-0.0,1.1019316,1.49285,-5.729143,0.95786166,0.74907196,1.1575571,0.0,2,0,0,0
551286068,30.657259739872476,-84.20842031946911,118.09137,85.128006,-0.0,1.1049646,1.5619767,-5.7090344,0.95689994,0.74931157,1.157656,0.0,2,0,0,0
551486068,30.65726176140867,-84.20841702253767,119.22368,86.258194,-0.0,1.1151384,1.6002134,-5.7223563,0.95500886,0.7493159,1.15802,0.0,2,0,0,0
551693268,30.65726385779259,-84.20841353058107,120.39632,87.42903,-0.0,1.125422,1.6257763,-5.7349753,0.9538307,0.74952817,1.1581188,0.0,2,0,0,0
551893275,30.657265926448343,-84.20841010639107,121.53074,88.562225,-0.0,1.1847287,1.673592,-5.8368354,0.95476705,0.7495101,1.1578817,0.0,2,0,0,0
552096474,30.657268252513173,-84.20840633734514,122.70639,89.73647,-0.0,1.3541112,1.9143485,-5.9474044,0.9565448,0.749593,1.1578037,0.0,2,0,0,0
552295668,30.657271010657823,-84.20840193714187,123.879395,90.907715,-0.0,1.6902108,2.3672962,-6.0757594,0.9602133,0.74957067,1.1576103,0.0,2,0,0,0
552495668,30.657274528927985,-84.2083963049033,125.07809,92.10447,-0.0,2.1491234,3.023784,-6.049461,0.96466583,0.7495455,1.1573862,0.0,2,0,0,0
552702871,30.657279130446188,-84.20838873115694,126.319275,93.34271,-0.0,2.7061782,3.8714757,-5.9918985,0.9659246,0.7497058,1.1581005,0.0,2,0,0,0
552902868,30.657284613679433,-84.20837947197444,127.49741,94.51851,-0.0,3.2896855,4.772701,-5.8975997,0.96665204,0.74969,1.1578646,0.0,2,0,0,0
553110068,30.657291357094707,-84.20836780777312,128.689,95.70807,-0.0,3.8190055,5.621926,-5.622606,0.9652948,0.74990505,1.1579609,0.0,2,0,0,0
553310068,30.657298747791792,-84.20835481825445,129.79088,96.80799,-0.0,4.310214,6.363232,-5.5316434,0.9612596,0.7499035,1.158317,0.0,2,0,0,0
553513284,30.657307037681775,-84.2083402286815,130.90717,97.92355,-0.0,4.731491,6.89783,-5.593283,0.9519932,0.75003904,1.1582106,0.0,2,0,0,0
553712474,30.657315690676782,-84.20832507623355,132.0315,99.04729,-0.0,4.969008,7.1841025,-5.723015,0.9438674,0.75012326,1.1585839,0.0,2,0,0,0
553912490,30.657324573985452,-84.20830957235644,133.1816,100.19719,-0.0,5.058135,7.251725,-5.8226748,0.94157445,0.75017464,1.1583122,0.0,2,0,0,0
554119679,30.657333728174894,-84.20829366753836,134.39021,101.40588,-0.0,5.009604,7.1444793,-5.8965473,0.9436448,0.75042844,1.1589909,0.0,2,0,0,0
554319687,30.657342363685864,-84.20827876824286,135.57515,102.5909,-0.0,4.922827,7.007822,-5.9459796,0.9482559,0.75040984,1.1587149,0.0,2,0,0,0
554518867,30.657350744968582,-84.20826439143839,136.7352,103.75124,-0.0,4.825355,6.8355494,-5.5962934,0.9500777,0.7503836,1.1584723,0.0,2,0,0,0
554726874,30.657359229992057,-84.20824990968588,137.85037,104.86774,-0.0,4.677085,6.607003,-5.0132356,0.9504241,0.75048536,1.1591176,0.0,2,0,0,0
554930074,30.657367206560878,-84.20823637906003,138.79713,105.816864,-0.0,4.51946,6.371673,-4.374061,0.95259327,0.7503729,1.1588715,0.0,2,0,0,0
555129285,30.657374780184377,-84.2082236647851,139.59149,106.614746,-0.0,4.3894486,6.1615486,-3.757874,0.9523725,0.750277,1.1587547,0.0,2,0,0,0
555337282,30.657382480740235,-84.20821092153466,140.3035,107.33101,-0.0,4.273373,5.9613147,-3.1632745,0.95148647,0.75022244,1.1587889,0.0,2,0,0,0
555536468,30.65738965344199,-84.20819920197428,140.87766,107.91033,-0.0,4.161454,5.783305,-2.6380408,0.94965255,0.75003797,1.15916,0.0,2,0,0,0
555736468,30.65739672255533,-84.20818779908298,141.34592,108.384445,-0.0,4.0942345,5.6496353,-2.0795846,0.94892293,0.7498504,1.1588972,0.0,2,0,0,0
555943668,30.657403958036166,-84.2081762532181,141.71742,108.76247,-0.0,4.0191236,5.5265374,-1.4769604,0.94865173,0.74988097,1.158976,0.0,2,0,0,0
556143703,30.657410857898167,-84.20816531598778,141.96909,109.02133,-0.0,3.9445398,5.4299884,-0.94676214,0.9520629,0.7497512,1.1593245,0.0,2,0,0,0
556342870,30.65741760619431,-84.20815464045184,142.11374,109.17348,-0.0,3.874996,5.321542,-0.40877005,0.9543702,0.7496676,1.1590853,0.0,2,0,0,0
556546068,30.657424376274104,-84.2081439504776,142.17686,109.244995,-0.0,3.7903159,5.2221184,-0.12179969,0.9581831,0.74959826,1.1588148,0.0,2,0,0,0
556754068,30.6574311891329,-84.20813319214663,142.22005,109.2962,-0.0,3.723155,5.158982,-0.00819717,0.9612395,0.7498255,1.1596245,0.0,2,0,0,0
556953271,30.6574376599234,-84.20812298316852,142.27191,109.35536,-0.0,3.7145658,5.150344,-0.013464341,0.9629694,0.7498273,1.159369,0.0,2,0,0,0
557153302,30.657444214180266,-84.20811268150656,142.3234,109.41339,-0.0,3.7564855,5.202388,0.02662881,0.9661354,0.7498392,1.1597021,0.0,2,0,0,0
557360479,30.657451126250404,-84.20810186646078,142.37123,109.46622,-0.0,3.8177197,5.2712474,0.09534688,0.97258556,0.74789345,1.1576159,0.0,2,0,0,0
557560474,30.65745787517603,-84.20809118764575,142.40816,109.50763,-0.0,3.8172665,5.340125,0.14577067,0.9918251,0.75010806,1.1595038,0.0,2,0,0,0
557759668,30.657464628422936,-84.20808037925765,142.43742,109.5406,-0.0,3.8082929,5.397548,0.18492682,1.0202047,0.75014937,1.1592367,0.0,2,0,0,0
557962875,30.657471503695355,-84.20806914446572,142.45866,109.56462,-0.0,3.765481,5.469375,0.21198566,1.0499183,0.75021255,1.1590081,0.0,2,0,0,0
558162875,30.657478174740874,-84.20805792698131,142.47144,109.57921,-0.0,3.6938984,5.526861,0.24722274,1.0788083,0.7503336,1.1595186,0.0,2,0,0,0
558370089,30.657484911651736,-84.2080461629334,142.4818,109.590614,-0.0,3.5844438,5.6210966,0.23838548,1.1114205,0.74832875,1.1580461,0.0,2,0,0,0
558570068,30.65749116854719,-84.20803460279504,142.48863,109.59758,-0.0,3.423047,5.6270795,0.27048,1.1376667,0.7483512,1.1577811,0.0,2,0,0,0
558777274,30.657497288283068,-84.20802262634378,142.49564,109.604034,-0.0,3.211108,5.617113,0.22244851,1.155004,0.74858135,1.157858,0.0,2,0,0,0
558976481,30.657502779218046,-84.20801120116192,142.4985,109.60562,-0.0,2.9681668,5.543889,0.22527748,1.1650599,0.74861,1.1576005,0.0,2,0,0,0
559176516,30.657507882078473,-84.20799988114562,142.49432,109.59924,-0.0,2.7613678,5.488678,0.26144752,1.1710746,0.74862885,1.1573569,0.0,2,0,0,0
559383668,30.657512803147128,-84.2079882604703,142.48355,109.58572,-0.0,2.5794802,5.477406,0.28478616,1.1735451,0.7488796,1.1574659,0.0,2,0,0,0
559583668,30.657517325438565,-84.2079769763473,142.47183,109.57012,-0.0,2.4463153,5.526331,0.24254408,1.176117,0.7489187,1.157839,0.0,2,0,0,0
559782868,30.657521690022186,-84.2079656083954,142.46112,109.554695,-0.0,2.3861272,5.6112266,0.28229105,1.1779008,0.74896175,1.1576389,0.0,2,0,0,0
559990870,30.657526219649483,-84.20795345798669,142.4472,109.535416,-0.0,2.386937,5.76494,0.27153745,1.1783925,0.7491946,1.1577235,0.0,2,0,0,0
560194068,30.65753069695807,-84.20794123032869,142.4313,109.5131,-0.0,2.4067218,5.8849964,0.24824467,1.1769464,0.7492273,1.1575291,0.0,2,0,0,0
560394068,30.657535184213796,-84.20792887780372,142.41887,109.49409,-0.0,2.4375584,6.033253,0.2036577,1.1777276,0.74934536,1.1574584,0.0,2,0,0,0
560601275,30.657539959260983,-84.20791571522359,142.40472,109.472855,-0.0,2.4973683,6.192017,0.2236971,1.1799254,0.74956876,1.1575726,0.0,2,0,0,0
560800507,30.65754469389431,-84.20790263862473,142.3883,109.44899,-0.0,2.5603495,6.4146094,0.2158922,1.1814883,0.7495681,1.1579505,0.0,2,0,0,0
561000468,30.657549568631122,-84.20788903939,142.37283,109.425644,-0.0,2.6301491,6.617913,0.18695855,1.1797757,0.7495625,1.1577322,0.0,2,0,0,0
561207668,30.657554781862984,-84.20787447735704,142.3588,109.40349,-0.0,2.7279363,6.7950377,0.19949682,1.1807082,0.74974585,1.1578587,0.0,2,0,0,0
561407691,30.65755992644719,-84.20786012489494,142.34892,109.38569,-0.0,2.7667298,6.9336324,0.15508546,1.1827896,0.74972695,1.1576412,0.0,2,0,0,0
561606874,30.657565129967253,-84.20784558822292,142.34247,109.37098,-0.0,2.826403,7.019641,0.17396398,1.185323,0.74972576,1.1574576,0.0,2,0,0,0
561814076,30.657570633696867,-84.20783027136521,142.33261,109.352745,-0.0,2.8503625,7.0840926,0.15468484,1.1871505,0.7499099,1.1581559,0.0,2,0,0,0
562014068,30.657575995261084,-84.20781534645225,142.32887,109.33595,-0.0,2.897858,7.1275496,0.09736598,1.1901538,0.7499022,1.1579324,0.0,2,0,0,0
562217276,30.657581476928765,-84.20780014341018,142.32675,109.32489,-0.0,2.9079878,7.1502438,0.117972724,1.190226,0.74988407,1.1583382,0.0,2,0,0,0
562425277,30.657587113074364,-84.20778458335504,142.32434,109.31369,-0.0,2.922195,7.138763,0.16107634,1.1934085,0.750142,1.1585716,0.0,2,0,0,0
562624468,30.65759252156451,-84.20776965763903,142.31836,109.29875,-0.0,2.9132195,7.1793623,0.11786545,1.1961012,0.7501383,1.1583686,0.0,2,0,0,0
562824479,30.657597950602025,-84.2077546533566,142.31099,109.28215,-0.0,2.9571557,7.188758,0.11388454,1.1971562,0.75011367,1.1581469,0.0,2,0,0,0
563023686,30.657603391988257,-84.2077396733995,142.30066,109.262596,-0.0,2.984407,7.1618323,0.13964291,1.1932399,0.7501216,1.1579608,0.0,2,0,0,0
563230868,30.657609051866544,-84.20772408940879,142.29805,109.25084,-0.0,2.981113,7.2187767,0.07152731,1.1947337,0.75025433,1.1580527,0.0,2,0,0,0
563430868,30.657614504364055,-84.20770903200021,142.29926,109.242905,-0.0,2.97039,7.1863313,0.10554598,1.1942257,0.7502293,1.1584449,0.0,2,0,0,0
563634087,30.6576200286616,-84.20769373099917,142.29723,109.23166,-0.0,2.9373424,7.199013,0.07713017,1.1946797,0.7502217,1.1582518,0.0,2,0,0,0
563842067,30.65762567326779,-84.20767810744175,142.2958,109.22098,-0.0,2.9416502,7.178729,0.08280476,1.1921018,0.75045836,1.158492,0.0,2,0,0,0
564041275,30.657631045038197,-84.20766322287085,142.29608,109.212,-0.0,2.9177108,7.112624,0.048705693,1.1909144,0.7504347,1.1582893,0.0,2,0,0,0
564249270,30.657636619005675,-84.2076478678659,142.30109,109.207825,-0.0,2.8984187,7.033728,0.07217179,1.1916722,0.75058967,1.1583673,0.0,2,0,0,0
564448468,30.65764190264197,-84.20763334803965,142.29655,109.19455,-0.0,2.8843021,6.970328,0.10963626,1.1926093,0.7505382,1.1587436,0.0,2,0,0,0
564647674,30.65764717327514,-84.2076189175443,142.28915,109.17812,-0.0,2.8896792,6.9574327,0.08437434,1.193014,0.7505244,1.1585412,0.0,2,0,0,0
564847668,30.657652481368533,-84.20760437474347,142.27525,109.15525,-0.0,2.903938,7.042495,0.11865026,1.1897519,0.75047636,1.1589161,0.0,2,0,0,0
565050873,30.657657955465044,-84.20758928318344,142.26123,109.13217,-0.0,2.9823272,7.2139626,0.11830413,1.1836222,0.75045127,1.1587061,0.0,2,0,0,0
565258868,30.657663698859803,-84.2075734718553,142.24283,109.10479,-0.0,3.034515,7.337474,0.10297103,1.1767237,0.75068814,1.1589324,0.0,2,0,0,0
565458068,30.65766923820183,-84.20755815137687,142.24107,109.09439,-0.0,3.032631,7.3053427,0.06561011,1.1748531,0.75068444,1.1593332,0.0,2,0,0,0
565665268,30.657674940631015,-84.20754234307638,142.24353,109.0883,-0.0,2.979648,7.222971,0.033779003,1.1767572,0.7485409,1.1578381,0.0,2,0,0,0
565865274,30.657680336468164,-84.20752734395322,142.23776,109.074005,-0.0,2.9334764,7.0800753,0.03561767,1.179383,0.7508182,1.1591463,0.0,2,0,0,0
566065273,30.657685593399766,-84.2075127035951,142.23085,109.05911,-0.0,2.8581314,6.9301777,0.016435375,1.1829488,0.7485032,1.1579697,0.0,2,0,0,0
566264476,30.657690787413188,-84.20749824150207,142.21954,109.04002,-0.0,2.876718,6.9824123,0.072575785,1.1837997,0.74848855,1.1577226,0.0,2,0,0,0
566471668,30.657696287911442,-84.20748290841321,142.20084,109.01326,-0.0,2.9458115,7.1857204,0.0763708,1.181819,0.7486675,1.1578208,0.0,2,0,0,0
566671668,30.657701734204096,-84.20746761336923,142.19159,108.996216,-0.0,3.0052395,7.3943634,0.06832254,1.1770284,0.74863786,1.157584,0.0,2,0,0,0
566870888,30.657707242415594,-84.2074520230473,142.19434,108.99159,-0.0,3.0657709,7.4720182,0.043488234,1.1742295,0.74864024,1.1573775,0.0,2,0,0,0
567078913,30.65771301021487,-84.20743560472074,142.2024,108.99226,-0.0,3.0694404,7.4720902,0.029809732,1.1737887,0.7487923,1.1580465,0.0,2,0,0,0
567282068,30.657718680241437,-84.2074194930748,142.2002,108.98271,-0.0,3.1208208,7.574598,0.05493608,1.1732684,0.74886614,1.1579514,0.0,2,0,0,0
567481283,30.657724313799108,-84.20740347466808,142.18994,108.965164,-0.0,3.1247766,7.652971,0.06795915,1.1714166,0.748877,1.157741,0.0,2,0,0,0
567689268,30.657730211884154,-84.20738661525529,142.18553,108.953766,-0.0,3.131908,7.669523,0.022892892,1.1736294,0.7490481,1.1578029,0.0,2,0,0,0
567888474,30.657735778574388,-84.20737056988631,142.19595,108.957306,-0.0,3.0811481,7.5517125,-0.018364903,1.1765505,0.749047,1.1581892,0.0,2,0,0,0
568088505,30.657741207422337,-84.20735483749974,142.2115,108.966515,-0.0,3.0025702,7.3339763,-0.0034934785,1.1823121,0.74903536,1.1579466,0.0,2,0,0,0
568295668,30.657746653832792,-84.20733905278792,142.21396,108.96236,-0.0,2.9200892,7.1609316,0.031261325,1.1873341,0.7491949,1.1580414,0.0,2,0,0,0
568494873,30.657751749021468,-84.20732425225117,142.20952,108.95174,-0.0,2.8462548,7.0262938,0.07554134,1.1893983,0.7491724,1.1584003,0.0,2,0,0,0
568702868,30.65775694849664,-84.20730909884833,142.19818,108.93413,-0.0,2.8017452,6.89401,0.034660406,1.1878053,0.74933285,1.1584582,0.0,2,0,0,0
568902068,30.657761905637543,-84.20729478445432,142.18689,108.91655,-0.0,2.7985432,6.8501363,0.070736304,1.1833078,0.7493342,1.1582342,0.0,2,0,0,0
569110068,30.657767135987047,-84.2072798401816,142.17851,108.902084,-0.0,2.8002346,6.853641,0.019583076,1.1781803,0.7495299,1.1582885,0.0,2,0,0,0
569313300,30.657772281737778,-84.2072651584023,142.17583,108.89325,-0.0,2.8607798,6.9059553,0.06325003,1.1746588,0.74950045,1.1586341,0.0,2,0,0,0
569513271,30.65777741156905,-84.20725051371056,142.17188,108.88313,-0.0,2.8712957,7.0040755,0.053000692,1.1717675,0.7495953,1.1585535,0.0,2,0,0,0
569712468,30.657782584897692,-84.20723571531697,142.17267,108.87776,-0.0,2.9194963,7.1148252,0.027825225,1.1690905,0.74956584,1.1582918,0.0,2,0,0,0
569911706,30.65778788261597,-84.2072205477855,142.1792,108.8781,-0.0,3.0262554,7.3169847,0.033520013,1.1693162,0.7495733,1.1586727,0.0,2,0,0,0
570111691,30.657793398102946,-84.20720472931856,142.17761,108.86973,-0.0,3.11251,7.607751,0.097287595,1.1650076,0.7495488,1.1584051,0.0,2,0,0,0
570318917,30.657799280037484,-84.20718778669091,142.16757,108.84987,-0.0,3.1914685,7.8195906,0.07976262,1.1615644,0.7497097,1.159088,0.0,2,0,0,0
570518874,30.65780506955053,-84.20717105144153,142.15817,108.83404,-0.0,3.258409,7.9602056,0.04828323,1.1609827,0.74968654,1.1588156,0.0,2,0,0,0
570722074,30.657811088976786,-84.20715373137799,142.14493,108.81459,-0.0,3.3511405,8.090538,0.06820537,1.1588858,0.7496873,1.1591842,0.0,2,0,0,0
570929277,30.65781732473141,-84.20713589334008,142.1365,108.80011,-0.0,3.3761168,8.108969,0.0020112987,1.1591398,0.74996084,1.15937,0.0,2,0,0,0
571129271,30.65782339170268,-84.20711866802773,142.13983,108.797485,-0.0,3.4170246,8.098875,0.006021007,1.1622736,0.7499648,1.1590827,0.0,2,0,0,0
571328468,30.657829495586828,-84.20710157703053,142.14145,108.79367,-0.0,3.4580653,8.106126,-0.009991038,1.1661841,0.7499755,1.1588304,0.0,2,0,0,0
571528468,30.657835687360947,-84.20708441472335,142.14102,108.78778,-0.0,3.5125124,8.094001,0.05325311,1.1703688,0.74995255,1.1585593,0.0,2,0,0,0
571735708,30.657842127297624,-84.20706656295442,142.14255,108.78372,-0.0,3.5151818,8.160931,-0.013020942,1.1757008,0.7501515,1.1586394,0.0,2,0,0,0
571935668,30.65784832345768,-84.20704934114084,142.14554,108.78149,-0.0,3.5026376,8.116739,0.04282804,1.1799289,0.75012815,1.1589855,0.0,2,0,0,0
572134868,30.657854462942833,-84.20703225332474,142.14355,108.77424,-0.0,3.4482,8.107094,0.022007968,1.1853266,0.7501388,1.1587489,0.0,2,0,0,0
572341308,30.65786074101755,-84.20701464067554,142.14127,108.76718,-0.0,3.4004397,8.109312,0.009859148,1.1907461,0.7502907,1.1587967,0.0,2,0,0,0
572542068,30.6578667640626,-84.20699758252805,142.13304,108.75423,-0.0,3.3663402,8.079558,-0.00050619827,1.1927083,0.7502674,1.1591492,0.0,2,0,0,0
572745293,30.65787276329493,-84.20698036677064,142.12808,108.74469,-0.0,3.2946548,8.050553,-0.012289581,1.1952434,0.75026506,1.1589199,0.0,2,0,0,0
572945279,30.657878583792435,-84.20696346846366,142.1289,108.74098,-0.0,3.2598183,8.028021,-0.019252108,1.1966182,0.7503471,1.1588202,0.0,2,0,0,0
573152468,30.65788458706488,-84.20694595886157,142.12701,108.734505,-0.0,3.2448938,8.077868,-0.012191955,1.1968082,0.7505382,1.1589104,0.0,2,0,0,0
573350907,30.65789034615048,-84.20692914158887,142.119,108.722275,-0.0,3.25989,8.100803,0.02682741,1.195734,0.7505069,1.1586584,0.0,2,0,0,0
573551668,30.65789621233461,-84.20691201005312,142.11679,108.71603,-0.0,3.2669568,8.160052,-0.011884078,1.1944226,0.7504893,1.1584157,0.0,2,0,0,0
573754921,30.657902200780796,-84.20689458068469,142.11736,108.71271,-0.0,3.2893403,8.178441,-0.022225477,1.1943005,0.7504937,1.158818,0.0,2,0,0,0
573962894,30.65790835931025,-84.2068767131029,142.12576,108.71739,-0.0,3.272714,8.220502,-0.02426213,1.1951032,0.74847054,1.1575046,0.0,2,0,0,0
574162076,30.657914275986318,-84.20685956496953,142.13188,108.719894,-0.0,3.314701,8.239167,-0.03164669,1.1952423,0.75076693,1.1588242,0.0,2,0,0,0
574370068,30.657920489125363,-84.2068415874713,142.13171,108.71631,-0.0,3.3056092,8.311239,0.0038391398,1.1940998,0.7486142,1.1573523,0.0,2,0,0,0
574569274,30.657926487786387,-84.20682423019815,142.13242,108.71369,-0.0,3.368548,8.353409,0.014287609,1.1944964,0.7486087,1.1577412,0.0,2,0,0,0
574777296,30.657932794573448,-84.20680597895303,142.13725,108.71529,-0.0,3.3471012,8.411772,-0.0076031466,1.1941769,0.74876493,1.1578012,0.0,2,0,0,0
574976474,30.657938838512578,-84.20678850059703,142.14612,108.72097,-0.0,3.3514757,8.408403,-0.03646027,1.1952615,0.7487614,1.1569955,0.0,2,0,0,0
575175668,30.65794488430132,-84.20677097741297,142.15239,108.72406,-0.0,3.3796432,8.41065,0.012117534,1.1957083,0.7487447,1.1573752,0.0,2,0,0,0
575375669,30.65795097934945,-84.20675328848186,142.15222,108.7209,-0.0,3.375195,8.4638605,0.027906805,1.1945497,0.74871546,1.1571524,0.0,2,0,0,0
575582873,30.65795731171681,-84.20673486478307,142.15067,108.7164,-0.0,3.3988185,8.517842,0.00990505,1.1947659,0.74888235,1.1572657,0.0,2,0,0,0
575782868,30.657963437222456,-84.20671705413109,142.14745,108.710495,-0.0,3.3719862,8.486252,0.026106387,1.1952698,0.74887097,1.1576439,0.0,2,0,0,0
575986068,30.657969620220577,-84.20669905603671,142.14455,108.70519,-0.0,3.3552964,8.4258995,0.025937084,1.1949835,0.7488641,1.1574482,0.0,2,0,0,0
576194068,30.657975929390002,-84.20668069199273,142.13885,108.69726,-0.0,3.3356237,8.485342,0.022862293,1.1957264,0.7491261,1.1576861,0.0,2,0,0,0
576393280,30.657982013105308,-84.20666303846447,142.12747,108.68376,-0.0,3.3870862,8.498682,0.020286007,1.1947535,0.7491045,1.1574631,0.0,2,0,0,0
576600468,30.657988373178103,-84.20664451744452,142.12718,108.681564,-0.0,3.3803105,8.615184,-0.0063546356,1.1937723,0.74928373,1.1575803,0.0,2,0,0,0
576800468,30.657994592324577,-84.20662647802378,142.12917,108.68169,-0.0,3.466923,8.686375,0.018734356,1.1920621,0.74925375,1.1573565,0.0,2,0,0,0
576999668,30.65800087959894,-84.20660829407184,142.13078,108.6815,-0.0,3.4804075,8.796065,0.02777956,1.1905992,0.74924374,1.1577618,0.0,2,0,0,0
577206902,30.658007524876794,-84.20658905789882,142.1341,108.683014,-0.0,3.5492604,8.953342,0.011460377,1.1879921,0.7493995,1.1578345,0.0,2,0,0,0
577406868,30.65801403979192,-84.2065701171618,142.14032,108.68753,-0.0,3.6233685,9.172848,-0.022278741,1.1857002,0.7493764,1.1582024,0.0,2,0,0,0
577610068,30.65802083970755,-84.20655022885161,142.14407,108.68944,-0.0,3.7385833,9.482779,0.08302899,1.1795151,0.74938965,1.1579921,0.0,2,0,0,0
577818076,30.65802800757175,-84.20652910518722,142.131,108.67369,-0.0,3.8339105,9.819313,0.06574978,1.1719028,0.749651,1.1582098,0.0,2,0,0,0
578017272,30.658035017010196,-84.20650828062806,142.11894,108.66011,-0.0,3.8997364,10.0172825,0.03805541,1.1693393,0.7496639,1.1585975,0.0,2,0,0,0
578217316,30.658042085859705,-84.20648717929271,142.12903,108.66905,-0.0,3.88964,9.974466,-0.09082286,1.1722894,0.74963456,1.158343,0.0,2,0,0,0
578424482,30.658049233194703,-84.20646581537818,142.16412,108.703476,-0.0,3.7684987,9.636185,-0.19102943,1.1805497,0.749815,1.1583964,0.0,2,0,0,0
578623674,30.658055827946747,-84.20644621260354,142.19313,108.73199,-0.0,3.617105,9.222217,-0.119811065,1.1937392,0.74983287,1.1581758,0.0,2,0,0,0
578831668,30.658062438270775,-84.20642659993548,142.18521,108.72397,-0.0,3.4842832,8.911321,-0.039636664,1.2067789,0.75000805,1.1582358,0.0,2,0,0,0
579034868,30.658068731755694,-84.20640808159789,142.15237,108.6913,-0.0,3.4394593,8.675198,0.048774414,1.2129121,0.7500076,1.1586312,0.0,2,0,0,0
579234869,30.658074840339513,-84.20639036215208,142.12975,108.66934,-0.0,3.3646824,8.429586,0.0075764507,1.2141924,0.7500734,1.1585366,0.0,2,0,0,0
579434113,30.658080809921994,-84.20637328638158,142.13164,108.672165,-0.0,3.3028772,8.163729,-0.06264219,1.2131126,0.75004476,1.1582879,0.0,2,0,0,0
579642077,30.658086922213716,-84.20635602077367,142.13757,108.679245,-0.0,3.1985176,7.9080644,-0.06975846,1.2108225,0.75025016,1.1583778,0.0,2,0,0,0
579841276,30.658092636775844,-84.2063400171575,142.1424,108.6855,-0.0,3.0985024,7.6369677,-0.07963935,1.2064906,0.75021845,1.1587085,0.0,2,0,0,0
580040468,30.658098182558177,-84.20632458654927,142.15178,108.69644,-0.0,3.0048761,7.381473,-0.058579475,1.2031424,0.75024945,1.158526,0.0,2,0,0,0
580248506,30.658103890121517,-84.20630879302112,142.14447,108.69064,-0.0,3.0137506,7.370258,0.025780894,1.1996975,0.7503958,1.158595,0.0,2,0,0,0
580447668,30.658109429110844,-84.20629355926063,142.11981,108.66754,-0.0,3.0319974,7.4586143,0.09150685,1.1920521,0.7503929,1.1583815,0.0,2,0,0,0
580655668,30.65811528431703,-84.20627729242109,142.11638,108.66571,-0.0,3.0691545,7.5935698,0.033501342,1.1836219,0.7505434,1.1584533,0.0,2,0,0,0
580854868,30.65812097403313,-84.20626137254567,142.1224,108.67308,-0.0,3.0816905,7.721705,0.035951592,1.175602,0.75051844,1.1588233,0.0,2,0,0,0
581054068,30.658126753487316,-84.20624513569432,142.13823,108.689896,-0.0,3.1583865,7.8377647,0.0386338,1.1714522,0.75051254,1.158616,0.0,2,0,0,0
581262068,30.658132928678565,-84.20622778647859,142.14432,108.69655,-0.0,3.2320602,8.051568,0.03369083,1.1694185,0.7483921,1.1571586,0.0,2,0,0,0
581461272,30.658139000197114,-84.20621063858103,142.14767,108.7001,-0.0,3.3343093,8.309106,0.03619461,1.1686267,0.7506545,1.1590751,0.0,2,0,0,0
581661301,30.658145289613365,-84.20619268731872,142.15033,108.70245,-0.0,3.4833937,8.728605,0.03593662,1.1677687,0.75061417,1.1588203,0.0,2,0,0,0
581868468,30.65815207417636,-84.20617310412267,142.1391,108.690735,-0.0,3.651682,9.198879,0.12385544,1.1649373,0.7484978,1.1573737,0.0,2,0,0,0
582071667,30.658159028745548,-84.20615278296668,142.1153,108.66643,-0.0,3.8261766,9.701637,0.10997309,1.1643152,0.7484538,1.157724,0.0,2,0,0,0
582271668,30.658166162034366,-84.20613172034074,142.09363,108.64433,-0.0,4.0115843,10.199231,0.08687002,1.1655993,0.7484978,1.1576203,0.0,2,0,0,0
582478873,30.658173875955953,-84.20610882063094,142.07718,108.627426,-0.0,4.2123203,10.695124,0.04449098,1.1680212,0.7486833,1.1576982,0.0,2,0,0,0
582678868,30.65818163837858,-84.20608569582937,142.06015,108.609924,-0.0,4.3717566,11.155273,0.06665022,1.1702467,0.74867976,1.1580426,0.0,2,0,0,0
582886092,30.658189953303136,-84.20606082774297,142.02313,108.57271,-0.0,4.5104027,11.545567,0.07957271,1.1703002,0.7489004,1.1581113,0.0,2,0,0,0
583088492,30.65819829861534,-84.2060357970976,142.00531,108.555084,-0.0,4.6712594,11.806064,-0.008734793,1.1747333,0.7489223,1.1578412,0.0,2,0,0,0
583289271,30.65820668460715,-84.20601061107142,142.01102,108.56128,-0.0,4.740046,11.936273,-0.08360872,1.1822532,0.7490241,1.1583247,0.0,2,0,0,0
583489277,30.658215093920294,-84.20598531401227,142.02565,108.57663,-0.0,4.785628,12.020383,-0.09980135,1.1917062,0.7490807,1.1580856,0.0,2,0,0,0
583688468,30.658223534721326,-84.20595999238132,142.03433,108.58624,-0.0,4.835612,12.165182,-0.121610574,1.2004329,0.7491154,1.157854,0.0,2,0,0,0
583895675,30.658232403157044,-84.20593346043317,142.03836,108.59128,-0.0,4.9098253,12.297594,-0.04928274,1.205614,0.74930656,1.1578999,0.0,2,0,0,0
584095668,30.658241076260698,-84.20590762576073,142.04286,108.59712,-0.0,4.966649,12.422256,-0.042083602,1.207562,0.7493023,1.1582459,0.0,2,0,0,0
584298868,30.65825001501367,-84.20588108359155,142.04709,108.60278,-0.0,5.03591,12.587051,-0.025784228,1.2065907,0.74939716,1.1581353,0.0,2,0,0,0
584501318,30.658259053588925,-84.20585434743465,142.05179,108.609146,-0.0,5.098226,12.682329,-0.009560119,1.2032948,0.74939555,1.1584917,0.0,2,0,0,0
584702071,30.65826810059729,-84.20582757314651,142.06206,108.62131,-0.0,5.1437864,12.85977,-0.030061074,1.2041382,0.7494694,1.1583565,0.0,2,0,0,0
584901275,30.65827712729119,-84.2058008189538,142.0686,108.62987,-0.0,5.1828747,12.961392,-0.04101088,1.2021945,0.74944246,1.1587087,0.0,2,0,0,0
585109270,30.658286630809886,-84.20577270177692,142.07727,108.64081,-0.0,5.2168393,13.037104,-0.026535943,1.2021816,0.7495922,1.1587331,0.0,2,0,0,0
585308467,30.658295791006648,-84.20574564639045,142.0878,108.65391,-0.0,5.220185,13.133139,0.007975545,1.2035136,0.7495584,1.1584753,0.0,2,0,0,0
585516468,30.658305409571792,-84.20571728098132,142.09406,108.66459,-0.0,5.260383,13.141964,-0.03225489,1.2032301,0.74968827,1.1584988,0.0,2,0,0,0
585715668,30.658314656547994,-84.20569002841115,142.09793,108.67173,-0.0,5.2592044,13.225944,-0.020319775,1.2032608,0.7496527,1.1582566,0.0,2,0,0,0
585922868,30.658324331567407,-84.20566157269916,142.1028,108.68007,-0.0,5.2964225,13.26689,0.036145184,1.2016006,0.74978423,1.1589026,0.0,2,0,0,0
586122886,30.658333744499355,-84.20563400393836,142.10559,108.68649,-0.0,5.301962,13.367084,0.008750381,1.2000512,0.7497357,1.1586313,0.0,2,0,0,0
586330068,30.658343544241735,-84.20560541867852,142.1094,108.6938,-0.0,5.3330884,13.3442955,0.014624581,1.1980029,0.74987626,1.1586926,0.0,2,0,0,0
586530068,30.658353008347714,-84.20557788276699,142.12039,108.70858,-0.0,5.3159313,13.271333,-0.018682139,1.1986592,0.74982107,1.1590248,0.0,2,0,0,0
586729272,30.658362445145713,-84.20555059889767,142.12332,108.715454,-0.0,5.3245325,13.230051,0.015513711,1.2000606,0.7498054,1.1587706,0.0,2,0,0,0
586929274,30.658372006125408,-84.20552323749085,142.1098,108.70618,-0.0,5.3840694,13.252141,0.06833712,1.2001767,0.7497613,1.1590971,0.0,2,0,0,0
587136490,30.658381989044678,-84.20549486724013,142.093,108.694046,-0.0,5.388413,13.247953,0.047075216,1.1981997,0.7499377,1.1591518,0.0,2,0,0,0
587335668,30.658391599415477,-84.20546757313954,142.08728,108.69337,-0.0,5.401213,13.258889,-0.008763604,1.196847,0.74989134,1.158866,0.0,2,0,0,0
587543668,30.658401620743483,-84.2054391036526,142.09418,108.705246,-0.0,5.382649,13.226166,0.03739257,1.1952716,0.75005215,1.1588956,0.0,2,0,0,0
587742874,30.65841125552915,-84.20541182485438,142.08815,108.70445,-0.0,5.378396,13.1961355,0.036737893,1.1917478,0.75006837,1.1592615,0.0,2,0,0,0
587950868,30.658421239661376,-84.20538354263748,142.09735,108.719284,-0.0,5.281168,13.014779,-0.057428524,1.1913794,0.7502406,1.1592894,0.0,2,0,0,0
588150074,30.65843061990182,-84.20535708378665,142.11893,108.746704,-0.0,5.171245,12.692048,-0.0778539,1.1935155,0.7502194,1.1589988,0.0,2,0,0,0
588357300,30.65844019279392,-84.20533030874898,142.1331,108.76681,-0.0,5.069963,12.370361,-0.05558394,1.1980433,0.75041926,1.1596656,0.0,2,0,0,0
588557275,30.658449271979244,-84.20530501218533,142.13535,108.77547,-0.0,4.991557,12.146444,0.02686365,1.2036332,0.7504402,1.1593747,0.0,2,0,0,0
588756468,30.658458166741724,-84.20528024875036,142.1301,108.77643,-0.0,4.8714433,11.976056,0.016077006,1.2054167,0.7504698,1.159125,0.0,2,0,0,0
588964468,30.65846736762963,-84.20525467906907,142.12556,108.77855,-0.0,4.85479,11.856189,0.059055887,1.2058825,0.75069314,1.1591679,0.0,2,0,0,0
589167677,30.658476264576514,-84.20522984958207,142.11847,108.77791,-0.0,4.7688766,11.837641,0.042103864,1.2022774,0.7507295,1.1589341,0.0,2,0,0,0
589366907,30.658484980666568,-84.20520546229572,142.11917,108.78483,-0.0,4.801696,11.870379,0.06700361,1.1965059,0.7485201,1.1573093,0.0,2,0,0,0
589566868,30.658493773315254,-84.20518073521733,142.12842,108.80029,-0.0,4.790808,11.974264,0.04975813,1.1889839,0.74853927,1.1576549,0.0,2,0,0,0
589770068,30.658502780011858,-84.20515525804753,142.13562,108.81348,-0.0,4.8469496,12.13839,0.0471355,1.1841184,0.7485671,1.1574218,0.0,2,0,0,0
589970068,30.658511753906026,-84.20512975949799,142.13528,108.818825,-0.0,4.898331,12.312409,0.11522004,1.1779171,0.7486578,1.157912,0.0,2,0,0,0
590177295,30.65852116852863,-84.20510291614484,142.13647,108.82573,-0.0,4.9723625,12.44282,0.085413724,1.1744387,0.7487995,1.1579678,0.0,2,0,0,0
590377288,30.658530263158358,-84.20507693390593,142.15036,108.84479,-0.0,4.9371214,12.425602,-0.0012452048,1.175422,0.7487598,1.1576939,0.0,2,0,0,0
590576474,30.658539250890424,-84.20505118680367,142.17365,108.87326,-0.0,4.895359,12.299933,-0.05582826,1.1810569,0.7487504,1.1574346,0.0,2,0,0,0
590783668,30.658548460904125,-84.20502473906109,142.1918,108.896774,-0.0,4.8221717,12.132746,-0.0075438153,1.188195,0.74891675,1.1575075,0.0,2,0,0,0
590983674,30.658557210691495,-84.20499953976177,142.19904,108.909164,-0.0,4.7395773,12.015296,0.04534983,1.1921836,0.748907,1.157859,0.0,2,0,0,0
591190892,30.658566198126145,-84.20497350869316,142.19409,108.90905,-0.0,4.7836237,12.041061,0.09042532,1.193356,0.74907964,1.157941,0.0,2,0,0,0
591390868,30.65857492594524,-84.20494822515693,142.18622,108.905426,-0.0,4.815431,12.248654,0.05512795,1.1937394,0.74905574,1.1576827,0.0,2,0,0,0
591590068,30.658583821296574,-84.20492238582958,142.18864,108.91191,-0.0,4.931507,12.604347,0.035540465,1.1902478,0.7490595,1.1580606,0.0,2,0,0,0
591797271,30.658593353862187,-84.20489451988527,142.1772,108.9041,-0.0,5.1322255,13.072258,0.24402809,1.179774,0.74920803,1.1581014,0.0,2,0,0,0
591997292,30.658602876401634,-84.20486655503117,142.12785,108.85837,-0.0,5.335413,13.527347,0.3670984,1.1645646,0.74915403,1.157835,0.0,2,0,0,0
592192468,30.658612498415845,-84.20483831323469,142.07288,108.8069,-0.0,5.5267496,13.947175,0.23076494,1.1516328,0.74892676,1.1579013,0.0,2,0,0,0
592400467,30.658623109335576,-84.20480749572512,142.0455,108.782745,-0.0,5.7194285,14.131132,0.11258674,1.1389185,0.7491337,1.158106,0.0,2,0,0,0
592599668,30.658633573034038,-84.20477769246624,142.05182,108.79253,-0.0,5.863248,14.214087,0.0027815588,1.1369498,0.74911314,1.1578802,0.0,2,0,0,0
592806868,30.658644802543314,-84.20474655970027,142.06163,108.80565,-0.0,6.08262,14.288499,0.0002959147,1.1410801,0.7492806,1.1579274,0.0,2,0,0,0
593006868,30.65865604785126,-84.20471629058801,142.0611,108.80824,-0.0,6.3364663,14.404679,0.057136033,1.1531198,0.7492904,1.1582758,0.0,2,0,0,0
593210068,30.65866784024971,-84.20468530965196,142.05273,108.803085,-0.0,6.512452,14.575482,0.09568636,1.1720368,0.74929065,1.1580408,0.0,2,0,0,0
593410074,30.65867974475715,-84.20465443143719,142.0436,108.79697,-0.0,6.624031,14.786688,0.06351684,1.1818688,0.74940497,1.1585342,0.0,2,0,0,0
593617275,30.65869222775436,-84.20462201091537,142.03232,108.7905,-0.0,6.6840634,14.925029,0.04815468,1.1849023,0.74962497,1.1585929,0.0,2,0,0,0
593817299,30.65870424324133,-84.20459043396615,142.0296,108.79114,-0.0,6.66662,15.094089,0.0015742905,1.187802,0.7496158,1.15831,0.0,2,0,0,0
594016546,30.65871609802584,-84.20455873641565,142.04599,108.81082,-0.0,6.633083,15.2022505,-0.009503156,1.1890035,0.74962497,1.158671,0.0,2,0,0,0
594223677,30.658728284290238,-84.2045254212717,142.06046,108.82858,-0.0,6.5883217,15.450895,0.015151019,1.2060893,0.7498014,1.1586963,0.0,2,0,0,0
594423668,30.65873986540257,-84.20449279656393,142.07089,108.84239,-0.0,6.451481,15.608696,0.036444366,1.2252619,0.74979925,1.1590235,0.0,2,0,0,0
594630871,30.65875156996476,-84.20445872304708,142.09283,108.86763,-0.0,6.2873397,15.713427,-0.050226633,1.2499999,0.749981,1.1590719,0.0,2,0,0,0
594830892,30.658762443380002,-84.20442583992468,142.12589,108.904175,-0.0,6.0047216,15.684184,-0.11434007,1.274035,0.749957,1.1587796,0.0,2,0,0,0
595030068,30.658772673073823,-84.20439333999886,142.16687,108.94893,-0.0,5.679115,15.479507,-0.1805018,1.2983994,0.74992317,1.1590986,0.0,2,0,0,0
595237278,30.65878255953334,-84.20436005362784,142.22415,109.01024,-0.0,5.255039,15.314412,-0.1828877,1.3277743,0.7500739,1.1591411,0.0,2,0,0,0
595437303,30.658791329845215,-84.20432844293818,142.25961,109.049805,-0.0,4.740641,15.134475,-0.08040024,1.346415,0.75003064,1.1588458,0.0,2,0,0,0
595636468,30.65879924264234,-84.20429731404265,142.2799,109.07428,-0.0,4.3180194,14.999507,0.016175408,1.356539,0.7499869,1.1592008,0.0,2,0,0,0
595844502,30.658806646975748,-84.20426509561555,142.28067,109.07936,-0.0,3.8753366,14.918616,0.0724786,1.3629613,0.75011665,1.1592197,0.0,2,0,0,0
596043668,30.65881301543807,-84.20423448650759,142.28711,109.08999,-0.0,3.461512,14.773556,-0.04658994,1.3739382,0.75009066,1.158932,0.0,2,0,0,0
596246868,30.658818792726905,-84.2042039233649,142.34079,109.147766,-0.0,3.0247412,14.249488,-0.3021813,1.3906679,0.7500908,1.1592889,0.0,2,0,0,0
596454874,30.65882391711577,-84.20417415786802,142.43222,109.24364,-0.0,2.5603492,13.380935,-0.37687147,1.4032592,0.75040364,1.15946,0.0,2,0,0,0
596662077,30.658828269542987,-84.20414667008701,142.50488,109.320984,-0.0,2.1710236,12.420447,-0.15872733,1.3996553,0.7506596,1.1595005,0.0,2,0,0,0
596862077,30.658831863344517,-84.20412216288513,142.50531,109.32646,-0.0,1.829327,11.573383,0.10612188,1.3856025,0.75072384,1.1591948,0.0,2,0,0,0
597065321,30.658835060466796,-84.20409897113478,142.45505,109.28166,-0.0,1.5688387,10.87381,0.18475914,1.3749903,0.75082684,1.1595281,0.0,2,0,0,0
597264468,30.65883791279905,-84.20407760148241,142.40225,109.23448,-0.0,1.4108635,10.3153105,0.17942491,1.3798157,0.7510184,1.1593642,0.0,2,0,0,0
597464468,30.658840673352344,-84.20405706518663,142.353,109.19079,-0.0,1.3247393,9.9286995,0.12393144,1.3949773,0.74871635,1.1581748,0.0,2,0,0,0
597671711,30.65884354518276,-84.20403624876029,142.31473,109.15841,-0.0,1.2784961,9.73841,0.13930938,1.4146821,0.749015,1.1581936,0.0,2,0,0,0
597871668,30.65884638410108,-84.2040161680592,142.28882,109.13838,-0.0,1.3172944,9.742525,0.10568563,1.4256475,0.7490756,1.1578877,0.0,2,0,0,0
598078897,30.658849506213055,-84.20399502299911,142.27359,109.12874,-0.0,1.4117179,9.896708,0.13057238,1.4275049,0.74933004,1.1579189,0.0,2,0,0,0
598278068,30.658852650285056,-84.20397408946555,142.26079,109.12132,-0.0,1.4674227,10.140058,0.13043763,1.4259742,0.7493201,1.1576257,0.0,2,0,0,0
598478096,30.65885594541183,-84.20395237616981,142.2404,109.10596,-0.0,1.562678,10.445968,0.20139964,1.4200845,0.74927497,1.157945,0.0,2,0,0,0
598685272,30.658859460450753,-84.20392904496894,142.2208,109.091125,-0.0,1.59034,10.788284,0.1503316,1.4133271,0.7494128,1.157989,0.0,2,0,0,0
598885271,30.65886291606674,-84.2039057112168,142.21474,109.089485,-0.0,1.6748881,11.081729,0.13183013,1.4059443,0.7493111,1.1577073,0.0,2,0,0,0
599088468,30.6588665267062,-84.20388132778707,142.21848,109.097176,-0.0,1.7380126,11.354345,0.07287548,1.4020078,0.74921775,1.1574752,0.0,2,0,0,0
599288468,30.658870166427466,-84.20385679089192,142.22131,109.10361,-0.0,1.7887276,11.612496,0.03437762,1.401187,0.7491859,1.15737,0.0,2,0,0,0
599491674,30.658873912324744,-84.20383136288811,142.22568,109.11141,-0.0,1.8019109,11.792794,0.029917322,1.3993057,0.7491782,1.1572746,0.0,2,0,0,0
599698868,30.658877745594165,-84.20380494838098,142.22687,109.11566,-0.0,1.8325624,11.986594,0.049817972,1.3980746,0.74929214,1.1573584,0.0,2,0,0,0
599898868,30.65888142107159,-84.20377916112832,142.22476,109.11639,-0.0,1.8425517,12.140897,0.038378604,1.3941253,0.7492141,1.1577077,0.0,2,0,0,0
600098068,30.658885069232394,-84.203753274332,142.2344,109.128654,-0.0,1.8723742,12.216517,-0.014614265,1.392129,0.7491691,1.1574798,0.0,2,0,0,0
600298068,30.658888694877753,-84.20372724236788,142.25464,109.151085,-0.0,1.8621572,12.19424,0.021345355,1.3877157,0.7491289,1.157821,0.0,2,0,0,0
600505276,30.658892398838614,-84.20370025867692,142.27449,109.17287,-0.0,1.8642852,12.24518,-0.00982248,1.3896211,0.7492822,1.1578526,0.0,2,0,0,0
600704468,30.658895963960276,-84.20367431732159,142.27322,109.17313,-0.0,1.891118,12.25074,0.04116361,1.3921379,0.7492725,1.1582171,0.0,2,0,0,0
600904468,30.65889957641941,-84.20364837021908,142.26476,109.16603,-0.0,1.912814,12.192574,0.033408422,1.3978446,0.74926656,1.1579412,0.0,2,0,0,0
601107668,30.658903220156876,-84.20362231814616,142.26715,109.16977,-0.0,1.8651342,12.028444,-0.011517742,1.4071798,0.74928486,1.1583037,0.0,2,0,0,0
601315668,30.658906854687395,-84.20359606315701,142.271,109.17508,-0.0,1.8516215,11.875071,0.012171825,1.414052,0.74955416,1.1584857,0.0,2,0,0,0
601514868,30.658910253786832,-84.20357121518107,142.26901,109.17334,-0.0,1.8281962,11.799276,0.05418398,1.4199419,0.7495739,1.1582471,0.0,2,0,0,0
