timestamp,ref_timestamp,ref_lat,ref_lon,x,y,z,delta_xy[0],delta_xy[1],delta_z,vx,vy,vz,z_deriv,delta_vxy[0],delta_vxy[1],delta_vz,ax,ay,az,yaw,ref_alt,dist_bottom,dist_bottom_rate,eph,epv,evh,evv,vxy_max,vz_max,hagl_min,hagl_max,xy_valid,z_valid,v_xy_valid,v_z_valid,xy_reset_counter,z_reset_counter,vxy_reset_counter,vz_reset_counter,xy_global,z_global,dist_bottom_valid
519050071,15800481,30.6571691,-84.20851950000001,0.35555527,0.25863487,-3.4276783,0.0013574644,-0.0026631723,0.0,-0.016273424,0.026891064,0.0017518878,0.007417031,0.01501895,-0.009971928,0.07579388,-0.009476976,0.018232666,0.008957017,0.41541156,64.34459,0.104599,-0.0017518878,0.1970311,0.61437774,0.120326996,0.12998596,inf,inf,inf,inf,1,1,1,1,2,0,2,2,1,1,0
519153267,15800481,30.6571691,-84.20851950000001,0.35621938,0.25884745,-3.4261272,0.0013574644,-0.0026631723,0.0,-0.015747659,0.026965775,0.0021238108,0.00858418,0.01501895,-0.009971928,0.07579388,-0.010289339,0.006737656,-0.014394862,0.41534114,64.34459,0.103340864,-0.0021238108,0.19741304,0.6144748,0.12051743,0.13005933,inf,inf,inf,inf,1,1,1,1,2,0,2,2,1,1,0
519257274,15800481,30.6571691,-84.20851950000001,0.3567598,0.25892788,-3.4254045,0.0013574644,-0.0026631723,0.0,-0.016567187,0.0266606,0.0017687362,0.008112679,0.01501895,-0.009971928,0.07579388,-0.006543332,0.010507231,-0.0054235253,0.41534093,64.34459,0.101195574,-0.0017687362,0.19776657,0.6145688,0.12068677,0.13012949,inf,inf,inf,inf,1,1,1,1,2,0,2,2,1,1,0
519361271,15800481,30.6571691,-84.20851950000001,0.35722703,0.25869918,-3.424673,0.0013574644,-0.0026631723,0.0,-0.016328225,0.025771031,0.00081270223,0.007134255,0.01501895,-0.009971928,0.07579388,0.0003338692,0.0136927385,0.017146066,0.41549215,64.34459,0.10205603,-0.00081270223,0.19807807,0.614608,0.12083584,0.1301979,inf,inf,inf,inf,1,1,1,1,2,0,2,2,1,1,0
519457271,15800481,30.6571691,-84.20851950000001,0.3578836,0.25802815,-3.423853,0.0013574644,-0.0026631723,0.0,-0.016454274,0.024918761,0.0002086547,0.006727329,0.01501895,-0.009971928,0.07579388,-0.008461155,0.021775382,0.011251184,0.4154737,64.34459,0.10288167,-0.0002086547,0.19771384,0.614114,0.12067257,0.13009202,inf,inf,inf,inf,1,1,1,1,2,0,2,2,1,1,0
519560468,15800481,30.6571691,-84.20851950000001,0.3588419,0.25726667,-3.4230437,0.0013574644,-0.0026631723,0.0,-0.015884044,0.024227317,-0.00032594055,0.0063210665,0.01501895,-0.009971928,0.07579388,-0.025028624,-0.02186658,-0.0046849707,0.4150436,64.34459,0.10344982,0.00032594055,0.18934523,0.6101276,0.11674196,0.12817566,inf,inf,inf,inf,1,1,1,1,2,0,2,2,1,1,0
519664468,15800481,30.6571691,-84.20851950000001,0.3595922,0.25680375,-3.4221668,0.0013574644,-0.0026631723,0.0,-0.015922751,0.023770763,-3.1159376e-05,0.006847323,0.01501895,-0.009971928,0.07579388,-0.0022969593,0.041990988,-0.0075232866,0.41565216,64.34459,0.10268521,3.1159376e-05,0.19844908,0.61313844,0.12104029,0.13016711,inf,inf,inf,inf,1,1,1,1,2,0,2,2,1,1,0
519760478,15800481,30.6571691,-84.20851950000001,0.3607838,0.2559082,-3.4217906,0.0013574644,-0.0026631723,0.0,-0.016228057,0.023273796,0.00039980357,0.006981894,0.01501895,-0.009971928,0.07579388,-0.025378877,-0.00017157913,-0.021281132,0.41530952,64.34459,0.10100794,-0.00039980357,0.19805622,0.6126733,0.12085674,0.13006462,inf,inf,inf,inf,1,1,1,1,2,0,2,2,1,1,0
519863668,15800481,30.6571691,-84.20851950000001,0.36241004,0.25490522,-3.4194078,0.0013574644,-0.0026631723,0.0,-0.014056869,0.022404255,0.0011837787,0.009351052,0.01501895,-0.009971928,0.07579388,-0.0027952944,-0.0026013823,-0.009204363,0.4154214,64.34459,0.10395527,-0.0011837787,0.18962117,0.60986924,0.11687823,0.12822956,inf,inf,inf,inf,1,1,1,1,2,0,2,2,1,1,0
519967670,15800481,30.6571691,-84.20851950000001,0.3640345,0.25433654,-3.4174016,0.0013574644,-0.0026631723,0.0,-0.013710949,0.023028558,0.0028090854,0.011888749,0.01501895,-0.009971928,0.07579388,0.030602895,0.08719167,0.031119637,0.41562337,64.34459,0.10457277,-0.0028090854,0.18996644,0.60888356,0.11704437,0.12823533,inf,inf,inf,inf,1,1,1,1,2,0,2,2,1,1,0
520071668,15800481,30.6571691,-84.20851950000001,0.3656652,0.25411445,-3.4152267,0.0013574644,-0.0026631723,0.0,-0.013476519,0.02274311,0.0028449567,0.012796159,0.01501895,-0.009971928,0.07579388,-0.100359194,0.0010731954,-0.0007765468,0.41518328,64.34459,0.10446215,-0.0028449567,0.19027123,0.6089789,0.117194325,0.1283172,inf,inf,inf,inf,1,1,1,1,2,0,2,2,1,1,0
520167668,15800481,30.6571691,-84.20851950000001,0.3661284,0.25418103,-3.4127343,0.0013574644,-0.0026631723,0.0,-0.013568474,0.023161111,0.0032190764,0.014383877,0.01501895,-0.009971928,0.07579388,0.02716464,-0.025621051,-0.02988338,0.41525567,64.34459,0.11147857,-0.0032190764,0.18993314,0.6085542,0.11702946,0.12822416,inf,inf,inf,inf,1,1,1,1,2,0,2,2,1,1,0
520270878,15800481,30.6571691,-84.20851950000001,0.36738122,0.25417227,-3.4076,0.0013574644,-0.0026631723,0.0,-0.0141304545,0.02284032,0.005651707,0.02021563,0.01501895,-0.009971928,0.07579388,-0.013029825,-0.016565666,0.07882731,0.4154196,64.34459,0.10448623,-0.005651707,0.19025029,0.6098344,0.11717572,0.12838112,inf,inf,inf,inf,1,1,1,1,2,0,2,2,1,1,0
520374886,15800481,30.6571691,-84.20851950000001,0.3682382,0.25408748,-3.405387,0.0013574644,-0.0026631723,0.0,-0.013197666,0.021738216,0.0063496763,0.020901367,0.01501895,-0.009971928,0.07579388,0.024330925,0.036652043,-0.06252312,0.41600138,64.34459,0.10216546,-0.0063496763,0.19065417,0.609987,0.11738654,0.12846965,inf,inf,inf,inf,1,1,1,1,2,0,2,2,1,1,0
520470877,15800481,30.6571691,-84.20851950000001,0.36912978,0.25428978,-3.4034739,0.0013574644,-0.0026631723,0.0,-0.01315928,0.024173936,0.0074180937,0.02179664,0.01501895,-0.009971928,0.07579388,0.042668354,0.029530657,0.100996874,0.41485015,64.34459,0.10256481,-0.0074180937,0.19022186,0.6094917,0.117159985,0.12836519,inf,inf,inf,inf,1,1,1,1,2,0,2,2,1,1,0
520574878,15800481,30.6571691,-84.20851950000001,0.36967877,0.25405598,-3.401474,0.0013574644,-0.0026631723,0.0,-0.013030411,0.02184504,0.005318508,0.019509628,0.01501895,-0.009971928,0.07579388,0.022369778,0.052798346,-0.012430549,0.41539815,64.34459,0.10009003,-0.005318508,0.19057155,0.6096366,0.117329806,0.12844665,inf,inf,inf,inf,1,1,1,1,2,0,2,2,1,1,0
520678068,15800481,30.6571691,-84.20851950000001,0.3708008,0.25397044,-3.400203,0.0013574644,-0.0026631723,0.0,-0.013571765,0.023375535,0.007422135,0.020792035,0.01501895,-0.009971928,0.07579388,-0.09742979,0.02917087,0.084675565,0.41686398,64.34459,0.1,-0.007422135,0.19095223,0.6097812,0.11752273,0.12853034,inf,inf,inf,inf,1,1,1,1,2,0,2,2,1,1,0
520782071,15800481,30.6571691,-84.20851950000001,0.37204802,0.25412482,-3.3992968,0.0013574644,-0.0026631723,0.0,-0.01276711,0.021401431,0.006938965,0.019000845,0.01501895,-0.009971928,0.07579388,-0.11334678,-0.049042873,0.06832342,0.41340786,64.34459,0.1,-0.006938965,0.19130309,0.60992056,0.11769548,0.12861027,inf,inf,inf,inf,1,1,1,1,2,0,2,2,1,1,0
520878068,15800481,30.6571691,-84.20851950000001,0.37307054,0.25413454,-3.3983786,0.0013574644,-0.0026631723,0.0,-0.010442557,0.021190397,0.0042843856,0.015658885,0.01501895,-0.009971928,0.07579388,0.1677004,0.039790142,-0.035795443,0.41763508,64.34459,0.10202193,-0.0042843856,0.1909247,0.6105532,0.11750999,0.12858665,inf,inf,inf,inf,1,1,1,1,2,0,2,2,1,1,0
520981271,15800481,30.6571691,-84.20851950000001,0.37352502,0.25443992,-3.3965838,0.0013574644,-0.0026631723,0.0,-0.01306321,0.024975229,0.010009311,0.021109372,0.01501895,-0.009971928,0.07579388,-0.04178594,-0.11369212,0.05079767,0.41473877,64.34459,0.1,-0.010009311,0.19128004,0.6106886,0.11768897,0.12866566,inf,inf,inf,inf,1,1,1,1,2,0,2,2,1,1,0
521085272,15800481,30.6571691,-84.20851950000001,0.37399992,0.25448054,-3.395586,0.0013574644,-0.0026631723,0.0,-0.008625373,0.018964503,0.0053776195,0.01550091,0.01501895,-0.009971928,0.07579388,-0.04303691,0.0671559,-0.035155624,0.4152484,64.34459,0.1,-0.0053776195,0.19166127,0.61082345,0.11787262,0.12874688,inf,inf,inf,inf,1,1,1,1,2,0,2,2,1,1,0
521181296,15800481,30.6571691,-84.20851950000001,0.37382922,0.2549976,-3.3946233,0.0013574644,-0.0026631723,0.0,-0.014338768,0.028728668,0.008525647,0.017956767,0.01501895,-0.009971928,0.07579388,0.06604972,0.0099934535,0.10914717,0.41762507,64.34459,0.1,-0.008525647,0.19120035,0.6103115,0.11762826,0.12863617,inf,inf,inf,inf,1,1,1,1,2,0,2,2,1,1,0
521285267,15800481,30.6571691,-84.20851950000001,0.3734867,0.25494933,-3.3940296,0.0013574644,-0.0026631723,0.0,-0.015470415,0.019678785,0.0078332,0.016002174,0.01501895,-0.009971928,0.07579388,-0.038041867,0.20588396,0.07393228,0.4134727,64.34459,0.1,-0.0078332,0.1915895,0.6104555,0.11783153,0.12871966,inf,inf,inf,inf,1,1,1,1,2,0,2,2,1,1,0
521384474,15800481,30.6571691,-84.20851950000001,0.37307626,0.25539052,-3.393176,0.0013574644,-0.0026631723,0.0,-0.014448751,0.023427136,0.0054599005,0.013125471,0.01501895,-0.009971928,0.07579388,0.41450155,-0.26996684,-0.14146838,0.41723272,64.34459,0.1,-0.0054599005,0.19125038,0.6100092,0.11766178,0.1286212,inf,inf,inf,inf,1,1,1,1,2,0,2,2,1,1,0
521488468,15800481,30.6571691,-84.20851950000001,0.37279403,0.25532869,-3.3924527,0.0013574644,-0.0026631723,0.0,-0.00852824,0.023375157,0.010641494,0.017526194,0.01501895,-0.009971928,0.07579388,0.24045248,-0.08744446,0.3484906,0.41695398,64.34459,0.1,-0.010641494,0.19185741,0.6103899,0.11799024,0.12872913,inf,inf,inf,inf,1,1,1,1,2,0,2,2,1,1,0
521592468,15800481,30.6571691,-84.20851950000001,0.37306687,0.2551986,-3.390911,0.0013574644,-0.0026631723,0.0,-0.01848296,0.02234636,0.0071853544,0.0140950205,0.01501895,-0.009971928,0.07579388,1.4177475,-0.8224445,-0.5647382,0.41632748,64.34459,0.101125,-0.0071853544,0.19225065,0.61054325,0.11817285,0.12881573,inf,inf,inf,inf,1,1,1,1,2,0,2,2,1,1,0
521695717,15800481,30.6571691,-84.20851950000001,0.37419206,0.25454256,-3.3899927,0.0013574644,-0.0026631723,0.0,-0.013173232,0.020918248,0.005115873,0.011628121,0.01501895,-0.009971928,0.07579388,-0.7087072,0.4839094,0.079267256,0.41762602,64.34459,0.1,-0.005115873,0.19261336,0.60956025,0.11834848,0.12882142,inf,inf,inf,inf,1,1,1,1,2,0,2,2,1,1,0
521795668,15800481,30.6571691,-84.20851950000001,0.37474334,0.254353,-3.3907824,0.0013574644,-0.0026631723,0.0,-0.015743691,0.023264809,0.0037101635,0.0082903495,0.01501895,-0.009971928,0.07579388,0.29064628,-0.25509134,-1.2154058,0.41616812,64.34459,0.1,-0.0037101635,0.19224808,0.6091354,0.11816826,0.12872472,inf,inf,inf,inf,1,1,1,1,2,0,2,2,1,1,0
521891675,15800481,30.6571691,-84.20851950000001,0.37560093,0.25322986,-3.3939118,0.0013574644,-0.0026631723,0.0,-0.008549057,0.013843011,0.009393526,0.010164514,0.01501895,-0.009971928,0.07579388,0.06921971,-0.18585955,-0.2736144,0.41692173,64.34459,0.1,-0.009393526,0.19219619,0.60894966,0.118197545,0.12866564,inf,inf,inf,inf,1,1,1,1,2,0,2,2,1,1,0
521995668,15800481,30.6571691,-84.20851950000001,0.3764458,0.25240144,-3.397325,0.0013574644,-0.0026631723,0.0,-0.018391626,0.02171711,0.006703179,0.0037678606,0.01501895,-0.009971928,0.07579388,-0.4482542,0.6902818,0.3501618,0.41693506,64.34459,0.1,-0.006703179,0.19256395,0.6091148,0.11837464,0.1287513,inf,inf,inf,inf,1,1,1,1,2,0,2,2,1,1,0
522098880,15800481,30.6571691,-84.20851950000001,0.37708804,0.25111583,-3.3988554,0.0013574644,-0.0026631723,0.0,-0.014577908,0.019036012,0.005018851,0.00077556574,0.01501895,-0.009971928,0.07579388,0.7087261,-0.23353143,0.21898818,0.41616887,64.34459,0.1,-0.005018851,0.19290495,0.6092791,0.11850218,0.1288359,inf,inf,inf,inf,1,1,1,1,2,0,2,2,1,1,0
522202877,15800481,30.6571691,-84.20851950000001,0.37833917,0.2499944,-3.3994098,0.0013574644,-0.0026631723,0.0,-0.0009990796,0.011852084,0.006617923,0.0020810128,0.01501895,-0.009971928,0.07579388,-0.084790885,0.40455455,1.1696161,0.41719502,64.34459,0.1,-0.006617923,0.1932723,0.60944575,0.11868184,0.12892051,inf,inf,inf,inf,1,1,1,1,2,0,2,2,1,1,0
522298868,15800481,30.6571691,-84.20851950000001,0.37984246,0.24890864,-3.3995402,0.0013574644,-0.0026631723,0.0,-0.010546634,0.023488924,0.0053773522,0.0008220121,0.01501895,-0.009971928,0.07579388,-0.7308156,0.11342807,-0.51874757,0.4163558,64.34459,0.10046339,-0.0053773522,0.19284502,0.61010396,0.11847416,0.12889944,inf,inf,inf,inf,1,1,1,1,2,0,2,2,1,1,0
522402868,15800481,30.6571691,-84.20851950000001,0.3813537,0.24830681,-3.3989289,0.0013574644,-0.0026631723,0.0,-0.003175761,0.012902547,0.008168801,0.0043808213,0.01501895,-0.009971928,0.07579388,0.8391554,-0.6725922,-0.673007,0.41662362,64.34459,0.10075283,-0.008168801,0.19316234,0.6091381,0.11859757,0.12890264,inf,inf,inf,inf,1,1,1,1,2,0,2,2,1,1,0
522506068,15800481,30.6571691,-84.20851950000001,0.3827865,0.24717562,-3.397412,0.0013574644,-0.0026631723,0.0,-0.010721036,0.01593143,0.0090626385,0.006861682,0.01501895,-0.009971928,0.07579388,-0.43734106,0.73751134,0.838693,0.4167108,64.34459,0.10695648,-0.0090626385,0.1935102,0.6093113,0.118774585,0.128986,inf,inf,inf,inf,1,1,1,1,2,0,2,2,1,1,0
522602074,15800481,30.6571691,-84.20851950000001,0.38358527,0.24669741,-3.395229,0.0013574644,-0.0026631723,0.0,-0.019239413,0.020067254,-0.002311634,-0.002551666,0.01501895,-0.009971928,0.07579388,-0.368954,-0.0971129,-0.43710554,0.4162675,64.34459,0.10394764,0.002311634,0.19318303,0.61002797,0.118582055,0.12897316,inf,inf,inf,inf,1,1,1,1,2,0,2,2,1,1,0
522706068,15800481,30.6571691,-84.20851950000001,0.384812,0.24616188,-3.3933876,0.0013574644,-0.0026631723,0.0,-9.881426e-05,0.010985159,0.0077556754,0.008903762,0.01501895,-0.009971928,0.07579388,0.35370025,-0.5069721,-0.98030835,0.41657835,64.34459,0.10342193,-0.0077556754,0.1934634,0.61013496,0.11871641,0.12905125,inf,inf,inf,inf,1,1,1,1,2,0,2,2,1,1,0
522809270,15800481,30.6571691,-84.20851950000001,0.38694683,0.2458035,-3.3911822,0.0013574644,-0.0026631723,0.0,-0.0022317527,0.0159255,0.01109174,0.013830383,0.01501895,-0.009971928,0.07579388,-0.12971851,0.77503705,0.7690424,0.41636723,64.34459,0.104907036,-0.01109174,0.19378746,0.6102947,0.118892446,0.12912808,inf,inf,inf,inf,1,1,1,1,2,0,2,2,1,1,0
522913272,15800481,30.6571691,-84.20851950000001,0.38929883,0.24543667,-3.3897328,0.0013574644,-0.0026631723,0.0,-0.0044574556,0.02042611,0.0072314944,0.010729878,0.01501895,-0.009971928,0.07579388,0.873445,-0.6737389,0.63769364,0.41639128,64.34459,0.10307622,-0.0072314944,0.19414225,0.61045545,0.119021766,0.1292104,inf,inf,inf,inf,1,1,1,1,2,0,2,2,1,1,0
523009321,15800481,30.6571691,-84.20851950000001,0.39114162,0.24509667,-3.3889024,0.0013574644,-0.0026631723,0.0,0.0027379445,0.00410588,-0.00069830986,0.0027876666,0.01501895,-0.009971928,0.07579388,0.21491764,-0.72764117,-1.4696928,0.41642022,64.34459,0.10144687,0.00069830986,0.19369765,0.6099632,0.118790604,0.12910315,inf,inf,inf,inf,1,1,1,1,2,0,2,2,1,1,0
523113276,15800481,30.6571691,-84.20851950000001,0.3924991,0.2441526,-3.386749,0.0013574644,-0.0026631723,0.0,-0.015639957,0.018869074,0.009363599,0.014134267,0.01501895,-0.009971928,0.07579388,-0.5674915,0.28718945,-0.50609887,0.41634285,64.34459,0.10577273,-0.009363599,0.19411515,0.61013067,0.11904003,0.12919118,inf,inf,inf,inf,1,1,1,1,2,0,2,2,1,1,0
523216482,15800481,30.6571691,-84.20851950000001,0.393141,0.24360855,-3.3842795,0.0013574644,-0.0026631723,0.0,-0.0062621264,0.012705664,0.0093570845,0.015585694,0.01501895,-0.009971928,0.07579388,0.9769457,-0.63692236,0.08636064,0.41649863,64.34459,0.10394335,-0.0093570845,0.19444498,0.6103018,0.11917343,0.12927361,inf,inf,inf,inf,1,1,1,1,2,0,2,2,1,1,0
523312474,15800481,30.6571691,-84.20851950000001,0.39425808,0.2427882,-3.3830874,0.0013574644,-0.0026631723,0.0,0.006746775,0.003972477,0.0021631345,0.008397802,0.01501895,-0.009971928,0.07579388,0.15800808,0.036417305,-0.47778648,0.41629592,64.34459,0.10139108,-0.0021631345,0.19402474,0.6098241,0.118944526,0.12917203,inf,inf,inf,inf,1,1,1,1,2,0,2,2,1,1,0
523416468,15800481,30.6571691,-84.20851950000001,0.39585578,0.24225819,-3.3814106,0.0013574644,-0.0026631723,0.0,-0.006821816,0.018943429,0.0009643696,0.0077201054,0.01501895,-0.009971928,0.07579388,-0.6186429,0.3101744,-0.737003,0.41645604,64.34459,0.104180574,-0.0009643696,0.19436032,0.6100019,0.11911442,0.1292534,inf,inf,inf,inf,1,1,1,1,2,0,2,2,1,1,0
523519693,15800481,30.6571691,-84.20851950000001,0.39728025,0.24167603,-3.3788304,0.0013574644,-0.0026631723,0.0,0.0013976984,0.011666775,0.012073946,0.02017026,0.01501895,-0.009971928,0.07579388,0.39428282,-0.8760898,-0.055028163,0.41622204,64.34459,0.10574627,-0.012073946,0.19472656,0.6101851,0.119300626,0.12933965,inf,inf,inf,inf,1,1,1,1,2,0,2,2,1,1,0
523623680,15800481,30.6571691,-84.20851950000001,0.398356,0.2407663,-3.3761985,0.0013574644,-0.0026631723,0.0,-0.0060165366,0.005198724,0.010872769,0.020021668,0.01501895,-0.009971928,0.07579388,-0.622677,0.8146508,1.24524,0.41633618,64.34459,0.10389757,-0.010872769,0.19506434,0.60923606,0.11947206,0.12934214,inf,inf,inf,inf,1,1,1,1,2,0,2,2,1,1,0
523719674,15800481,30.6571691,-84.20851950000001,0.39903682,0.24009855,-3.3746464,0.0013574644,-0.0026631723,0.0,-0.019154925,0.01663541,-0.00060775364,0.008445542,0.01501895,-0.009971928,0.07579388,-0.35057497,-0.04776813,-0.568906,0.41626933,64.34459,0.100477934,0.00060775364,0.19464982,0.6099101,0.119234994,0.12932499,inf,inf,inf,inf,1,1,1,1,2,0,2,2,1,1,0
523823668,15800481,30.6571691,-84.20851950000001,0.40011287,0.23936787,-3.373277,0.0013574644,-0.0026631723,0.0,0.0044902614,0.0017892569,0.007987624,0.01668986,0.01501895,-0.009971928,0.07579388,0.7804183,-0.9366688,-1.9226279,0.4161169,64.34459,0.101314306,-0.007987624,0.19499284,0.61009526,0.11941042,0.12940922,inf,inf,inf,inf,1,1,1,1,2,0,2,2,1,1,0
523926868,15800481,30.6571691,-84.20851950000001,0.40169826,0.2385383,-3.372505,0.0013574644,-0.0026631723,0.0,-0.0005026092,0.011256061,0.010933879,0.018784678,0.01501895,-0.009971928,0.07579388,-0.92411023,0.69776076,0.24299474,0.41626358,64.34459,0.1,-0.010933879,0.19536671,0.6102791,0.119626276,0.12949218,inf,inf,inf,inf,1,1,1,1,2,0,2,2,1,1,0
524022868,15800481,30.6571691,-84.20851950000001,0.40333423,0.23823762,-3.3727155,0.0013574644,-0.0026631723,0.0,-0.007870336,0.013493467,0.0001482158,0.0064593838,0.01501895,-0.009971928,0.07579388,0.35309055,-0.19021937,0.086629696,0.4163166,64.34459,0.1,-0.0001482158,0.19505702,0.6098684,0.1194378,0.12940119,inf,inf,inf,inf,1,1,1,1,2,0,2,2,1,1,0
524126868,15800481,30.6571691,-84.20851950000001,0.4049747,0.2380597,-3.3728862,0.0013574644,-0.0026631723,0.0,0.0034674506,0.00078222144,0.0046326257,0.009299284,0.01501895,-0.009971928,0.07579388,0.2118839,-0.8261564,-0.66207165,0.41617444,64.34459,0.1,-0.0046326257,0.1953012,0.60997933,0.119539075,0.12947103,inf,inf,inf,inf,1,1,1,1,2,0,2,2,1,1,0
524230068,15800481,30.6571691,-84.20851950000001,0.4062776,0.23761013,-3.3741262,0.0013574644,-0.0026631723,0.0,-0.010186874,0.008118838,0.008291563,0.010526819,0.01501895,-0.009971928,0.07579388,-0.35496983,0.35744068,-0.7203833,0.41628197,64.34459,0.1,-0.008291563,0.19565126,0.6112886,0.11972721,0.12962836,inf,inf,inf,inf,1,1,1,1,2,0,2,2,1,1,0
524334085,15800481,30.6571691,-84.20851950000001,0.40728074,0.23733597,-3.375855,0.0013574644,-0.0026631723,0.0,-0.004614212,0.01226216,0.008041256,0.007785936,0.01501895,-0.009971928,0.07579388,0.7387978,-0.40128258,-0.20312396,0.41629463,64.34459,0.1,-0.008041256,0.19603042,0.61145854,0.119897716,0.12971249,inf,inf,inf,inf,1,1,1,1,2,0,2,2,1,1,0
524430074,15800481,30.6571691,-84.20851950000001,0.40856287,0.23691157,-3.3771164,0.0013574644,-0.0026631723,0.0,0.005449362,-0.0021849936,0.004530471,0.0025856053,0.01501895,-0.009971928,0.07579388,-0.15706322,-0.27106273,0.29651788,0.4160415,64.34459,0.1,-0.004530471,0.19559246,0.6109711,0.11967268,0.12960476,inf,inf,inf,inf,1,1,1,1,2,0,2,2,1,1,0
524534068,15800481,30.6571691,-84.20851950000001,0.41030258,0.236952,-3.3777888,0.0013574644,-0.0026631723,0.0,-0.005116094,0.012471035,0.0012175422,-0.0015550421,0.01501895,-0.009971928,0.07579388,-0.55729264,0.6497316,-0.008482548,0.41644242,64.34459,0.1,-0.0012175422,0.19591928,0.61112976,0.11983588,0.12967749,inf,inf,inf,inf,1,1,1,1,2,0,2,2,1,1,0
524637276,15800481,30.6571691,-84.20851950000001,0.41187263,0.23706469,-3.376329,0.0013574644,-0.0026631723,0.0,0.0040306407,0.008740035,0.006292015,0.004906392,0.01501895,-0.009971928,0.07579388,0.5876654,-0.8742332,-0.76982087,0.4163215,64.34459,0.104783535,-0.006292015,0.1962779,0.611292,0.120001666,0.12975632,inf,inf,inf,inf,1,1,1,1,2,0,2,2,1,1,0
524741271,15800481,30.6571691,-84.20851950000001,0.4130224,0.2368247,-3.3752446,0.0013574644,-0.0026631723,0.0,0.0005870315,-0.00070356805,0.012715962,0.012046866,0.01501895,-0.009971928,0.07579388,-0.46943414,0.13638268,0.30938557,0.4160995,64.34459,0.10222125,-0.012715962,0.1966649,0.6114544,0.120214194,0.1298342,inf,inf,inf,inf,1,1,1,1,2,0,2,2,1,1,0
524837276,15800481,30.6571691,-84.20851950000001,0.41385037,0.23674144,-3.3744884,0.0013574644,-0.0026631723,0.0,-0.015511558,0.013331216,-0.0012371796,-0.001524284,0.01501895,-0.009971928,0.07579388,-0.33367532,0.6851525,0.25316864,0.41647357,64.34459,0.101376295,0.0012371796,0.19623327,0.6109601,0.11998347,0.1297279,inf,inf,inf,inf,1,1,1,1,2,0,2,2,1,1,0
524941300,15800481,30.6571691,-84.20851950000001,0.41469118,0.23681593,-3.3732533,0.0013574644,-0.0026631723,0.0,0.00338167,0.0047154473,0.004580379,0.004991129,0.01501895,-0.009971928,0.07579388,0.4377966,-0.86861455,-0.8337111,0.41606286,64.34459,0.10352659,-0.004580379,0.19656837,0.61112154,0.12012428,0.12980402,inf,inf,inf,inf,1,1,1,1,2,0,2,2,1,1,0
525040498,15800481,30.6571691,-84.20851950000001,0.41580492,0.236639,-3.3713138,0.0013574644,-0.0026631723,0.0,0.0033417866,0.00011858449,0.014606196,0.016382944,0.01501895,-0.009971928,0.07579388,-0.6896005,0.49859706,0.71158487,0.4159928,64.34459,0.10385895,-0.014606196,0.19621295,0.6118321,0.11999984,0.12978102,inf,inf,inf,inf,1,1,1,1,2,0,2,2,1,1,0
525144467,15800481,30.6571691,-84.20851950000001,0.41705507,0.23699205,-3.3687305,0.0013574644,-0.0026631723,0.0,-0.007733535,0.016397413,0.009944239,0.013555046,0.01501895,-0.009971928,0.07579388,0.39270315,0.43750778,1.2933255,0.4162322,64.34459,0.10574937,-0.009944239,0.19683486,0.6122259,0.12030609,0.12988274,inf,inf,inf,inf,1,1,1,1,2,0,2,2,1,1,0
525248475,15800481,30.6571691,-84.20851950000001,0.41870394,0.23741543,-3.3667898,0.0013574644,-0.0026631723,0.0,0.008061585,0.00055800047,0.005528133,0.009960817,0.01501895,-0.009971928,0.07579388,0.40495077,-0.5606657,0.63742965,0.41575372,64.34459,0.1022284,-0.005528133,0.19718048,0.6112371,0.120436154,0.12987746,inf,inf,inf,inf,1,1,1,1,2,0,2,2,1,1,0
525352468,15800481,30.6571691,-84.20851950000001,0.41989914,0.23765498,-3.3652554,0.0013574644,-0.0026631723,0.0,-0.010298054,0.005767102,-0.002868582,0.0018658158,0.01501895,-0.009971928,0.07579388,-1.3684405,0.2955647,-0.6235703,0.41636485,64.34459,0.101034164,0.002868582,0.19755374,0.6114025,0.12061573,0.12995657,inf,inf,inf,inf,1,1,1,1,2,0,2,2,1,1,0
525447668,15800481,30.6571691,-84.20851950000001,0.4206177,0.23811355,-3.36403,0.0013574644,-0.0026631723,0.0,-0.009011439,0.015249022,0.011960884,0.016812049,0.01501895,-0.009971928,0.07579388,0.5062491,-0.076641746,-0.22583881,0.41599363,64.34459,0.1033473,-0.011960884,0.19723517,0.61097634,0.120508395,0.12986384,inf,inf,inf,inf,1,1,1,1,2,0,2,2,1,1,0
525551672,15800481,30.6571691,-84.20851950000001,0.4214369,0.23871511,-3.362254,0.0013574644,-0.0026631723,0.0,0.0056747003,-0.0007222157,0.013933115,0.019226784,0.01501895,-0.009971928,0.07579388,-0.23627822,-0.20336564,1.2227614,0.4157092,64.34459,0.10408783,-0.013933115,0.19753876,0.61109054,0.12063909,0.12993875,inf,inf,inf,inf,1,1,1,1,2,0,2,2,1,1,0
525655668,15800481,30.6571691,-84.20851950000001,0.42244235,0.2390175,-3.3599868,0.0013574644,-0.0026631723,0.0,-0.009965079,0.010679851,0.004558808,0.010673793,0.01501895,-0.009971928,0.07579388,-0.58366543,0.95109034,0.732528,0.41609797,64.34459,0.10291314,-0.004558808,0.1978841,0.61125934,0.120773315,0.13001688,inf,inf,inf,inf,1,1,1,1,2,0,2,2,1,1,0
525758868,15800481,30.6571691,-84.20851950000001,0.4231457,0.23968327,-3.3580737,0.0013574644,-0.0026631723,0.0,0.0008656568,0.01053447,-0.00055538665,0.005974418,0.01501895,-0.009971928,0.07579388,0.38846812,-0.8922059,-1.3450059,0.41563234,64.34459,0.101685524,0.00055538665,0.19826338,0.6114316,0.12092742,0.13009968,inf,inf,inf,inf,1,1,1,1,2,0,2,2,1,1,0
525854902,15800481,30.6571691,-84.20851950000001,0.4242369,0.23980439,-3.3566508,0.0013574644,-0.0026631723,0.0,-0.0027920322,0.0028783004,0.017873138,0.024561426,0.01501895,-0.009971928,0.07579388,-0.4304941,0.18469445,0.15277754,0.41598988,64.34459,0.10229802,-0.017873138,0.19788718,0.6110088,0.120809026,0.12999828,inf,inf,inf,inf,1,1,1,1,2,0,2,2,1,1,0
525958868,15800481,30.6571691,-84.20851950000001,0.4253874,0.24023587,-3.3559422,0.0013574644,-0.0026631723,0.0,0.02146997,0.0022053951,0.0067459745,0.0129316915,0.01501895,-0.009971928,0.07579388,0.56856924,-1.3702912,-0.27654696,0.41791603,64.34459,0.10012245,-0.0067459745,0.19819447,0.61112237,0.12093431,0.13007434,inf,inf,inf,inf,1,1,1,1,2,0,2,2,1,1,0
526057311,15800481,30.6571691,-84.20851950000001,0.4265686,0.24070308,-3.3553233,0.0013574644,-0.0026631723,0.0,0.02582311,-0.006665348,0.009448191,0.015196958,0.01501895,-0.009971928,0.07579388,0.5717387,-2.2512424,0.45454583,0.41757149,64.34459,0.101284504,-0.009448191,0.1978234,0.6107025,0.120734505,0.12997559,inf,inf,inf,inf,1,1,1,1,2,0,2,2,1,1,0
526162068,15800481,30.6571691,-84.20851950000001,0.42845058,0.24104911,-3.3553846,0.0013574644,-0.0026631723,0.0,0.016039088,-0.008434067,-0.011797024,-0.006939802,0.01501895,-0.009971928,0.07579388,-3.1614718,1.3411647,-1.4383488,0.4188669,64.34459,0.100321054,0.011797024,0.1981509,0.6120182,0.12087232,0.13013351,inf,inf,inf,inf,1,1,1,1,2,0,2,2,1,1,0
526266068,15800481,30.6571691,-84.20851950000001,0.4298081,0.24195907,-3.3580053,0.0013574644,-0.0026631723,0.0,-0.032061532,0.02847775,0.012452978,0.014383395,0.01501895,-0.009971928,0.07579388,-1.564086,0.62834233,2.1036437,0.42003447,64.34459,0.10294175,-0.012452978,0.18994848,0.6094583,0.11705694,0.12831543,inf,inf,inf,inf,1,1,1,1,2,0,2,2,1,1,0
526370068,15800481,30.6571691,-84.20851950000001,0.43187782,0.24313998,-3.3621314,0.0013574644,-0.0026631723,0.0,0.022636013,0.020703444,-0.017112272,-0.018791167,0.01501895,-0.009971928,0.07579388,2.6257741,1.1314034,-1.6399521,0.42141846,64.34459,0.10706782,0.017112272,0.19026662,0.6096178,0.117238514,0.12838951,inf,inf,inf,inf,1,1,1,1,2,0,2,2,1,1,0
526473282,15800481,30.6571691,-84.20851950000001,0.43430224,0.24598321,-3.3722458,0.0013574644,-0.0026631723,0.0,0.020248901,0.044721533,-0.059443034,-0.06685388,0.01501895,-0.009971928,0.07579388,-0.55917484,1.6508093,0.6473776,0.42496616,64.34459,0.117182255,0.059443034,0.19061506,0.60977805,0.117385425,0.12847494,inf,inf,inf,inf,1,1,1,1,2,0,2,2,1,1,0
526577271,15800481,30.6571691,-84.20851950000001,0.43758836,0.25146672,-3.395106,0.0013574644,-0.0026631723,0.0,0.018935004,0.07172752,-0.20741959,-0.22319111,0.01501895,-0.009971928,0.07579388,0.3416022,-1.3845276,-2.2542987,0.42654195,64.34459,0.14004254,0.20741959,0.19093733,0.6099336,0.11759805,0.12854673,inf,inf,inf,inf,1,1,1,1,2,0,2,2,1,1,0
526673275,15800481,30.6571691,-84.20851950000001,0.44175804,0.25943232,-3.4362848,0.0013574644,-0.0026631723,0.0,0.04486594,0.091541916,-0.40735897,-0.43275097,0.01501895,-0.009971928,0.07579388,0.05878498,-1.4710233,-3.9563396,0.4262739,64.34459,0.18122125,0.40735897,0.19053619,0.6094475,0.117663175,0.12844285,inf,inf,inf,inf,1,1,1,1,2,0,2,2,1,1,0
526777276,15800481,30.6571691,-84.20851950000001,0.44880375,0.27020544,-3.5085514,0.0013574644,-0.0026631723,0.0,0.059207242,0.11046474,-0.682802,-0.71979475,0.01501895,-0.009971928,0.07579388,-1.7880783,0.20922567,-2.2902207,0.42605227,64.34459,0.25348783,0.682802,0.1908784,0.6096023,0.1184552,0.12852375,inf,inf,inf,inf,1,1,1,1,2,0,2,2,1,1,0
526880468,15800481,30.6571691,-84.20851950000001,0.45849726,0.2822172,-3.611202,0.0013574644,-0.0026631723,0.0,0.09173664,0.12267441,-0.9553282,-1.0054106,0.01501895,-0.009971928,0.07579388,-0.22234969,1.8630791,-3.9687455,0.42490682,64.34459,0.35613847,0.9553282,0.19127423,0.60976183,0.11970051,0.12860599,inf,inf,inf,inf,1,1,1,1,2,0,2,2,1,1,0
526984467,15800481,30.6571691,-84.20851950000001,0.4704784,0.29587504,-3.742027,0.0013574644,-0.0026631723,0.0,0.111511394,0.12103144,-1.199006,-1.2620186,0.01501895,-0.009971928,0.07579388,0.04946674,1.4913187,-1.5742059,0.42384467,64.34459,0.4869635,1.199006,0.19165862,0.6098689,0.12106794,0.12868579,inf,inf,inf,inf,1,1,1,1,2,0,2,2,1,1,0
527088476,15800481,30.6571691,-84.20851950000001,0.48499092,0.31004304,-3.8980296,0.0013574644,-0.0026631723,0.0,0.13428104,0.11811822,-1.4238805,-1.4987894,0.01501895,-0.009971928,0.07579388,-0.3733351,-1.7528492,-0.9289966,0.422102,64.34459,0.64296603,1.4238805,0.19206075,0.60890186,0.12249196,0.1286886,inf,inf,inf,inf,1,1,1,1,2,0,2,2,1,1,0
527183668,15800481,30.6571691,-84.20851950000001,0.49939317,0.3213995,-4.06046,0.0013574644,-0.0026631723,0.0,0.1317784,0.09886004,-1.5847684,-1.669131,0.01501895,-0.009971928,0.07579388,-0.9508879,-0.07929641,-0.9114761,0.42099208,64.34459,0.80539656,1.5847684,0.19174476,0.6084877,0.123317435,0.12858744,inf,inf,inf,inf,1,1,1,1,2,0,2,2,1,1,0
527287697,15800481,30.6571691,-84.20851950000001,0.5162534,0.3323567,-4.2457547,0.0013574644,-0.0026631723,0.0,0.13925795,0.06826563,-1.6293204,-1.7206947,0.01501895,-0.009971928,0.07579388,-1.9089943,-2.42087,-3.4792922,0.4196658,64.34459,0.9906912,1.6293204,0.19225743,0.60866904,0.12463434,0.12867826,inf,inf,inf,inf,1,1,1,1,2,0,2,2,1,1,0
527391668,15800481,30.6571691,-84.20851950000001,0.53478634,0.33991233,-4.429564,0.0013574644,-0.0026631723,0.0,0.16401716,0.042647596,-1.6053475,-1.7004373,0.01501895,-0.009971928,0.07579388,2.277762,1.3352307,0.2915469,0.41835502,64.34459,1.1745005,1.6053475,0.1926942,0.60878867,0.12511802,0.12875457,inf,inf,inf,inf,1,1,1,1,2,0,2,2,1,1,0
527495674,15800481,30.6571691,-84.20851950000001,0.55453867,0.3437724,-4.608457,0.0013574644,-0.0026631723,0.0,0.16435353,0.0134452,-1.6205429,-1.7140853,0.01501895,-0.009971928,0.07579388,-1.6622564,-0.3747973,1.6949054,0.4180227,64.34459,1.3533936,1.6205429,0.19317222,0.6089611,0.124899454,0.12883005,inf,inf,inf,inf,1,1,1,1,2,0,2,2,1,1,0
527594873,15800481,30.6571691,-84.20851950000001,0.574687,0.34412095,-4.7735715,0.0013574644,-0.0026631723,0.0,0.16944753,-0.02872217,-1.6344448,-1.721119,0.01501895,-0.009971928,0.07579388,1.1996295,-3.4965262,-2.873476,0.41742548,64.34459,1.518508,1.6344448,0.19299494,0.6085575,0.12420347,0.1287392,inf,inf,inf,inf,1,1,1,1,2,0,2,2,1,1,0
527698888,15800481,30.6571691,-84.20851950000001,0.59616816,0.34093574,-4.941604,0.0013574644,-0.0026631723,0.0,0.16279452,-0.045712218,-1.6157049,-1.6912199,0.01501895,-0.009971928,0.07579388,-3.58843,0.3722185,0.8219688,0.41640306,64.34459,1.6865406,1.6157049,0.19349402,0.6098682,0.12388808,0.12890261,inf,inf,inf,inf,1,1,1,1,2,0,2,2,1,1,0
527802868,15800481,30.6571691,-84.20851950000001,0.6171917,0.33578205,-5.1057315,0.0013574644,-0.0026631723,0.0,0.17603396,-0.07585383,-1.6108001,-1.6735718,0.01501895,-0.009971928,0.07579388,2.5373497,-1.9393206,-2.1659849,0.41571334,64.34459,1.850668,1.6108001,0.19421433,0.60914457,0.1238547,0.12893087,inf,inf,inf,inf,1,1,1,1,2,0,2,2,1,1,0
527898868,15800481,30.6571691,-84.20851950000001,0.6321889,0.32806295,-5.2569385,0.0013574644,-0.0026631723,0.0,0.16774082,-0.08944996,-1.6081296,-1.6601363,0.01501895,-0.009971928,0.07579388,1.5885646,-2.127882,-2.8135717,0.36382794,64.34459,2.001875,1.6081296,0.19391099,0.60986036,0.12041651,0.1289106,inf,inf,inf,inf,1,1,1,1,2,0,2,2,1,1,0
528002069,15800481,30.6571691,-84.20851950000001,0.6530271,0.32053375,-5.420239,0.0013574644,-0.0026631723,0.0,0.15973903,-0.088643126,-1.6116138,-1.654114,0.01501895,-0.009971928,0.07579388,-4.017701,-0.26345503,-0.3480211,0.36320123,64.34459,2.1651754,1.6116138,0.1941351,0.61002403,0.12073873,0.12899162,inf,inf,inf,inf,1,1,1,1,2,0,2,2,1,1,0
528106074,15800481,30.6571691,-84.20851950000001,0.67289555,0.31263882,-5.5835195,0.0013574644,-0.0026631723,0.0,0.14666374,-0.10107783,-1.6074961,-1.6398326,0.01501895,-0.009971928,0.07579388,0.4974767,-1.785222,1.1195004,0.36238617,64.34459,2.328456,1.6074961,0.19416887,0.6101235,0.12666352,0.12907857,inf,inf,inf,inf,1,1,1,1,2,0,2,2,1,1,0
528202078,15800481,30.6571691,-84.20851950000001,0.6895823,0.30533987,-5.735152,0.0013574644,-0.0026631723,0.0,0.13533685,-0.10069644,-1.6223369,-1.6463839,0.01501895,-0.009971928,0.07579388,1.867187,0.49518156,1.9259124,0.36157888,64.34459,2.4800882,1.6223369,0.19352098,0.6108257,0.13573846,0.1290758,inf,inf,inf,inf,1,1,1,1,2,0,2,2,1,1,0
528305275,15800481,30.6571691,-84.20851950000001,0.70628875,0.29629102,-5.901042,0.0013574644,-0.0026631723,0.0,0.11287016,-0.10012182,-1.6587052,-1.6762282,0.01501895,-0.009971928,0.07579388,1.212957,-0.07217296,0.12067384,0.36049446,64.34459,2.6459785,1.6587052,0.193624,0.61097646,0.14878091,0.12918341,inf,inf,inf,inf,1,1,1,1,2,0,2,2,1,1,0
528409311,15800481,30.6571691,-84.20851950000001,0.720747,0.28669938,-6.0672617,0.0013574644,-0.0026631723,0.0,0.10683061,-0.100909285,-1.6638783,-1.6744808,0.01501895,-0.009971928,0.07579388,-0.10319904,0.79097754,-1.055171,0.35965016,64.34459,2.8121982,1.6638783,0.19387135,0.6111254,0.16318291,0.12930334,inf,inf,inf,inf,1,1,1,1,2,0,2,2,1,1,0
528513271,15800481,30.6571691,-84.20851950000001,0.7329246,0.27841932,-6.2332573,0.0013574644,-0.0026631723,0.0,0.08078239,-0.09763408,-1.6600715,-1.6646192,0.01501895,-0.009971928,0.07579388,0.27162313,-2.050875,-2.1246915,0.35956755,64.34459,2.9781938,1.6600715,0.19436231,0.61121565,0.17765886,0.12941863,inf,inf,inf,inf,1,1,1,1,2,0,2,2,1,1,0
528608473,15800481,30.6571691,-84.20851950000001,0.7435311,0.27129453,-6.3850636,0.0013574644,-0.0026631723,0.0,0.06542006,-0.0915118,-1.6571287,-1.6565651,0.01501895,-0.009971928,0.07579388,-0.007893449,-1.8335025,-1.2213655,0.35962862,64.34459,3.13,1.6571287,0.19444709,0.6107718,0.18964723,0.12936412,inf,inf,inf,inf,1,1,1,1,2,0,2,2,1,1,0
528712468,15800481,30.6571691,-84.20851950000001,0.7536613,0.26484585,-6.5497966,0.0013574644,-0.0026631723,0.0,0.04660258,-0.07804265,-1.6666405,-1.6588755,0.01501895,-0.009971928,0.07579388,-2.755882,-0.8680726,-0.43621105,0.35983193,64.34459,3.294733,1.6666405,0.19570173,0.61092764,0.20188867,0.1294993,inf,inf,inf,inf,1,1,1,1,2,0,2,2,1,1,0
528816474,15800481,30.6571691,-84.20851950000001,0.7630309,0.25902337,-6.7166405,0.0013574644,-0.0026631723,0.0,0.044739027,-0.06833792,-1.6809647,-1.667737,0.01501895,-0.009971928,0.07579388,1.2983598,1.2709855,0.24629372,0.3600426,64.34459,3.461577,1.6809647,0.19728376,0.61102146,0.21254693,0.12963225,inf,inf,inf,inf,1,1,1,1,2,0,2,2,1,1,0
528912468,15800481,30.6571691,-84.20851950000001,0.7712796,0.254802,-6.873745,0.0013574644,-0.0026631723,0.0,0.031940598,-0.05713799,-1.6931216,-1.6776785,0.01501895,-0.009971928,0.07579388,-0.44102126,0.8034411,-1.2530527,0.36026827,64.34459,3.6186814,1.6931216,0.19815302,0.61057687,0.21942706,0.12956981,inf,inf,inf,inf,1,1,1,1,2,0,2,2,1,1,0
529015668,15800481,30.6571691,-84.20851950000001,0.77891743,0.2516391,-7.042435,0.0013574644,-0.0026631723,0.0,0.021337997,-0.052351788,-1.6856151,-1.6678059,0.01501895,-0.009971928,0.07579388,-0.9239214,-1.5017382,-1.6815327,0.36109626,64.34459,3.7873716,1.6856151,0.20024252,0.6107231,0.22622208,0.1296879,inf,inf,inf,inf,1,1,1,1,2,0,2,2,1,1,0
529119674,15800481,30.6571691,-84.20851950000001,0.7866171,0.24931079,-7.215097,0.0013574644,-0.0026631723,0.0,0.007501019,-0.036837656,-1.6769185,-1.6598606,0.01501895,-0.009971928,0.07579388,-1.5607654,-1.0562042,1.0484252,0.36119846,64.34459,3.9600334,1.6769185,0.20243931,0.61195254,0.23101309,0.12988038,inf,inf,inf,inf,1,1,1,1,2,0,2,2,1,1,0
529223668,15800481,30.6571691,-84.20851950000001,0.7934618,0.24782518,-7.386587,0.0013574644,-0.0026631723,0.0,-0.0025236132,-0.0386892,-1.6578293,-1.6408768,0.01501895,-0.009971928,0.07579388,-0.9101006,-1.3481286,-1.807828,0.36213335,64.34459,4.1315236,1.6578293,0.20463917,0.6120904,0.23366515,0.12998573,inf,inf,inf,inf,1,1,1,1,2,0,2,2,1,1,0
529319668,15800481,30.6571691,-84.20851950000001,0.79794097,0.24746522,-7.545188,0.0013574644,-0.0026631723,0.0,-0.012851748,-0.036740713,-1.6669631,-1.6507074,0.01501895,-0.009971928,0.07579388,1.4340309,-1.9525402,-3.7905226,0.3628425,64.34459,4.2901244,1.6669631,0.20583473,0.61163783,0.23399629,0.12991183,inf,inf,inf,inf,1,1,1,1,2,0,2,2,1,1,0
529422868,15800481,30.6571691,-84.20851950000001,0.8024306,0.24733865,-7.716668,0.0013574644,-0.0026631723,0.0,0.009480719,-0.022189986,-1.6858337,-1.6705631,0.01501895,-0.009971928,0.07579388,-0.17644832,0.55614173,-2.550518,0.36393836,64.34459,4.4616046,1.6858337,0.20805238,0.6117676,0.23447707,0.13001285,inf,inf,inf,inf,1,1,1,1,2,0,2,2,1,1,0
529526874,15800481,30.6571691,-84.20851950000001,0.8110368,0.24699749,-7.8890147,0.0013574644,-0.0026631723,0.0,0.07238207,-0.0018834486,-1.7162962,-1.6990702,0.01501895,-0.009971928,0.07579388,-0.00243999,-1.343802,-1.0573208,0.36525625,64.34459,4.633951,1.7162962,0.21011734,0.6118388,0.23401344,0.13010277,inf,inf,inf,inf,1,1,1,1,2,0,2,2,1,1,0
529622882,15800481,30.6571691,-84.20851950000001,0.8278128,0.2510959,-8.051079,0.0013574644,-0.0026631723,0.0,0.19370364,0.04251515,-1.7626259,-1.7428707,0.01501895,-0.009971928,0.07579388,1.6341944,0.21285303,-1.1943178,0.36618018,64.34459,4.7960153,1.7626259,0.21085793,0.6125243,0.23152803,0.13006437,inf,inf,inf,inf,1,1,1,1,2,0,2,2,1,1,0
529726076,15800481,30.6571691,-84.20851950000001,0.86329913,0.26024663,-8.229636,0.0013574644,-0.0026631723,0.0,0.41741112,0.122753836,-1.8201842,-1.7972543,0.01501895,-0.009971928,0.07579388,0.13559884,0.6138862,-1.7100488,0.366098,64.34459,4.9745727,1.8201842,0.21261747,0.61264753,0.22959453,0.13009243,inf,inf,inf,inf,1,1,1,1,2,0,2,2,1,1,0
529830087,15800481,30.6571691,-84.20851950000001,0.92538935,0.27704164,-8.414395,0.0013574644,-0.0026631723,0.0,0.7061868,0.22351955,-1.8432951,-1.8182191,0.01501895,-0.009971928,0.07579388,2.5637343,4.22768,0.482386,0.36546266,64.34459,5.159332,1.8432951,0.21431123,0.6127704,0.22751422,0.13008946,inf,inf,inf,inf,1,1,1,1,2,0,2,2,1,1,0
529934068,15800481,30.6571691,-84.20851950000001,1.0223442,0.30907828,-8.605809,0.0013574644,-0.0026631723,0.0,1.0671059,0.36333564,-1.8568168,-1.8322431,0.01501895,-0.009971928,0.07579388,5.3316026,2.9135048,3.7209842,0.36433688,64.34459,5.3507457,1.8568168,0.21581103,0.6128337,0.22512731,0.13006394,inf,inf,inf,inf,1,1,1,1,2,0,2,2,1,1,0
530030068,15800481,30.6571691,-84.20851950000001,1.1518469,0.35353217,-8.784783,0.0013574644,-0.0026631723,0.0,1.4727466,0.52508223,-1.8989551,-1.8744026,0.01501895,-0.009971928,0.07579388,3.264465,1.3881899,0.5764392,0.36285734,64.34459,5.52972,1.8989551,0.21592733,0.6123581,0.22175072,0.12988037,inf,inf,inf,inf,1,1,1,1,2,0,2,2,1,1,0
530137268,15800481,30.6571691,-84.20851950000001,1.3443711,0.4247061,-8.986474,0.0013574644,-0.0026631723,0.0,1.9416665,0.717068,-1.8734443,-1.8507572,0.01501895,-0.009971928,0.07579388,6.1572146,2.5701282,1.0134776,0.36017233,64.34459,5.7314105,1.8734443,0.21710193,0.612472,0.21944702,0.12988652,inf,inf,inf,inf,1,1,1,1,2,0,2,2,1,1,0
530241268,15800481,30.6571691,-84.20851950000001,1.5749141,0.5130428,-9.183332,0.0013574644,-0.0026631723,0.0,2.2865293,0.85679555,-1.9081808,-1.8892614,0.01501895,-0.009971928,0.07579388,3.302509,0.42257568,0.19230078,0.35823023,64.34459,5.928269,1.9081808,0.21857426,0.61281437,0.21771407,0.1299623,inf,inf,inf,inf,1,1,1,1,2,0,2,2,1,1,0
530337272,15800481,30.6571691,-84.20851950000001,1.8158413,0.60848075,-9.371585,0.0013574644,-0.0026631723,0.0,2.476245,0.94345075,-1.9317234,-1.9181598,0.01501895,-0.009971928,0.07579388,2.1557674,0.8283101,-3.0396621,0.35868979,64.34459,6.1165214,1.9317234,0.21832907,0.6123373,0.21506475,0.12989913,inf,inf,inf,inf,1,1,1,1,2,0,2,2,1,1,0
530440474,15800481,30.6571691,-84.20851950000001,2.089404,0.72211164,-9.575926,0.0013574644,-0.0026631723,0.0,2.5515206,0.97386694,-1.958182,-1.9503772,0.01501895,-0.009971928,0.07579388,-2.4578712,-4.91536,-2.3032398,0.36195529,64.34459,6.3208623,1.958182,0.21930154,0.61245716,0.21288116,0.13004676,inf,inf,inf,inf,1,1,1,1,2,0,2,2,1,1,0
530544468,15800481,30.6571691,-84.20851950000001,2.362521,0.8367844,-9.778509,0.0013574644,-0.0026631723,0.0,2.499255,0.9329934,-1.967728,-1.9601394,0.01501895,-0.009971928,0.07579388,-1.9338571,-3.310518,0.56470364,0.36481988,64.34459,6.5234456,1.967728,0.21995765,0.61257875,0.20925963,0.13016522,inf,inf,inf,inf,1,1,1,1,2,0,2,2,1,1,0
530648468,15800481,30.6571691,-84.20851950000001,2.6239743,0.94315416,-9.975505,0.0013574644,-0.0026631723,0.0,2.4108453,0.8107253,-1.9817364,-1.9678483,0.01501895,-0.009971928,0.07579388,-0.45780525,-2.250817,0.009328064,0.36738205,64.34459,6.7204413,1.9817364,0.22060566,0.6126415,0.2047272,0.13022405,inf,inf,inf,inf,1,1,1,1,2,0,2,2,1,1,0
530744475,15800481,30.6571691,-84.20851950000001,2.8501658,1.0226638,-10.157778,0.0013574644,-0.0026631723,0.0,2.2922096,0.6058946,-1.9923751,-1.9724503,0.01501895,-0.009971928,0.07579388,-1.7260716,-3.9871564,-0.7909649,0.36877248,64.34459,6.9027143,1.9923751,0.21999916,0.613321,0.1988836,0.13012233,inf,inf,inf,inf,1,1,1,1,2,0,2,2,1,1,0
530847680,15800481,30.6571691,-84.20851950000001,3.0779595,1.078483,-10.350908,0.0013574644,-0.0026631723,0.0,2.143161,0.34180373,-1.9344475,-1.90851,0.01501895,-0.009971928,0.07579388,-0.025632702,-2.334174,1.8232079,0.37160924,64.34459,7.0958447,1.9344475,0.22057237,0.6134449,0.19399108,0.1300969,inf,inf,inf,inf,1,1,1,1,2,0,2,2,1,1,0
530951668,15800481,30.6571691,-84.20851950000001,3.290323,1.1030008,-10.534236,0.0013574644,-0.0026631723,0.0,2.0446467,0.11863385,-1.8282144,-1.7936889,0.01501895,-0.009971928,0.07579388,-1.822623,-2.2916133,0.40955535,0.38359803,64.34459,7.2791724,1.8282144,0.22096688,0.6135678,0.18927696,0.13004354,inf,inf,inf,inf,1,1,1,1,2,0,2,2,1,1,0
531047668,15800481,30.6571691,-84.20851950000001,3.474393,1.1035526,-10.698334,0.0013574644,-0.0026631723,0.0,1.9815147,-0.023739655,-1.813215,-1.7725611,0.01501895,-0.009971928,0.07579388,4.0556073,-2.8210845,0.31086516,0.39116284,64.34459,7.44327,1.813215,0.21993622,0.6130279,0.18452166,0.12983732,inf,inf,inf,inf,1,1,1,1,2,0,2,2,1,1,0
531154116,15800481,30.6571691,-84.20851950000001,3.6694732,1.0880946,-10.880085,0.0013574644,-0.0026631723,0.0,1.9098184,-0.08313327,-1.8267393,-1.7804389,0.01501895,-0.009971928,0.07579388,-4.599733,-0.6015155,-0.59973115,0.39184564,64.34459,7.6250215,1.8267393,0.22005613,0.61429155,0.18091413,0.12994501,inf,inf,inf,inf,1,1,1,1,2,0,2,2,1,1,0
531250868,15800481,30.6571691,-84.20851950000001,3.8393967,1.0683565,-11.047517,0.0013574644,-0.0026631723,0.0,1.8519561,-0.06272836,-1.8440068,-1.7941464,0.01501895,-0.009971928,0.07579388,-4.4203067,3.0166326,0.22918072,0.38968182,64.34459,7.7924533,1.8440068,0.21908247,0.6138003,0.17748144,0.12984154,inf,inf,inf,inf,1,1,1,1,2,0,2,2,1,1,0
531354868,15800481,30.6571691,-84.20851950000001,4.0137405,1.052283,-11.23392,0.0013574644,-0.0026631723,0.0,1.7842457,0.014318325,-1.8943737,-1.8417765,0.01501895,-0.009971928,0.07579388,-1.1682498,0.27057028,-0.38232657,0.38580245,64.34459,7.9788566,1.8943737,0.21965815,0.61413985,0.17482375,0.12997186,inf,inf,inf,inf,1,1,1,1,2,0,2,2,1,1,0
531458868,15800481,30.6571691,-84.20851950000001,4.179393,1.0526567,-11.424558,0.0013574644,-0.0026631723,0.0,1.7074012,0.20276009,-1.913962,-1.8609459,0.01501895,-0.009971928,0.07579388,1.903212,-0.6869305,-1.3417087,0.38102672,64.34459,8.169495,1.913962,0.21965483,0.6142349,0.1720152,0.13007103,inf,inf,inf,inf,1,1,1,1,2,0,2,2,1,1,0
531562068,15800481,30.6571691,-84.20851950000001,4.334519,1.0756024,-11.612096,0.0013574644,-0.0026631723,0.0,1.5941266,0.4705523,-1.9112636,-1.8550162,0.01501895,-0.009971928,0.07579388,0.087871425,3.2251263,-0.9429669,0.37702462,64.34459,8.357033,1.9112636,0.21967764,0.61432827,0.16903448,0.13016409,inf,inf,inf,inf,1,1,1,1,2,0,2,2,1,1,0
531658082,15800481,30.6571691,-84.20851950000001,4.466765,1.1247933,-11.784166,0.0013574644,-0.0026631723,0.0,1.46567,0.70425147,-1.8094283,-1.7530128,0.01501895,-0.009971928,0.07579388,-1.9703778,1.4179883,0.41960314,0.3765696,64.34459,8.529102,1.8094283,0.21856543,0.6149822,0.16578345,0.13013928,inf,inf,inf,inf,1,1,1,1,2,0,2,2,1,1,0
531762068,15800481,30.6571691,-84.20851950000001,4.597029,1.2043443,-11.959611,0.0013574644,-0.0026631723,0.0,1.3712188,0.890378,-1.7134681,-1.6567163,0.01501895,-0.009971928,0.07579388,-1.9936726,1.8915795,1.6228126,0.3735939,64.34459,8.704548,1.7134681,0.21832463,0.6150099,0.16339044,0.1301967,inf,inf,inf,inf,1,1,1,1,2,0,2,2,1,1,0
531865271,15800481,30.6571691,-84.20851950000001,4.716181,1.3009734,-12.125665,0.0013574644,-0.0026631723,0.0,1.2752705,1.0007539,-1.7164575,-1.6550804,0.01501895,-0.009971928,0.07579388,0.0447843,0.084881134,-1.5893646,0.37260574,64.34459,8.870602,1.7164575,0.20564686,0.6121228,0.1534528,0.12834288,inf,inf,inf,inf,1,1,1,1,2,0,2,2,1,1,0
531969286,15800481,30.6571691,-84.20851950000001,4.8269696,1.4046619,-12.29169,0.0013574644,-0.0026631723,0.0,1.1898586,1.0152855,-1.7575886,-1.6894732,0.01501895,-0.009971928,0.07579388,1.3840535,-0.9730987,0.20965403,0.3711259,64.34459,9.036627,1.7575886,0.20564832,0.6122043,0.15196323,0.12843262,inf,inf,inf,inf,1,1,1,1,2,0,2,2,1,1,0
532073291,15800481,30.6571691,-84.20851950000001,4.9280243,1.5068154,-12.466157,0.0013574644,-0.0026631723,0.0,1.078941,0.97141373,-1.8364,-1.7635472,0.01501895,-0.009971928,0.07579388,-0.57636017,-1.647922,-0.9430557,0.3680243,64.34459,9.211094,1.8364,0.20559393,0.61222476,0.15056653,0.12853198,inf,inf,inf,inf,1,1,1,1,2,0,2,2,1,1,0
532177268,15800481,30.6571691,-84.20851950000001,5.0177984,1.6007375,-12.65448,0.0013574644,-0.0026631723,0.0,0.9544265,0.8797495,-1.888145,-1.8183264,0.01501895,-0.009971928,0.07579388,-1.7283983,-2.5263474,-0.27567974,0.36532342,64.34459,9.399416,1.888145,0.20548895,0.61230105,0.1489899,0.12862119,inf,inf,inf,inf,1,1,1,1,2,0,2,2,1,1,0
532272468,15800481,30.6571691,-84.20851950000001,5.0867715,1.6743851,-12.832044,0.0013574644,-0.0026631723,0.0,0.8097417,0.7711351,-1.8732959,-1.8089538,0.01501895,-0.009971928,0.07579388,-0.4902842,-1.361663,1.7603223,0.3627068,64.34459,9.576981,1.8732959,0.20462225,0.6118012,0.147264,0.12853031,inf,inf,inf,inf,1,1,1,1,2,0,2,2,1,1,0
532376468,15800481,30.6571691,-84.20851950000001,5.144264,1.7405101,-13.0297165,0.0013574644,-0.0026631723,0.0,0.58563584,0.6368472,-1.8774227,-1.8218604,0.01501895,-0.009971928,0.07579388,-2.1283276,-0.9555898,3.139408,0.3608089,64.34459,9.7746525,1.8774227,0.20459844,0.61183393,0.14619182,0.1286021,inf,inf,inf,inf,1,1,1,1,2,0,2,2,1,1,0
532480474,15800481,30.6571691,-84.20851950000001,5.1764216,1.7889196,-13.228098,0.0013574644,-0.0026631723,0.0,0.30085573,0.4595577,-1.9181436,-1.869594,0.01501895,-0.009971928,0.07579388,-4.8753095,-3.120352,1.2424533,0.35858417,64.34459,9.973034,1.9181436,0.20461924,0.6119259,0.14552797,0.12866671,inf,inf,inf,inf,1,1,1,1,2,0,2,2,1,1,0
532583686,15800481,30.6571691,-84.20851950000001,5.177373,1.816281,-13.426656,0.0013574644,-0.0026631723,0.0,-0.017992428,0.27704084,-1.937768,-1.8942006,0.01501895,-0.009971928,0.07579388,-4.6812954,0.09689136,-0.7735678,0.35773075,64.34459,10.171593,1.937768,0.20459296,0.61201453,0.1454161,0.12871331,inf,inf,inf,inf,1,1,1,1,2,0,2,2,1,1,0
532679668,15800481,30.6571691,-84.20851950000001,5.147848,1.8235021,-13.609099,0.0013574644,-0.0026631723,0.0,-0.30903336,0.10765374,-1.8274344,-1.7890252,0.01501895,-0.009971928,0.07579388,-0.08351192,-3.6255364,0.65206635,0.35917994,64.34459,10.354036,1.8274344,0.20375232,0.61266744,0.14580405,0.12864834,inf,inf,inf,inf,1,1,1,1,2,0,2,2,1,1,0
532783678,15800481,30.6571691,-84.20851950000001,5.0851817,1.8141543,-13.79002,0.0013574644,-0.0026631723,0.0,-0.5833287,-0.025373122,-1.6348951,-1.6012208,0.01501895,-0.009971928,0.07579388,-1.0359635,-0.0917481,3.9388556,0.36395326,64.34459,10.534956,1.6348951,0.20367442,0.61269283,0.14728798,0.12865715,inf,inf,inf,inf,1,1,1,1,2,0,2,2,1,1,0
532887722,15800481,30.6571691,-84.20851950000001,4.9990172,1.788453,-13.954415,0.0013574644,-0.0026631723,0.0,-0.7894135,-0.15968235,-1.5832403,-1.5504574,0.01501895,-0.009971928,0.07579388,-2.9602761,-1.8775573,-0.7662591,0.3678925,64.34459,10.699352,1.5832403,0.20366508,0.6127731,0.1485216,0.12866028,inf,inf,inf,inf,1,1,1,1,2,0,2,2,1,1,0
532986868,15800481,30.6571691,-84.20851950000001,4.902233,1.75209,-14.103512,0.0013574644,-0.0026631723,0.0,-0.8995403,-0.221356,-1.5907879,-1.5532916,0.01501895,-0.009971928,0.07579388,-1.2439879,2.695871,2.6228611,0.36963257,64.34459,10.848448,1.5907879,0.20294183,0.6122672,0.14863957,0.12854078,inf,inf,inf,inf,1,1,1,1,2,0,2,2,1,1,0
533090874,15800481,30.6571691,-84.20851950000001,4.7953753,1.706065,-14.260966,0.0013574644,-0.0026631723,0.0,-0.92237145,-0.27698678,-1.6362131,-1.5939258,0.01501895,-0.009971928,0.07579388,0.08433908,-0.21059018,-2.7915533,0.369301,64.34459,11.005903,1.6362131,0.20297422,0.61233693,0.14881082,0.12862977,inf,inf,inf,inf,1,1,1,1,2,0,2,2,1,1,0
533186882,15800481,30.6571691,-84.20851950000001,4.6976757,1.6608324,-14.415184,0.0013574644,-0.0026631723,0.0,-0.891866,-0.27632776,-1.6982788,-1.6550195,0.01501895,-0.009971928,0.07579388,-1.9818969,1.9472998,0.5818949,0.36896557,64.34459,11.16012,1.6982788,0.20253628,0.61320484,0.147217,0.12866801,inf,inf,inf,inf,1,1,1,1,2,0,2,2,1,1,0
533290904,15800481,30.6571691,-84.20851950000001,4.601918,1.6117601,-14.595332,0.0013574644,-0.0026631723,0.0,-0.7868622,-0.26607636,-1.7903446,-1.7495708,0.01501895,-0.009971928,0.07579388,0.01598627,1.6625038,-0.37575984,0.3680648,64.34459,11.340269,1.7903446,0.20265783,0.61326945,0.14506312,0.12877572,inf,inf,inf,inf,1,1,1,1,2,0,2,2,1,1,0
533394120,15800481,30.6571691,-84.20851950000001,4.5241857,1.5672907,-14.77972,0.0013574644,-0.0026631723,0.0,-0.61456,-0.22042479,-1.7692225,-1.7330463,0.01501895,-0.009971928,0.07579388,3.841736,-2.4301243,-0.32280368,0.36638266,64.34459,11.524656,1.7692225,0.2028112,0.6133336,0.14248544,0.12887572,inf,inf,inf,inf,1,1,1,1,2,0,2,2,1,1,0
533498068,15800481,30.6571691,-84.20851950000001,4.4693336,1.5315611,-14.967682,0.0013574644,-0.0026631723,0.0,-0.39165807,-0.12842095,-1.7720581,-1.742335,0.01501895,-0.009971928,0.07579388,-1.612494,2.0569882,2.8561647,0.36377078,64.34459,11.712618,1.7720581,0.20290764,0.6133953,0.13902038,0.12895378,inf,inf,inf,inf,1,1,1,1,2,0,2,2,1,1,0
533594068,15800481,30.6571691,-84.20851950000001,4.445771,1.508949,-15.141018,0.0013574644,-0.0026631723,0.0,-0.11893088,-0.029905457,-1.7792784,-1.7548286,0.01501895,-0.009971928,0.07579388,1.6754133,1.5834606,1.1994925,0.36158544,64.34459,11.885954,1.7792784,0.20203519,0.6128149,0.13520548,0.12882338,inf,inf,inf,inf,1,1,1,1,2,0,2,2,1,1,0
533697272,15800481,30.6571691,-84.20851950000001,4.455838,1.4985931,-15.326237,0.0013574644,-0.0026631723,0.0,0.2255198,0.0874952,-1.7589062,-1.7393563,0.01501895,-0.009971928,0.07579388,2.7839966,-0.47802505,-0.2771337,0.35920984,64.34459,12.071173,1.7589062,0.20198455,0.6128776,0.13156848,0.128849,inf,inf,inf,inf,1,1,1,1,2,0,2,2,1,1,0
533801278,15800481,30.6571691,-84.20851950000001,4.502226,1.5034696,-15.498086,0.0013574644,-0.0026631723,0.0,0.5029366,0.20034531,-1.5231814,-1.507163,0.01501895,-0.009971928,0.07579388,5.5641947,2.4730842,3.4916587,0.3564415,64.34459,12.243023,1.5231814,0.20190625,0.61409473,0.12822478,0.12893361,inf,inf,inf,inf,1,1,1,1,2,0,2,2,1,1,0
533897274,15800481,30.6571691,-84.20851950000001,4.56926,1.5186285,-15.636855,0.0013574644,-0.0026631723,0.0,0.65415144,0.26615232,-1.3367577,-1.322953,0.01501895,-0.009971928,0.07579388,3.3930519,3.218674,2.8160114,0.35489014,64.34459,12.381792,1.3367577,0.20094654,0.6135093,0.12539493,0.12874006,inf,inf,inf,inf,1,1,1,1,2,0,2,2,1,1,0
534001273,15800481,30.6571691,-84.20851950000001,4.6575317,1.5434734,-15.771164,0.0013574644,-0.0026631723,0.0,0.76537764,0.3006247,-1.177381,-1.1666938,0.01501895,-0.009971928,0.07579388,3.499227,2.5987022,3.2853723,0.3541971,64.34459,12.5161,1.177381,0.20075034,0.6135672,0.12364914,0.12874845,inf,inf,inf,inf,1,1,1,1,2,0,2,2,1,1,0
534104508,15800481,30.6571691,-84.20851950000001,4.750957,1.5721045,-15.882115,0.0013574644,-0.0026631723,0.0,0.7685361,0.30469617,-0.95010614,-0.9408815,0.01501895,-0.009971928,0.07579388,-3.2221777,-2.278688,0.47024655,0.353536,64.34459,12.627052,0.95010614,0.20054942,0.6136256,0.12265165,0.12882815,inf,inf,inf,inf,1,1,1,1,2,0,2,2,1,1,0
534208468,15800481,30.6571691,-84.20851950000001,4.8427052,1.6012222,-15.962612,0.0013574644,-0.0026631723,0.0,0.724939,0.28826603,-0.6719149,-0.6600979,0.01501895,-0.009971928,0.07579388,1.8333212,-0.40782836,1.7702345,0.35179013,64.34459,12.707548,0.6719149,0.20017675,0.61361766,0.12186413,0.12891951,inf,inf,inf,inf,1,1,1,1,2,0,2,2,1,1,0
534312516,15800481,30.6571691,-84.20851950000001,4.9281273,1.6281897,-16.007559,0.0013574644,-0.0026631723,0.0,0.6606556,0.26065004,-0.3477358,-0.32899675,0.01501895,-0.009971928,0.07579388,-4.657213,-0.3294812,4.1030807,0.352306,64.34459,12.752495,0.3477358,0.19993538,0.6136714,0.121207766,0.12901388,inf,inf,inf,inf,1,1,1,1,2,0,2,2,1,1,0
534415668,15800481,30.6571691,-84.20851950000001,5.0031805,1.6513038,-16.015738,0.0013574644,-0.0026631723,0.0,0.5706473,0.22248802,-0.051456586,-0.02227623,0.01501895,-0.009971928,0.07579388,-1.4973648,1.2946067,2.6756527,0.35319376,64.34459,12.7606735,0.051456586,0.199751,0.61373264,0.12068559,0.12911592,inf,inf,inf,inf,1,1,1,1,2,0,2,2,1,1,0
534519668,15800481,30.6571691,-84.20851950000001,5.0672197,1.6704675,-15.991776,0.0013574644,-0.0026631723,0.0,0.49051493,0.17465715,0.2707792,0.3091919,0.01501895,-0.009971928,0.07579388,2.9632506,-2.0520492,2.1108153,0.35391572,64.34459,12.736713,-0.2707792,0.19956256,0.6149484,0.12032253,0.12928018,inf,inf,inf,inf,1,1,1,1,2,0,2,2,1,1,0
534615668,15800481,30.6571691,-84.20851950000001,5.1157207,1.6842494,-15.940393,0.0013574644,-0.0026631723,0.0,0.39392194,0.15181173,0.54820365,0.59505975,0.01501895,-0.009971928,0.07579388,1.6986617,3.019831,2.6814606,0.3550258,64.34459,12.685329,-0.54820365,0.1986433,0.61435694,0.11980252,0.12918799,inf,inf,inf,inf,1,1,1,1,2,0,2,2,1,1,0
534718877,15800481,30.6571691,-84.20851950000001,5.1565447,1.6952261,-15.855475,0.0013574644,-0.0026631723,0.0,0.29420936,0.11004238,0.8409345,0.8954926,0.01501895,-0.009971928,0.07579388,-3.4966822,-2.5530374,3.0779254,0.35488066,64.34459,12.600412,-0.8409345,0.19851936,0.6144077,0.11978272,0.12927267,inf,inf,inf,inf,1,1,1,1,2,0,2,2,1,1,0
534822868,15800481,30.6571691,-84.20851950000001,5.1856155,1.7025899,-15.737322,0.0013574644,-0.0026631723,0.0,0.20548548,0.08187753,1.1490195,1.211323,0.01501895,-0.009971928,0.07579388,-0.8278003,-1.8642185,3.2417703,0.35553652,64.34459,12.482258,-1.1490195,0.19845647,0.614456,0.11985897,0.129375,inf,inf,inf,inf,1,1,1,1,2,0,2,2,1,1,0
534918876,15800481,30.6571691,-84.20851950000001,5.202191,1.7065002,-15.601381,0.0013574644,-0.0026631723,0.0,0.10423645,0.05211541,1.3420161,1.411664,0.01501895,-0.009971928,0.07579388,-1.2310199,-0.85074174,-0.9253429,0.35509732,64.34459,12.346317,-1.3420161,0.1976123,0.6150207,0.1196945,0.1293681,inf,inf,inf,inf,1,1,1,1,2,0,2,2,1,1,0
535022878,15800481,30.6571691,-84.20851950000001,5.2064457,1.7069651,-15.448454,0.0013574644,-0.0026631723,0.0,-0.03730925,0.040710647,1.2902172,1.3656965,0.01501895,-0.009971928,0.07579388,-0.57385314,2.31222,1.2175008,0.35560137,64.34459,12.19339,-1.2902172,0.19754994,0.61506194,0.11999145,0.12945671,inf,inf,inf,inf,1,1,1,1,2,0,2,2,1,1,0
535129302,15800481,30.6571691,-84.20851950000001,5.193797,1.7042907,-15.312609,0.0013574644,-0.0026631723,0.0,-0.17953707,0.0005307455,1.0113115,1.0903033,0.01501895,-0.009971928,0.07579388,-3.3115916,-3.6544745,-2.9815853,0.3568383,64.34459,12.057545,-1.0113115,0.19755834,0.6151069,0.12013154,0.12954935,inf,inf,inf,inf,1,1,1,1,2,0,2,2,1,1,0
535234068,15800481,30.6571691,-84.20851950000001,5.1678543,1.698809,-15.217386,0.0013574644,-0.0026631723,0.0,-0.2801736,-0.0019262191,0.7059245,0.77972746,0.01501895,-0.009971928,0.07579388,-2.1768248,-0.36100549,-2.0454385,0.36238772,64.34459,11.962322,-0.7059245,0.19757731,0.6151429,0.120030954,0.1296319,inf,inf,inf,inf,1,1,1,1,2,0,2,2,1,1,0
535338068,15800481,30.6571691,-84.20851950000001,5.131745,1.6904765,-15.16291,0.0013574644,-0.0026631723,0.0,-0.35470614,-0.020852637,0.42371428,0.48465168,0.01501895,-0.009971928,0.07579388,-4.9374275,1.6822244,-2.3932471,0.37073743,64.34459,11.907846,-0.42371428,0.19792598,0.6154064,0.120162286,0.12974715,inf,inf,inf,inf,1,1,1,1,2,0,2,2,1,1,0
535442068,15800481,30.6571691,-84.20851950000001,5.0887055,1.6809752,-15.143236,0.0013574644,-0.0026631723,0.0,-0.3900232,-0.041209783,0.13930485,0.18429317,0.01501895,-0.009971928,0.07579388,-1.7445756,-2.383422,-2.9812257,0.38156837,64.34459,11.888172,-0.13930485,0.19805042,0.61660504,0.120413914,0.12992668,inf,inf,inf,inf,1,1,1,1,2,0,2,2,1,1,0
535545307,15800481,30.6571691,-84.20851950000001,5.0434804,1.6699371,-15.159137,0.0013574644,-0.0026631723,0.0,-0.42919886,-0.041409634,-0.181592,-0.15533789,0.01501895,-0.009971928,0.07579388,-0.9667108,5.826189,-1.6366527,0.39178607,64.34459,11.904074,0.181592,0.19822909,0.61663246,0.12077284,0.13003312,inf,inf,inf,inf,1,1,1,1,2,0,2,2,1,1,0
535641278,15800481,30.6571691,-84.20851950000001,5.00006,1.6579543,-15.202547,0.0013574644,-0.0026631723,0.0,-0.43555498,-0.070811436,-0.46935454,-0.45812297,0.01501895,-0.009971928,0.07579388,-6.0653915,1.7361281,-0.5429984,0.40080634,64.34459,11.947483,0.46935454,0.19767886,0.6160639,0.12098128,0.12995258,inf,inf,inf,inf,1,1,1,1,2,0,2,2,1,1,0
535745271,15800481,30.6571691,-84.20851950000001,4.9523406,1.6430672,-15.285685,0.0013574644,-0.0026631723,0.0,-0.43729576,-0.098788634,-0.75908226,-0.7670044,0.01501895,-0.009971928,0.07579388,2.8842633,0.08857156,-2.6337075,0.4099061,64.34459,12.030621,0.75908226,0.19781253,0.6160359,0.12159762,0.13005215,inf,inf,inf,inf,1,1,1,1,2,0,2,2,1,1,0
535847712,15800481,30.6571691,-84.20851950000001,4.9058867,1.6267571,-15.401114,0.0013574644,-0.0026631723,0.0,-0.4531049,-0.12539512,-1.0460659,-1.073703,0.01501895,-0.009971928,0.07579388,1.3468039,0.9685992,-1.0765743,0.4181597,64.34459,12.146051,1.0460659,0.19807291,0.6160658,0.12262551,0.13014871,inf,inf,inf,inf,1,1,1,1,2,0,2,2,1,1,0
535944468,15800481,30.6571691,-84.20851950000001,4.861891,1.6098297,-15.53596,0.0013574644,-0.0026631723,0.0,-0.4509418,-0.1387656,-1.3220363,-1.3652651,0.01501895,-0.009971928,0.07579388,0.24155337,3.8866832,-4.2894526,0.42556512,64.34459,12.280897,1.3220363,0.19760944,0.6166743,0.12325437,0.1301523,inf,inf,inf,inf,1,1,1,1,2,0,2,2,1,1,0
536048468,15800481,30.6571691,-84.20851950000001,4.8149004,1.5896877,-15.708556,0.0013574644,-0.0026631723,0.0,-0.44930854,-0.16783203,-1.6198691,-1.6769301,0.01501895,-0.009971928,0.07579388,3.0758564,-3.4757113,-4.366592,0.4333943,64.34459,12.453493,1.6198691,0.19784574,0.61664635,0.124437764,0.13024315,inf,inf,inf,inf,1,1,1,1,2,0,2,2,1,1,0
536152468,15800481,30.6571691,-84.20851950000001,4.769839,1.5675226,-15.906516,0.0013574644,-0.0026631723,0.0,-0.45647213,-0.18108584,-1.8885418,-1.9537108,0.01501895,-0.009971928,0.07579388,-2.1723685,3.0630202,-2.2445524,0.44096196,64.34459,12.651453,1.8885418,0.19816415,0.616679,0.12583336,0.13033403,inf,inf,inf,inf,1,1,1,1,2,0,2,2,1,1,0
536255668,15800481,30.6571691,-84.20851950000001,4.7268744,1.5449164,-16.130384,0.0013574644,-0.0026631723,0.0,-0.43685088,-0.18679497,-2.1863215,-2.2559683,0.01501895,-0.009971928,0.07579388,3.374913,-1.0791662,-0.18341206,0.4476163,64.34459,12.87532,2.1863215,0.1984296,0.6167066,0.12710156,0.1304197,inf,inf,inf,inf,1,1,1,1,2,0,2,2,1,1,0
536351668,15800481,30.6571691,-84.20851950000001,4.6894135,1.5243019,-16.365557,0.0013574644,-0.0026631723,0.0,-0.42270246,-0.18705286,-2.4454424,-2.5194247,0.01501895,-0.009971928,0.07579388,4.1748314,-0.97240895,-3.58179,0.45290908,64.34459,13.110493,2.4454424,0.19801821,0.6160932,0.12814152,0.1303239,inf,inf,inf,inf,1,1,1,1,2,0,2,2,1,1,0
