timestamp,timestamp_last_signal,channel_count,rssi,rc_lost_frame_count,rc_total_frame_count,rc_ppm_frame_length,values[0],values[1],values[2],values[3],values[4],values[5],values[6],values[7],values[8],values[9],values[10],values[11],values[12],values[13],values[14],values[15],values[16],values[17],rc_failsafe,rc_lost,input_source
519039526,519039526,18,42,0,0,0,1514,1514,1102,1927,1514,1550,1100,874,874,1100,874,874,874,874,874,1100,998,998,0,0,4
519099819,519099819,18,42,0,0,0,1514,1514,1102,1927,1514,1550,1100,874,874,1100,874,874,874,874,874,1100,998,998,0,0,4
519139880,519139880,18,42,0,0,0,1514,1514,1102,1927,1514,1550,1100,874,874,1100,874,874,874,874,874,1100,998,998,0,0,4
519199512,519199512,18,42,0,0,0,1514,1514,1102,1927,1514,1550,1100,874,874,1100,874,874,874,874,874,1100,998,998,0,0,4
519259850,519259850,18,42,0,0,0,1514,1514,1102,1927,1514,1550,1100,874,874,1100,874,874,874,874,874,1100,998,998,0,0,4
519299809,519299809,18,42,0,0,0,1514,1514,1102,1927,1514,1550,1100,874,874,1100,874,874,874,874,874,1100,998,998,0,0,4
519359604,519359604,18,42,0,0,0,1514,1514,1102,1927,1514,1550,1100,874,874,1100,874,874,874,874,874,1100,998,998,0,0,4
519399567,519399567,18,42,0,0,0,1514,1514,1102,1927,1514,1550,1100,874,874,1100,874,874,874,874,874,1100,998,998,0,0,4
519459957,519459957,18,42,0,0,0,1514,1514,1102,1927,1514,1550,1100,874,874,1100,874,874,874,874,874,1100,998,998,0,0,4
519519733,519519733,18,42,0,0,0,1514,1514,1102,1927,1514,1550,1100,874,874,1100,874,874,874,874,874,1100,998,998,0,0,4
519559852,519559852,18,42,0,0,0,1514,1514,1102,1927,1514,1550,1100,874,874,1100,874,874,874,874,874,1100,998,998,0,0,4
519620245,519620245,18,42,0,0,0,1514,1514,1102,1927,1514,1550,1100,874,874,1100,874,874,874,874,874,1100,998,998,0,0,4
519679917,519679917,18,42,0,0,0,1514,1514,1102,1927,1514,1550,1100,874,874,1100,874,874,874,874,874,1100,998,998,0,0,4
519720005,519720005,18,42,0,0,0,1514,1514,1102,1927,1514,1550,1100,874,874,1100,874,874,874,874,874,1100,998,998,0,0,4
519780281,519780281,18,42,0,0,0,1514,1514,1102,1927,1514,1550,1100,874,874,1100,874,874,874,874,874,1100,998,998,0,0,4
519820315,519820315,18,42,0,0,0,1514,1514,1102,1927,1514,1550,1100,874,874,1100,874,874,874,874,874,1100,998,998,0,0,4
519880309,519880309,18,42,0,0,0,1514,1514,1102,1927,1514,1550,1100,874,874,1100,874,874,874,874,874,1100,998,998,0,0,4
519920245,519920245,18,42,0,0,0,1514,1514,1102,1927,1514,1550,1100,874,874,1100,874,874,874,874,874,1100,998,998,0,0,4
519980520,519980520,18,42,0,0,0,1514,1514,1102,1927,1514,1550,1100,874,874,1100,874,874,874,874,874,1100,998,998,0,0,4
520040365,520040365,18,42,0,0,0,1514,1514,1102,1927,1514,1550,1100,874,874,1100,874,874,874,874,874,1100,998,998,0,0,4
520080523,520080523,18,42,0,0,0,1514,1514,1102,1927,1514,1550,1100,874,874,1100,874,874,874,874,874,1100,998,998,0,0,4
520140653,520140653,18,42,0,0,0,1514,1514,1102,1927,1514,1550,1100,874,874,1100,874,874,874,874,874,1100,998,998,0,0,4
520180677,520180677,18,42,0,0,0,1514,1514,1102,1927,1514,1550,1100,874,874,1100,874,874,874,874,874,1100,998,998,0,0,4
520240498,520240498,18,42,0,0,0,1514,1514,1102,1927,1514,1550,1100,874,874,1100,874,874,874,874,874,1100,998,998,0,0,4
520280516,520280516,18,42,0,0,0,1514,1514,1102,1927,1514,1550,1100,874,874,1100,874,874,874,874,874,1100,998,998,0,0,4
520340895,520340895,18,42,0,0,0,1514,1514,1102,1927,1514,1550,1100,874,874,1100,874,874,874,874,874,1100,998,998,0,0,4
520400641,520400641,18,42,0,0,0,1514,1514,1102,1927,1514,1550,1100,874,874,1100,874,874,874,874,874,1100,998,998,0,0,4
520440695,520440695,18,42,0,0,0,1514,1514,1102,1927,1514,1550,1100,874,874,1100,874,874,874,874,874,1100,998,998,0,0,4
520500936,520500936,18,42,0,0,0,1514,1514,1102,1927,1514,1550,1100,874,874,1100,874,874,874,874,874,1100,998,998,0,0,4
520541101,520541101,18,42,0,0,0,1514,1514,1102,1927,1514,1550,1100,874,874,1100,874,874,874,874,874,1100,998,998,0,0,4
520600865,520600865,18,42,0,0,0,1514,1514,1102,1927,1514,1550,1100,874,874,1100,874,874,874,874,874,1100,998,998,0,0,4
520661288,520661288,18,42,0,0,0,1514,1514,1102,1927,1514,1550,1100,874,874,1100,874,874,874,874,874,1100,998,998,0,0,4
520701180,520701180,18,42,0,0,0,1514,1514,1102,1927,1514,1550,1100,874,874,1100,874,874,874,874,874,1100,998,998,0,0,4
520761040,520761040,18,42,0,0,0,1514,1514,1102,1927,1514,1550,1100,874,874,1100,874,874,874,874,874,1100,998,998,0,0,4
520801130,520801130,18,42,0,0,0,1514,1514,1102,1927,1514,1550,1100,874,874,1100,874,874,874,874,874,1100,998,998,0,0,4
520861481,520861481,18,42,0,0,0,1514,1514,1102,1927,1514,1550,1100,874,874,1100,874,874,874,874,874,1100,998,998,0,0,4
520921173,520921173,18,42,0,0,0,1514,1514,1102,1927,1514,1550,1100,874,874,1100,874,874,874,874,874,1100,998,998,0,0,4
520961323,520961323,18,42,0,0,0,1514,1514,1102,1927,1514,1550,1100,874,874,1100,874,874,874,874,874,1100,998,998,0,0,4
521021554,521021554,18,42,0,0,0,1514,1514,1102,1927,1514,1550,1100,874,874,1100,874,874,874,874,874,1100,998,998,0,0,4
521061587,521061587,18,42,0,0,0,1514,1514,1102,1927,1514,1550,1100,874,874,1100,874,874,874,874,874,1100,998,998,0,0,4
521121396,521121396,18,42,0,0,0,1514,1514,1102,1927,1514,1550,1100,874,874,1100,874,874,874,874,874,1100,998,998,0,0,4
521181728,521181728,18,42,0,0,0,1514,1514,1102,1927,1514,1550,1100,874,874,1100,874,874,874,874,874,1100,998,998,0,0,4
521221717,521221717,18,42,0,0,0,1514,1514,1102,1927,1514,1550,1100,874,874,1100,874,874,874,874,874,1100,998,998,0,0,4
521281601,521281601,18,42,0,0,0,1514,1514,1102,1927,1514,1550,1100,874,874,1100,874,874,874,874,874,1100,998,998,0,0,4
521321633,521321633,18,42,0,0,0,1514,1514,1102,1927,1514,1550,1100,874,874,1100,874,874,874,874,874,1100,998,998,0,0,4
521381963,521381963,18,42,0,0,0,1514,1514,1102,1927,1514,1550,1100,874,874,1100,874,874,874,874,874,1100,998,998,0,0,4
521441746,521441746,18,42,0,0,0,1514,1514,1102,1927,1514,1550,1100,874,874,1100,874,874,874,874,874,1100,998,998,0,0,4
521481875,521481875,18,42,0,0,0,1514,1514,1102,1900,1514,1550,1100,874,874,1100,874,874,874,874,874,1100,998,998,0,0,4
521542390,521542390,18,42,0,0,0,1514,1514,1475,1514,1514,1550,1100,874,874,1100,874,874,874,874,874,1100,998,998,0,0,4
521582271,521582271,18,42,0,0,0,1514,1514,1514,1514,1514,1550,1100,874,874,1100,874,874,874,874,874,1100,998,998,0,0,4
521641999,521641999,18,42,0,0,0,1514,1514,1514,1514,1514,1550,1100,874,874,1100,874,874,874,874,874,1100,998,998,0,0,4
521682013,521682013,18,42,0,0,0,1514,1514,1514,1514,1514,1550,1100,874,874,1100,874,874,874,874,874,1100,998,998,0,0,4
521742226,521742226,18,42,0,0,0,1514,1514,1514,1514,1514,1550,1100,874,874,1100,874,874,874,874,874,1100,998,998,0,0,4
521801968,521801968,18,42,0,0,0,1514,1514,1514,1514,1514,1550,1100,874,874,1100,874,874,874,874,874,1100,998,998,0,0,4
521842122,521842122,18,42,0,0,0,1514,1514,1514,1514,1514,1550,1100,874,874,1100,874,874,874,874,874,1100,998,998,0,0,4
521902395,521902395,18,42,0,0,0,1514,1514,1514,1514,1514,1550,1100,874,874,1100,874,874,874,874,874,1100,998,998,0,0,4
521962266,521962266,18,42,0,0,0,1514,1514,1514,1514,1514,1550,1100,874,874,1100,874,874,874,874,874,1100,998,998,0,0,4
521982640,521982640,18,42,0,0,0,1514,1514,1514,1514,1514,1550,1100,874,874,1100,874,874,874,874,874,1100,998,998,0,0,4
522062691,522062691,18,42,0,0,0,1514,1514,1514,1514,1514,1550,1100,874,874,1100,874,874,874,874,874,1100,998,998,0,0,4
522102645,522102645,18,42,0,0,0,1514,1514,1514,1514,1514,1550,1100,874,874,1100,874,874,874,874,874,1100,998,998,0,0,4
522162473,522162473,18,42,0,0,0,1514,1514,1514,1514,1514,1550,1100,874,874,1100,874,874,874,874,874,1100,998,998,0,0,4
522222802,522222802,18,42,0,0,0,1514,1514,1514,1514,1514,1550,1100,874,874,1100,874,874,874,874,874,1100,998,998,0,0,4
522262943,522262943,18,42,0,0,0,1514,1514,1514,1514,1514,1550,1100,874,874,1100,874,874,874,874,874,1100,998,998,0,0,4
522322663,522322663,18,42,0,0,0,1514,1514,1514,1514,1514,1550,1100,874,874,1100,874,874,874,874,874,1100,998,998,0,0,4
522362653,522362653,18,42,0,0,0,1514,1514,1514,1514,1514,1550,1100,874,874,1100,874,874,874,874,874,1100,998,998,0,0,4
522422945,522422945,18,42,0,0,0,1514,1514,1514,1514,1514,1550,1100,874,874,1100,874,874,874,874,874,1100,998,998,0,0,4
522482787,522482787,18,42,0,0,0,1514,1514,1514,1514,1514,1550,1100,874,874,1100,874,874,874,874,874,1100,998,998,0,0,4
522522760,522522760,18,42,0,0,0,1514,1514,1514,1514,1514,1550,1100,874,874,1100,874,874,874,874,874,1100,998,998,0,0,4
522583061,522583061,18,42,0,0,0,1514,1514,1514,1514,1514,1550,1100,874,874,1100,874,874,874,874,874,1100,998,998,0,0,4
522642926,522642926,18,42,0,0,0,1514,1514,1514,1514,1514,1550,1100,874,874,1100,874,874,874,874,874,1100,998,998,0,0,4
522682922,522682922,18,42,0,0,0,1514,1514,1514,1514,1514,1550,1100,874,874,1100,874,874,874,874,874,1100,998,998,0,0,4
522743290,522743290,18,42,0,0,0,1514,1514,1514,1514,1514,1550,1100,874,874,1100,874,874,874,874,874,1100,998,998,0,0,4
522783330,522783330,18,42,0,0,0,1514,1514,1514,1514,1514,1550,1100,874,874,1100,874,874,874,874,874,1100,998,998,0,0,4
522843119,522843119,18,42,0,0,0,1514,1514,1514,1514,1514,1550,1100,874,874,1100,874,874,874,874,874,1100,998,998,0,0,4
522883119,522883119,18,42,0,0,0,1514,1514,1514,1514,1514,1550,1100,874,874,1100,874,874,874,874,874,1100,998,998,0,0,4
522943595,522943595,18,42,0,0,0,1514,1514,1514,1514,1514,1550,1100,874,874,1100,874,874,874,874,874,1100,998,998,0,0,4
523003322,523003322,18,42,0,0,0,1514,1514,1514,1514,1514,1550,1100,874,874,1100,874,874,874,874,874,1100,998,998,0,0,4
523043319,523043319,18,42,0,0,0,1514,1514,1514,1514,1514,1550,1100,874,874,1100,874,874,874,874,874,1100,998,998,0,0,4
523103750,523103750,18,42,0,0,0,1514,1514,1514,1514,1514,1550,1100,874,874,1100,874,874,874,874,874,1100,998,998,0,0,4
523143621,523143621,18,42,0,0,0,1514,1514,1514,1514,1514,1550,1100,874,874,1100,874,874,874,874,874,1100,998,998,0,0,4
523203496,523203496,18,42,0,0,0,1514,1514,1514,1514,1514,1550,1100,874,874,1100,874,874,874,874,874,1100,998,998,0,0,4
523263865,523263865,18,42,0,0,0,1514,1514,1514,1514,1514,1550,1100,874,874,1100,874,874,874,874,874,1100,998,998,0,0,4
523303815,523303815,18,42,0,0,0,1514,1514,1514,1514,1514,1550,1100,874,874,1100,874,874,874,874,874,1100,998,998,0,0,4
523363677,523363677,18,42,0,0,0,1514,1514,1514,1514,1514,1550,1100,874,874,1100,874,874,874,874,874,1100,998,998,0,0,4
523403575,523403575,18,42,0,0,0,1514,1514,1514,1514,1514,1550,1100,874,874,1100,874,874,874,874,874,1100,998,998,0,0,4
523464049,523464049,18,42,0,0,0,1514,1514,1514,1514,1514,1550,1100,874,874,1100,874,874,874,874,874,1100,998,998,0,0,4
523523788,523523788,18,42,0,0,0,1514,1514,1514,1514,1514,1550,1100,874,874,1100,874,874,874,874,874,1100,998,998,0,0,4
523563933,523563933,18,42,0,0,0,1514,1514,1514,1514,1514,1550,1100,874,874,1100,874,874,874,874,874,1100,998,998,0,0,4
523624119,523624119,18,42,0,0,0,1514,1514,1514,1514,1514,1550,1100,874,874,1100,874,874,874,874,874,1100,998,998,0,0,4
523683900,523683900,18,42,0,0,0,1514,1514,1514,1514,1514,1550,1100,874,874,1100,874,874,874,874,874,1100,998,998,0,0,4
523723999,523723999,18,42,0,0,0,1514,1514,1514,1514,1514,1550,1100,874,874,1100,874,874,874,874,874,1100,998,998,0,0,4
523784317,523784317,18,42,0,0,0,1514,1514,1514,1514,1514,1550,1100,874,874,1100,874,874,874,874,874,1100,998,998,0,0,4
523824313,523824313,18,42,0,0,0,1514,1514,1514,1514,1514,1550,1100,874,874,1100,874,874,874,874,874,1100,998,998,0,0,4
523864519,523864519,18,42,0,0,0,1514,1514,1514,1514,1514,1550,1100,874,874,1100,874,874,874,874,874,1100,998,998,0,0,4
523924350,523924350,18,42,0,0,0,1514,1514,1514,1514,1514,1550,1100,874,874,1100,874,874,874,874,874,1100,998,998,0,0,4
523964372,523964372,18,42,0,0,0,1514,1514,1514,1514,1514,1550,1100,874,874,1100,874,874,874,874,874,1100,998,998,0,0,4
524024699,524024699,18,42,0,0,0,1514,1514,1514,1514,1514,1550,1100,874,874,1100,874,874,874,874,874,1100,998,998,0,0,4
524064699,524064699,18,42,0,0,0,1514,1514,1514,1514,1514,1550,1100,874,874,1100,874,874,874,874,874,1100,998,998,0,0,4
524144614,524144614,18,42,0,0,0,1514,1514,1514,1514,1514,1550,1100,874,874,1100,874,874,874,874,874,1100,998,998,0,0,4
524204512,524204512,18,42,0,0,0,1514,1514,1514,1514,1514,1550,1100,874,874,1100,874,874,874,874,874,1100,998,998,0,0,4
524244523,524244523,18,42,0,0,0,1514,1514,1514,1514,1514,1550,1100,874,874,1100,874,874,874,874,874,1100,998,998,0,0,4
524304902,524304902,18,42,0,0,0,1514,1514,1514,1514,1514,1550,1100,874,874,1100,874,874,874,874,874,1100,998,998,0,0,4
524345048,524345048,18,42,0,0,0,1514,1514,1514,1514,1514,1550,1100,874,874,1100,874,874,874,874,874,1100,998,998,0,0,4
524404822,524404822,18,42,0,0,0,1514,1514,1514,1514,1514,1550,1100,874,874,1100,874,874,874,874,874,1100,998,998,0,0,4
524465134,524465134,18,42,0,0,0,1514,1514,1514,1514,1514,1550,1100,874,874,1100,874,874,874,874,874,1100,998,998,0,0,4
524484848,524484848,18,42,0,0,0,1514,1514,1514,1514,1514,1550,1100,874,874,1100,874,874,874,874,874,1100,998,998,0,0,4
524564873,524564873,18,42,0,0,0,1514,1514,1514,1514,1514,1550,1100,874,874,1100,874,874,874,874,874,1100,998,998,0,0,4
524625089,524625089,18,42,0,0,0,1514,1514,1514,1514,1514,1550,1100,874,874,1100,874,874,874,874,874,1100,998,998,0,0,4
524665340,524665340,18,42,0,0,0,1514,1514,1514,1514,1514,1550,1100,874,874,1100,874,874,874,874,874,1100,998,998,0,0,4
524725063,524725063,18,42,0,0,0,1514,1514,1514,1514,1514,1550,1100,874,874,1100,874,874,874,874,874,1100,998,998,0,0,4
524765040,524765040,18,42,0,0,0,1514,1514,1537,1514,1514,1550,1100,874,874,1100,874,874,874,874,874,1100,998,998,0,0,4
524825485,524825485,18,42,0,0,0,1514,1514,1574,1514,1514,1550,1100,874,874,1100,874,874,874,874,874,1100,998,998,0,0,4
524885132,524885132,18,42,0,0,0,1514,1514,1572,1514,1514,1550,1100,874,874,1100,874,874,874,874,874,1100,998,998,0,0,4
524925155,524925155,18,42,0,0,0,1514,1514,1578,1514,1514,1550,1100,874,874,1100,874,874,874,874,874,1100,998,998,0,0,4
524985459,524985459,18,42,0,0,0,1514,1514,1598,1514,1514,1550,1100,874,874,1100,874,874,874,874,874,1100,998,998,0,0,4
525045408,525045408,18,42,0,0,0,1514,1514,1615,1514,1514,1550,1100,874,874,1100,874,874,874,874,874,1100,998,998,0,0,4
525085334,525085334,18,42,0,0,0,1514,1514,1617,1514,1514,1550,1100,874,874,1100,874,874,874,874,874,1100,998,998,0,0,4
525145716,525145716,18,42,0,0,0,1514,1514,1608,1514,1514,1550,1100,874,874,1100,874,874,874,874,874,1100,998,998,0,0,4
525185757,525185757,18,42,0,0,0,1514,1514,1610,1514,1514,1550,1100,874,874,1100,874,874,874,874,874,1100,998,998,0,0,4
525245477,525245477,18,42,0,0,0,1514,1514,1615,1514,1514,1550,1100,874,874,1100,874,874,874,874,874,1100,998,998,0,0,4
525285517,525285517,18,42,0,0,0,1514,1514,1621,1514,1514,1550,1100,874,874,1100,874,874,874,874,874,1100,998,998,0,0,4
525346106,525346106,18,42,0,0,0,1514,1514,1615,1514,1514,1550,1100,874,874,1100,874,874,874,874,874,1100,998,998,0,0,4
525405856,525405856,18,42,0,0,0,1514,1514,1608,1514,1514,1550,1100,874,874,1100,874,874,874,874,874,1100,998,998,0,0,4
525445706,525445706,18,42,0,0,0,1514,1514,1613,1514,1514,1550,1100,874,874,1100,874,874,874,874,874,1100,998,998,0,0,4
525506013,525506013,18,42,0,0,0,1514,1514,1621,1514,1514,1550,1100,874,874,1100,874,874,874,874,874,1100,998,998,0,0,4
525546033,525546033,18,42,0,0,0,1514,1514,1633,1514,1514,1550,1100,874,874,1100,874,874,874,874,874,1100,998,998,0,0,4
525605962,525605962,18,42,0,0,0,1514,1514,1633,1514,1514,1550,1100,874,874,1100,874,874,874,874,874,1100,998,998,0,0,4
525645930,525645930,18,42,0,0,0,1514,1514,1633,1514,1514,1550,1100,874,874,1100,874,874,874,874,874,1100,998,998,0,0,4
525706283,525706283,18,42,0,0,0,1514,1514,1647,1514,1514,1550,1100,874,874,1100,874,874,874,874,874,1100,998,998,0,0,4
525766002,525766002,18,42,0,0,0,1514,1514,1650,1514,1514,1550,1100,874,874,1100,874,874,874,874,874,1100,998,998,0,0,4
525806092,525806092,18,42,0,0,0,1514,1514,1663,1514,1514,1550,1100,874,874,1100,874,874,874,874,874,1100,998,998,0,0,4
525866395,525866395,18,42,0,0,0,1514,1514,1693,1514,1514,1550,1100,874,874,1100,874,874,874,874,874,1100,998,998,0,0,4
525926133,525926133,18,42,0,0,0,1514,1514,1710,1514,1514,1550,1100,874,874,1100,874,874,874,874,874,1100,998,998,0,0,4
525966233,525966233,18,42,0,0,0,1514,1514,1712,1514,1514,1550,1100,874,874,1100,874,874,874,874,874,1100,998,998,0,0,4
526026660,526026660,18,42,0,0,0,1514,1514,1712,1514,1514,1550,1100,874,874,1100,874,874,874,874,874,1100,998,998,0,0,4
526066780,526066780,18,42,0,0,0,1514,1514,1707,1514,1514,1550,1100,874,874,1100,874,874,874,874,874,1100,998,998,0,0,4
526126444,526126444,18,42,0,0,0,1514,1514,1707,1514,1514,1550,1100,874,874,1100,874,874,874,874,874,1100,998,998,0,0,4
526186943,526186943,18,42,0,0,0,1514,1514,1705,1514,1514,1550,1100,874,874,1100,874,874,874,874,874,1100,998,998,0,0,4
526226729,526226729,18,42,0,0,0,1514,1514,1700,1514,1514,1550,1100,874,874,1100,874,874,874,874,874,1100,998,998,0,0,4
526286535,526286535,18,42,0,0,0,1514,1514,1686,1514,1514,1550,1100,874,874,1100,874,874,874,874,874,1100,998,998,0,0,4
526326650,526326650,18,42,0,0,0,1514,1514,1698,1514,1514,1550,1100,874,874,1100,874,874,874,874,874,1100,998,998,0,0,4
526386940,526386940,18,42,0,0,0,1514,1514,1703,1514,1514,1550,1100,874,874,1100,874,874,874,874,874,1100,998,998,0,0,4
526446827,526446827,18,42,0,0,0,1514,1514,1692,1514,1514,1550,1100,874,874,1100,874,874,874,874,874,1100,998,998,0,0,4
526486805,526486805,18,42,0,0,0,1514,1514,1692,1514,1514,1550,1100,874,874,1100,874,874,874,874,874,1100,998,998,0,0,4
526547069,526547069,18,42,0,0,0,1514,1514,1701,1514,1514,1550,1100,874,874,1100,874,874,874,874,874,1100,998,998,0,0,4
526566806,526566806,18,42,0,0,0,1514,1514,1704,1514,1514,1550,1100,874,874,1100,874,874,874,874,874,1100,998,998,0,0,4
526646919,526646919,18,42,0,0,0,1514,1514,1707,1514,1514,1550,1100,874,874,1100,874,874,874,874,874,1100,998,998,0,0,4
526707304,526707304,18,42,0,0,0,1514,1514,1706,1514,1514,1550,1100,874,874,1100,874,874,874,874,874,1100,998,998,0,0,4
526747306,526747306,18,42,0,0,0,1514,1514,1701,1514,1514,1550,1100,874,874,1100,874,874,874,874,874,1100,998,998,0,0,4
526807079,526807079,18,42,0,0,0,1514,1514,1701,1514,1514,1550,1100,874,874,1100,874,874,874,874,874,1100,998,998,0,0,4
526867525,526867525,18,42,0,0,0,1514,1514,1703,1514,1514,1550,1100,874,874,1100,874,874,874,874,874,1100,998,998,0,0,4
526907472,526907472,18,42,0,0,0,1514,1514,1702,1514,1514,1550,1100,874,874,1100,874,874,874,874,874,1100,998,998,0,0,4
526967263,526967263,18,42,0,0,0,1514,1514,1705,1514,1514,1550,1100,874,874,1100,874,874,874,874,874,1100,998,998,0,0,4
527007260,527007260,18,42,0,0,0,1514,1514,1706,1514,1514,1550,1100,874,874,1100,874,874,874,874,874,1100,998,998,0,0,4
527067689,527067689,18,42,0,0,0,1514,1514,1710,1514,1514,1550,1100,874,874,1100,874,874,874,874,874,1100,998,998,0,0,4
527127441,527127441,18,42,0,0,0,1514,1514,1712,1514,1514,1550,1100,874,874,1100,874,874,874,874,874,1100,998,998,0,0,4
527167451,527167451,18,42,0,0,0,1514,1514,1712,1514,1514,1550,1100,874,874,1100,874,874,874,874,874,1100,998,998,0,0,4
527227877,527227877,18,42,0,0,0,1514,1514,1708,1514,1514,1550,1100,874,874,1100,874,874,874,874,874,1100,998,998,0,0,4
527287751,527287751,18,42,0,0,0,1514,1514,1714,1514,1514,1550,1100,874,874,1100,874,874,874,874,874,1100,998,998,0,0,4
527327615,527327615,18,42,0,0,0,1514,1514,1710,1514,1514,1550,1100,874,874,1100,874,874,874,874,874,1100,998,998,0,0,4
527388014,527388014,18,42,0,0,0,1514,1514,1707,1514,1514,1550,1100,874,874,1100,874,874,874,874,874,1100,998,998,0,0,4
527428016,527428016,18,42,0,0,0,1514,1514,1708,1514,1514,1550,1100,874,874,1100,874,874,874,874,874,1100,998,998,0,0,4
527487738,527487738,18,42,0,0,0,1514,1514,1710,1514,1514,1550,1100,874,874,1100,874,874,874,874,874,1100,998,998,0,0,4
527548108,527548108,18,42,0,0,0,1514,1514,1710,1514,1514,1550,1100,874,874,1100,874,874,874,874,874,1100,998,998,0,0,4
527588111,527588111,18,42,0,0,0,1514,1514,1706,1514,1514,1550,1100,874,874,1100,874,874,874,874,874,1100,998,998,0,0,4
527648024,527648024,18,42,0,0,0,1514,1514,1706,1514,1514,1550,1100,874,874,1100,874,874,874,874,874,1100,998,998,0,0,4
527688077,527688077,18,42,0,0,0,1514,1514,1712,1514,1514,1550,1100,874,874,1100,874,874,874,874,874,1100,998,998,0,0,4
527748413,527748413,18,42,0,0,0,1514,1514,1715,1514,1514,1550,1100,874,874,1100,874,874,874,874,874,1100,998,998,0,0,4
527808115,527808115,18,42,0,0,0,1514,1514,1706,1514,1514,1550,1100,874,874,1100,874,874,874,874,874,1100,998,998,0,0,4
527848284,527848284,18,42,0,0,0,1514,1514,1703,1514,1514,1550,1100,874,874,1100,874,874,874,874,874,1100,998,998,0,0,4
527908556,527908556,18,42,0,0,0,1514,1514,1710,1514,1514,1550,1100,874,874,1100,874,874,874,874,874,1100,998,998,0,0,4
527948629,527948629,18,42,0,0,0,1514,1514,1714,1514,1514,1550,1100,874,874,1100,874,874,874,874,874,1100,998,998,0,0,4
528008391,528008391,18,42,0,0,0,1514,1514,1713,1514,1514,1550,1100,874,874,1100,874,874,874,874,874,1100,998,998,0,0,4
528068683,528068683,18,42,0,0,0,1514,1514,1725,1514,1514,1550,1100,874,874,1100,874,874,874,874,874,1100,998,998,0,0,4
528108824,528108824,18,42,0,0,0,1514,1514,1733,1514,1514,1550,1100,874,874,1100,874,874,874,874,874,1100,998,998,0,0,4
528168560,528168560,18,42,0,0,0,1514,1514,1740,1514,1514,1550,1100,874,874,1100,874,874,874,874,874,1100,998,998,0,0,4
528208674,528208674,18,42,0,0,0,1514,1514,1738,1514,1514,1550,1100,874,874,1100,874,874,874,874,874,1100,998,998,0,0,4
528268912,528268912,18,42,0,0,0,1514,1514,1723,1514,1514,1550,1100,874,874,1100,874,874,874,874,874,1100,998,998,0,0,4
528309034,528309034,18,42,0,0,0,1514,1514,1725,1514,1514,1550,1100,874,874,1100,874,874,874,874,874,1100,998,998,0,0,4
528368745,528368745,18,42,0,0,0,1514,1514,1727,1514,1514,1550,1100,874,874,1100,874,874,874,874,874,1100,998,998,0,0,4
528429035,528429035,18,42,0,0,0,1514,1514,1725,1514,1514,1550,1100,874,874,1100,874,874,874,874,874,1100,998,998,0,0,4
528448856,528448856,18,42,0,0,0,1514,1514,1725,1514,1514,1550,1100,874,874,1100,874,874,874,874,874,1100,998,998,0,0,4
528528890,528528890,18,42,0,0,0,1514,1514,1722,1514,1514,1550,1100,874,874,1100,874,874,874,874,874,1100,998,998,0,0,4
528589062,528589062,18,42,0,0,0,1514,1514,1722,1514,1514,1550,1100,874,874,1100,874,874,874,874,874,1100,998,998,0,0,4
528629150,528629150,18,42,0,0,0,1514,1514,1720,1514,1514,1550,1100,874,874,1100,874,874,874,874,874,1100,998,998,0,0,4
528669315,528669315,18,42,0,0,0,1514,1514,1713,1514,1514,1550,1100,874,874,1100,874,874,874,874,874,1100,998,998,0,0,4
528729039,528729039,18,42,0,0,0,1514,1514,1713,1514,1514,1550,1100,874,874,1100,874,874,874,874,874,1100,998,998,0,0,4
528789326,528789326,18,42,0,0,0,1514,1514,1712,1514,1514,1550,1100,874,874,1100,874,874,874,874,874,1100,998,998,0,0,4
528849161,528849161,18,42,0,0,0,1514,1504,1712,1514,1514,1550,1100,874,874,1100,874,874,874,874,874,1100,998,998,0,0,4
528889220,528889220,18,42,0,0,0,1514,1492,1713,1514,1514,1550,1100,874,874,1100,874,874,874,874,874,1100,998,998,0,0,4
528949474,528949474,18,42,0,0,0,1514,1492,1713,1514,1514,1550,1100,874,874,1100,874,874,874,874,874,1100,998,998,0,0,4
528989437,528989437,18,42,0,0,0,1514,1495,1716,1514,1514,1550,1100,874,874,1100,874,874,874,874,874,1100,998,998,0,0,4
529049318,529049318,18,42,0,0,0,1514,1491,1713,1514,1514,1550,1100,874,874,1100,874,874,874,874,874,1100,998,998,0,0,4
529109707,529109707,18,42,0,0,0,1514,1491,1713,1514,1514,1550,1100,874,874,1100,874,874,874,874,874,1100,998,998,0,0,4
529149701,529149701,18,42,0,0,0,1514,1473,1710,1514,1514,1550,1100,874,874,1100,874,874,874,874,874,1100,998,998,0,0,4
529209464,529209464,18,42,0,0,0,1514,1463,1712,1514,1514,1550,1100,874,874,1100,874,874,874,874,874,1100,998,998,0,0,4
529229892,529229892,18,42,0,0,0,1514,1463,1712,1514,1514,1550,1100,874,874,1100,874,874,874,874,874,1100,998,998,0,0,4
529309863,529309863,18,42,0,0,0,1514,1412,1714,1514,1514,1550,1100,874,874,1100,874,874,874,874,874,1100,998,998,0,0,4
529369667,529369667,18,42,0,0,0,1514,1347,1713,1514,1514,1550,1100,874,874,1100,874,874,874,874,874,1100,998,998,0,0,4
529409673,529409673,18,42,0,0,0,1514,1347,1709,1514,1514,1550,1100,874,874,1100,874,874,874,874,874,1100,998,998,0,0,4
529470005,529470005,18,42,0,0,0,1514,1312,1709,1514,1514,1550,1100,874,874,1100,874,874,874,874,874,1100,998,998,0,0,4
529529936,529529936,18,42,0,0,0,1514,1313,1713,1514,1514,1550,1100,874,874,1100,874,874,874,874,874,1100,998,998,0,0,4
529550235,529550235,18,42,0,0,0,1514,1313,1713,1514,1514,1550,1100,874,874,1100,874,874,874,874,874,1100,998,998,0,0,4
529630237,529630237,18,42,0,0,0,1514,1337,1713,1514,1514,1550,1100,874,874,1100,874,874,874,874,874,1100,998,998,0,0,4
529689951,529689951,18,42,0,0,0,1514,1351,1713,1514,1514,1550,1100,874,874,1100,874,874,874,874,874,1100,998,998,0,0,4
529729969,529729969,18,42,0,0,0,1514,1351,1713,1514,1514,1550,1100,874,874,1100,874,874,874,874,874,1100,998,998,0,0,4
529790347,529790347,18,42,0,0,0,1514,1351,1713,1514,1514,1550,1100,874,874,1100,874,874,874,874,874,1100,998,998,0,0,4
529830344,529830344,18,42,0,0,0,1514,1351,1713,1514,1514,1550,1100,874,874,1100,874,874,874,874,874,1100,998,998,0,0,4
529890150,529890150,18,42,0,0,0,1514,1392,1708,1514,1514,1550,1100,874,874,1100,874,874,874,874,874,1100,998,998,0,0,4
529950440,529950440,18,42,0,0,0,1514,1469,1708,1514,1514,1550,1100,874,874,1100,874,874,874,874,874,1100,998,998,0,0,4
529990659,529990659,18,42,0,0,0,1514,1503,1708,1514,1514,1550,1100,874,874,1100,874,874,874,874,874,1100,998,998,0,0,4
530050310,530050310,18,42,0,0,0,1514,1514,1704,1514,1514,1550,1100,874,874,1100,874,874,874,874,874,1100,998,998,0,0,4
530090328,530090328,18,42,0,0,0,1514,1514,1705,1514,1514,1550,1100,874,874,1100,874,874,874,874,874,1100,998,998,0,0,4
530150691,530150691,18,42,0,0,0,1514,1514,1698,1514,1514,1550,1100,874,874,1100,874,874,874,874,874,1100,998,998,0,0,4
530210527,530210527,18,42,0,0,0,1357,1514,1685,1514,1514,1550,1100,874,874,1100,874,874,874,874,874,1100,998,998,0,0,4
530250722,530250722,18,42,0,0,0,1357,1514,1685,1514,1514,1550,1100,874,874,1100,874,874,874,874,874,1100,998,998,0,0,4
530290754,530290754,18,42,0,0,0,1102,1523,1685,1514,1514,1550,1100,874,874,1100,874,874,874,874,874,1100,998,998,0,0,4
530351090,530351090,18,42,0,0,0,1102,1514,1685,1514,1514,1550,1100,874,874,1100,874,874,874,874,874,1100,998,998,0,0,4
530391120,530391120,18,42,0,0,0,1102,1514,1683,1514,1514,1550,1100,874,874,1100,874,874,874,874,874,1100,998,998,0,0,4
530471077,530471077,18,42,0,0,0,1353,1514,1683,1514,1514,1550,1100,874,874,1100,874,874,874,874,874,1100,998,998,0,0,4
530511014,530511014,18,42,0,0,0,1438,1514,1683,1514,1514,1550,1100,874,874,1100,874,874,874,874,874,1100,998,998,0,0,4
530570803,530570803,18,42,0,0,0,1433,1514,1685,1514,1514,1550,1100,874,874,1100,874,874,874,874,874,1100,998,998,0,0,4
530631201,530631201,18,42,0,0,0,1459,1514,1687,1514,1514,1550,1100,874,874,1100,874,874,874,874,874,1100,998,998,0,0,4
530671222,530671222,18,42,0,0,0,1480,1514,1687,1514,1514,1550,1100,874,874,1100,874,874,874,874,874,1100,998,998,0,0,4
530730954,530730954,18,42,0,0,0,1494,1514,1691,1514,1514,1550,1100,874,874,1100,874,874,874,874,874,1100,998,998,0,0,4
530791439,530791439,18,42,0,0,0,1514,1514,1680,1514,1514,1550,1100,874,874,1100,874,874,874,874,874,1100,998,998,0,0,4
530831440,530831440,18,42,0,0,0,1533,1514,1686,1514,1514,1550,1100,874,874,1100,874,874,874,874,874,1100,998,998,0,0,4
530891110,530891110,18,42,0,0,0,1827,1514,1686,1514,1514,1550,1100,874,874,1100,874,874,874,874,874,1100,998,998,0,0,4
530951475,530951475,18,42,0,0,0,1927,1514,1686,1514,1514,1550,1100,874,874,1100,874,874,874,874,874,1100,998,998,0,0,4
530991466,530991466,18,42,0,0,0,1927,1514,1681,1514,1514,1550,1100,874,874,1100,874,874,874,874,874,1100,998,998,0,0,4
531051320,531051320,18,42,0,0,0,1927,1514,1680,1514,1514,1550,1100,874,874,1100,874,874,874,874,874,1100,998,998,0,0,4
531091486,531091486,18,42,0,0,0,1927,1514,1685,1514,1514,1550,1100,874,874,1100,874,874,874,874,874,1100,998,998,0,0,4
531131437,531131437,18,42,0,0,0,1927,1514,1686,1514,1514,1550,1100,874,874,1100,874,874,874,874,874,1100,998,998,0,0,4
531211525,531211525,18,42,0,0,0,1909,1514,1681,1514,1514,1550,1100,874,874,1100,874,874,874,874,874,1100,998,998,0,0,4
531251804,531251804,18,42,0,0,0,1890,1514,1677,1514,1514,1550,1100,874,874,1100,874,874,874,874,874,1100,998,998,0,0,4
531311863,531311863,18,42,0,0,0,1832,1514,1679,1514,1514,1550,1100,874,874,1100,874,874,874,874,874,1100,998,998,0,0,4
531351835,531351835,18,42,0,0,0,1637,1514,1678,1514,1514,1550,1100,874,874,1100,874,874,874,874,874,1100,998,998,0,0,4
531411719,531411719,18,42,0,0,0,1620,1514,1681,1514,1514,1550,1100,874,874,1100,874,874,874,874,874,1100,998,998,0,0,4
531472039,531472039,18,42,0,0,0,1540,1514,1679,1514,1514,1550,1100,874,874,1100,874,874,874,874,874,1100,998,998,0,0,4
531531827,531531827,18,42,0,0,0,1514,1514,1677,1514,1514,1550,1100,874,874,1100,874,874,874,874,874,1100,998,998,0,0,4
531571849,531571849,18,42,0,0,0,1514,1514,1678,1514,1514,1550,1100,874,874,1100,874,874,874,874,874,1100,998,998,0,0,4
531632273,531632273,18,42,0,0,0,1514,1514,1679,1514,1514,1550,1100,874,874,1100,874,874,874,874,874,1100,998,998,0,0,4
531691940,531691940,18,42,0,0,0,1514,1514,1677,1514,1514,1550,1100,874,874,1100,874,874,874,874,874,1100,998,998,0,0,4
531732102,531732102,18,42,0,0,0,1514,1514,1675,1514,1514,1550,1100,874,874,1100,874,874,874,874,874,1100,998,998,0,0,4
531792384,531792384,18,42,0,0,0,1514,1514,1674,1514,1514,1550,1100,874,874,1100,874,874,874,874,874,1100,998,998,0,0,4
531832495,531832495,18,42,0,0,0,1514,1514,1681,1514,1514,1550,1100,874,874,1100,874,874,874,874,874,1100,998,998,0,0,4
531892350,531892350,18,42,0,0,0,1514,1553,1685,1514,1514,1550,1100,874,874,1100,874,874,874,874,874,1100,998,998,0,0,4
531932356,531932356,18,42,0,0,0,1491,1652,1680,1514,1514,1550,1100,874,874,1100,874,874,874,874,874,1100,998,998,0,0,4
531992529,531992529,18,42,0,0,0,1468,1927,1683,1514,1514,1550,1100,874,874,1100,874,874,874,874,874,1100,998,998,0,0,4
532052314,532052314,18,42,0,0,0,1471,1927,1679,1514,1514,1550,1100,874,874,1100,874,874,874,874,874,1100,998,998,0,0,4
532092364,532092364,18,42,0,0,0,1471,1927,1679,1514,1514,1550,1100,874,874,1100,874,874,874,874,874,1100,998,998,0,0,4
532152618,532152618,18,42,0,0,0,1494,1927,1675,1514,1514,1550,1100,874,874,1100,874,874,874,874,874,1100,998,998,0,0,4
532212556,532212556,18,42,0,0,0,1494,1927,1675,1514,1514,1550,1100,874,874,1100,874,874,874,874,874,1100,998,998,0,0,4
532272818,532272818,18,42,0,0,0,1514,1688,1673,1514,1514,1550,1100,874,874,1100,874,874,874,874,874,1100,998,998,0,0,4
532312856,532312856,18,42,0,0,0,1514,1683,1675,1514,1514,1550,1100,874,874,1100,874,874,874,874,874,1100,998,998,0,0,4
532372729,532372729,18,42,0,0,0,1514,1640,1675,1514,1514,1550,1100,874,874,1100,874,874,874,874,874,1100,998,998,0,0,4
532412696,532412696,18,42,0,0,0,1514,1648,1680,1514,1514,1550,1100,874,874,1100,874,874,874,874,874,1100,998,998,0,0,4
532473032,532473032,18,42,0,0,0,1514,1592,1678,1514,1514,1550,1100,874,874,1100,874,874,874,874,874,1100,998,998,0,0,4
532532835,532532835,18,42,0,0,0,1514,1550,1672,1514,1514,1550,1100,874,874,1100,874,874,874,874,874,1100,998,998,0,0,4
532572887,532572887,18,42,0,0,0,1514,1514,1669,1514,1514,1550,1100,874,874,1100,874,874,874,874,874,1100,998,998,0,0,4
532633161,532633161,18,42,0,0,0,1514,1514,1668,1514,1514,1550,1100,874,874,1100,874,874,874,874,874,1100,998,998,0,0,4
532673171,532673171,18,42,0,0,0,1514,1514,1670,1514,1514,1550,1100,874,874,1100,874,874,874,874,874,1100,998,998,0,0,4
532733319,532733319,18,42,0,0,0,1514,1514,1672,1514,1514,1550,1100,874,874,1100,874,874,874,874,874,1100,998,998,0,0,4
532773209,532773209,18,42,0,0,0,1514,1514,1670,1514,1514,1550,1100,874,874,1100,874,874,874,874,874,1100,998,998,0,0,4
532833472,532833472,18,42,0,0,0,1514,1514,1669,1514,1514,1550,1100,874,874,1100,874,874,874,874,874,1100,998,998,0,0,4
532893164,532893164,18,42,0,0,0,1514,1399,1667,1514,1514,1550,1100,874,874,1100,874,874,874,874,874,1100,998,998,0,0,4
532953431,532953431,18,42,0,0,0,1514,1102,1673,1514,1514,1550,1100,874,874,1100,874,874,874,874,874,1100,998,998,0,0,4
532993479,532993479,18,42,0,0,0,1514,1102,1673,1514,1514,1550,1100,874,874,1100,874,874,874,874,874,1100,998,998,0,0,4
533053315,533053315,18,42,0,0,0,1514,1102,1680,1514,1514,1550,1100,874,874,1100,874,874,874,874,874,1100,998,998,0,0,4
533113605,533113605,18,42,0,0,0,1514,1102,1681,1514,1514,1550,1100,874,874,1100,874,874,874,874,874,1100,998,998,0,0,4
533153705,533153705,18,42,0,0,0,1514,1102,1680,1514,1514,1550,1100,874,874,1100,874,874,874,874,874,1100,998,998,0,0,4
533193837,533193837,18,42,0,0,0,1514,1102,1668,1514,1514,1550,1100,874,874,1100,874,874,874,874,874,1100,998,998,0,0,4
533253623,533253623,18,42,0,0,0,1514,1102,1670,1514,1514,1550,1100,874,874,1100,874,874,874,874,874,1100,998,998,0,0,4
533313834,533313834,18,42,0,0,0,1514,1102,1670,1514,1514,1550,1100,874,874,1100,874,874,874,874,874,1100,998,998,0,0,4
533373679,533373679,18,42,0,0,0,1514,1102,1668,1514,1514,1550,1100,874,874,1100,874,874,874,874,874,1100,998,998,0,0,4
533413663,533413663,18,42,0,0,0,1514,1102,1665,1514,1514,1550,1100,874,874,1100,874,874,874,874,874,1100,998,998,0,0,4
533453849,533453849,18,42,0,0,0,1514,1226,1672,1514,1514,1550,1100,874,874,1100,874,874,874,874,874,1100,998,998,0,0,4
533513999,533513999,18,42,0,0,0,1514,1448,1670,1514,1514,1550,1100,874,874,1100,874,874,874,874,874,1100,998,998,0,0,4
533573881,533573881,18,42,0,0,0,1514,1514,1648,1514,1514,1550,1100,874,874,1100,874,874,874,874,874,1100,998,998,0,0,4
533634325,533634325,18,42,0,0,0,1514,1514,1651,1514,1514,1550,1100,874,874,1100,874,874,874,874,874,1100,998,998,0,0,4
533674318,533674318,18,42,0,0,0,1514,1514,1662,1514,1514,1550,1100,874,874,1100,874,874,874,874,874,1100,998,998,0,0,4
533734005,533734005,18,42,0,0,0,1514,1514,1648,1514,1514,1550,1100,874,874,1100,874,874,874,874,874,1100,998,998,0,0,4
533794243,533794243,18,42,0,0,0,1514,1514,1638,1514,1514,1550,1100,874,874,1100,874,874,874,874,874,1100,998,998,0,0,4
533834277,533834277,18,42,0,0,0,1514,1514,1628,1514,1514,1550,1100,874,874,1100,874,874,874,874,874,1100,998,998,0,0,4
533894155,533894155,18,42,0,0,0,1514,1514,1616,1514,1514,1550,1100,874,874,1100,874,874,874,874,874,1100,998,998,0,0,4
533954522,533954522,18,42,0,0,0,1514,1514,1525,1514,1514,1550,1100,874,874,1100,874,874,874,874,874,1100,998,998,0,0,4
533994642,533994642,18,42,0,0,0,1514,1514,1514,1525,1514,1550,1100,874,874,1100,874,874,874,874,874,1100,998,998,0,0,4
534054404,534054404,18,42,0,0,0,1514,1514,1514,1514,1514,1550,1100,874,874,1100,874,874,874,874,874,1100,998,998,0,0,4
534114731,534114731,18,42,0,0,0,1514,1514,1402,1514,1514,1550,1100,874,874,1100,874,874,874,874,874,1100,998,998,0,0,4
534154740,534154740,18,42,0,0,0,1514,1514,1157,1514,1514,1550,1100,874,874,1100,874,874,874,874,874,1100,998,998,0,0,4
534214488,534214488,18,42,0,0,0,1514,1514,1102,1514,1514,1550,1100,874,874,1100,874,874,874,874,874,1100,998,998,0,0,4
534274817,534274817,18,42,0,0,0,1514,1514,1102,1514,1514,1550,1100,874,874,1100,874,874,874,874,874,1100,998,998,0,0,4
534314915,534314915,18,42,0,0,0,1514,1514,1102,1514,1514,1550,1100,874,874,1100,874,874,874,874,874,1100,998,998,0,0,4
534374761,534374761,18,42,0,0,0,1514,1514,1102,1514,1514,1550,1100,874,874,1100,874,874,874,874,874,1100,998,998,0,0,4
534414721,534414721,18,42,0,0,0,1514,1514,1102,1514,1514,1550,1100,874,874,1100,874,874,874,874,874,1100,998,998,0,0,4
534475077,534475077,18,42,0,0,0,1514,1514,1102,1514,1514,1550,1100,874,874,1100,874,874,874,874,874,1100,998,998,0,0,4
534515035,534515035,18,42,0,0,0,1514,1514,1102,1514,1514,1550,1100,874,874,1100,874,874,874,874,874,1100,998,998,0,0,4
534574798,534574798,18,42,0,0,0,1514,1514,1102,1514,1514,1550,1100,874,874,1100,874,874,874,874,874,1100,998,998,0,0,4
534635051,534635051,18,42,0,0,0,1514,1514,1102,1514,1514,1550,1100,874,874,1100,874,874,874,874,874,1100,998,998,0,0,4
534675204,534675204,18,42,0,0,0,1514,1514,1102,1514,1514,1550,1100,874,874,1100,874,874,874,874,874,1100,998,998,0,0,4
534734967,534734967,18,42,0,0,0,1514,1514,1116,1514,1514,1550,1100,874,874,1100,874,874,874,874,874,1100,998,998,0,0,4
534775149,534775149,18,42,0,0,0,1514,1514,1474,1514,1514,1550,1100,874,874,1100,874,874,874,874,874,1100,998,998,0,0,4
534835347,534835347,18,42,0,0,0,1514,1514,1514,1514,1514,1550,1100,874,874,1100,874,874,874,874,874,1100,998,998,0,0,4
534895129,534895129,18,42,0,0,0,1514,1514,1514,1514,1514,1550,1100,874,874,1100,874,874,874,874,874,1100,998,998,0,0,4
534935306,534935306,18,42,0,0,0,1514,1514,1569,1514,1514,1550,1100,874,874,1100,874,874,874,874,874,1100,998,998,0,0,4
534995537,534995537,18,42,0,0,0,1514,1514,1680,1617,1514,1550,1100,874,874,1100,874,874,874,874,874,1100,998,998,0,0,4
535055465,535055465,18,42,0,0,0,1514,1514,1807,1618,1514,1550,1100,874,874,1100,874,874,874,874,874,1100,998,998,0,0,4
535095363,535095363,18,42,0,0,0,1514,1514,1927,1622,1514,1550,1100,874,874,1100,874,874,874,874,874,1100,998,998,0,0,4
535135722,535135722,18,42,0,0,0,1514,1514,1927,1622,1514,1550,1100,874,874,1100,874,874,874,874,874,1100,998,998,0,0,4
535175591,535175591,18,42,0,0,0,1514,1514,1927,1620,1514,1550,1100,874,874,1100,874,874,874,874,874,1100,998,998,0,0,4
535235935,535235935,18,42,0,0,0,1514,1514,1927,1620,1514,1550,1100,874,874,1100,874,874,874,874,874,1100,998,998,0,0,4
535315902,535315902,18,42,0,0,0,1514,1514,1927,1577,1514,1550,1100,874,874,1100,874,874,874,874,874,1100,998,998,0,0,4
535335750,535335750,18,42,0,0,0,1514,1514,1927,1575,1514,1550,1100,874,874,1100,874,874,874,874,874,1100,998,998,0,0,4
535415720,535415720,18,42,0,0,0,1514,1514,1927,1575,1514,1550,1100,874,874,1100,874,874,874,874,874,1100,998,998,0,0,4
535455724,535455724,18,42,0,0,0,1514,1514,1927,1575,1514,1550,1100,874,874,1100,874,874,874,874,874,1100,998,998,0,0,4
535515999,535515999,18,42,0,0,0,1514,1514,1927,1575,1514,1550,1100,874,874,1100,874,874,874,874,874,1100,998,998,0,0,4
535556131,535556131,18,42,0,0,0,1514,1514,1927,1575,1514,1550,1100,874,874,1100,874,874,874,874,874,1100,998,998,0,0,4
535616011,535616011,18,42,0,0,0,1514,1514,1927,1575,1514,1550,1100,874,874,1100,874,874,874,874,874,1100,998,998,0,0,4
535676389,535676389,18,42,0,0,0,1514,1514,1927,1575,1514,1550,1100,874,874,1100,874,874,874,874,874,1100,998,998,0,0,4
535716348,535716348,18,42,0,0,0,1514,1514,1927,1575,1514,1550,1100,874,874,1100,874,874,874,874,874,1100,998,998,0,0,4
535776033,535776033,18,42,0,0,0,1514,1514,1927,1575,1514,1550,1100,874,874,1100,874,874,874,874,874,1100,998,998,0,0,4
535816114,535816114,18,42,0,0,0,1514,1514,1927,1575,1514,1550,1100,874,874,1100,874,874,874,874,874,1100,998,998,0,0,4
535876540,535876540,18,42,0,0,0,1514,1514,1927,1576,1514,1550,1100,874,874,1100,874,874,874,874,874,1100,998,998,0,0,4
535936246,535936246,18,42,0,0,0,1514,1514,1927,1576,1514,1550,1100,874,874,1100,874,874,874,874,874,1100,998,998,0,0,4
535976273,535976273,18,42,0,0,0,1514,1514,1927,1575,1514,1550,1100,874,874,1100,874,874,874,874,874,1100,998,998,0,0,4
536036727,536036727,18,42,0,0,0,1514,1514,1927,1576,1514,1550,1100,874,874,1100,874,874,874,874,874,1100,998,998,0,0,4
536076586,536076586,18,42,0,0,0,1514,1514,1927,1576,1514,1550,1100,874,874,1100,874,874,874,874,874,1100,998,998,0,0,4
536136353,536136353,18,42,0,0,0,1514,1514,1862,1565,1514,1550,1100,874,874,1100,874,874,874,874,874,1100,998,998,0,0,4
536196696,536196696,18,42,0,0,0,1514,1514,1852,1572,1514,1550,1100,874,874,1100,874,874,874,874,874,1100,998,998,0,0,4
536236815,536236815,18,42,0,0,0,1514,1514,1787,1575,1514,1550,1100,874,874,1100,874,874,874,874,874,1100,998,998,0,0,4
536296568,536296568,18,42,0,0,0,1514,1514,1695,1575,1514,1550,1100,874,874,1100,874,874,874,874,874,1100,998,998,0,0,4
536356813,536356813,18,42,0,0,0,1514,1514,1575,1532,1514,1550,1100,874,874,1100,874,874,874,874,874,1100,998,998,0,0,4
536397087,536397087,18,42,0,0,0,1514,1514,1560,1514,1514,1550,1100,874,874,1100,874,874,874,874,874,1100,998,998,0,0,4
536456694,536456694,18,42,0,0,0,1514,1514,1533,1522,1514,1550,1100,874,874,1100,874,874,874,874,874,1100,998,998,0,0,4
536477125,536477125,18,42,0,0,0,1514,1514,1531,1535,1514,1550,1100,874,874,1100,874,874,874,874,874,1100,998,998,0,0,4
536557130,536557130,18,42,0,0,0,1514,1514,1530,1529,1514,1550,1100,874,874,1100,874,874,874,874,874,1100,998,998,0,0,4
536597103,536597103,18,42,0,0,0,1514,1514,1548,1590,1514,1550,1100,874,874,1100,874,874,874,874,874,1100,998,998,0,0,4
536656932,536656932,18,42,0,0,0,1514,1514,1514,1672,1514,1550,1100,874,874,1100,874,874,874,874,874,1100,998,998,0,0,4
536717318,536717318,18,42,0,0,0,1514,1514,1514,1801,1514,1550,1100,874,874,1100,874,874,874,874,874,1100,998,998,0,0,4
536737142,536737142,18,42,0,0,0,1514,1514,1514,1801,1514,1550,1100,874,874,1100,874,874,874,874,874,1100,998,998,0,0,4
536817110,536817110,18,42,0,0,0,1514,1514,1514,1927,1514,1550,1100,874,874,1100,874,874,874,874,874,1100,998,998,0,0,4
536857133,536857133,18,42,0,0,0,1514,1514,1514,1927,1514,1550,1100,874,874,1100,874,874,874,874,874,1100,998,998,0,0,4
536917637,536917637,18,42,0,0,0,1514,1514,1514,1927,1514,1550,1100,874,874,1100,874,874,874,874,874,1100,998,998,0,0,4
536977195,536977195,18,42,0,0,0,1514,1514,1514,1927,1514,1550,1100,874,874,1100,874,874,874,874,874,1100,998,998,0,0,4
537017305,537017305,18,42,0,0,0,1514,1514,1514,1927,1514,1550,1100,874,874,1100,874,874,874,874,874,1100,998,998,0,0,4
537077713,537077713,18,42,0,0,0,1514,1514,1523,1651,1514,1550,1100,874,874,1100,874,874,874,874,874,1100,998,998,0,0,4
537097342,537097342,18,42,0,0,0,1514,1514,1523,1651,1514,1550,1100,874,874,1100,874,874,874,874,874,1100,998,998,0,0,4
537177454,537177454,18,42,0,0,0,1514,1514,1523,1514,1514,1550,1100,874,874,1100,874,874,874,874,874,1100,998,998,0,0,4
537237749,537237749,18,42,0,0,0,1514,1514,1514,1514,1514,1550,1100,874,874,1100,874,874,874,874,874,1100,998,998,0,0,4
537277818,537277818,18,42,0,0,0,1514,1514,1514,1514,1514,1550,1100,874,874,1100,874,874,874,874,874,1100,998,998,0,0,4
537337716,537337716,18,42,0,0,0,1514,1514,1514,1514,1514,1550,1100,874,874,1100,874,874,874,874,874,1100,998,998,0,0,4
537377751,537377751,18,42,0,0,0,1514,1514,1514,1514,1514,1550,1100,874,874,1100,874,874,874,874,874,1100,998,998,0,0,4
537438126,537438126,18,42,0,0,0,1514,1514,1514,1372,1514,1550,1100,874,874,1100,874,874,874,874,874,1100,998,998,0,0,4
537497856,537497856,18,42,0,0,0,1514,1514,1514,1305,1514,1550,1100,874,874,1100,874,874,874,874,874,1100,998,998,0,0,4
537537838,537537838,18,42,0,0,0,1514,1514,1514,1328,1514,1550,1100,874,874,1100,874,874,874,874,874,1100,998,998,0,0,4
537598155,537598155,18,42,0,0,0,1514,1514,1514,1514,1514,1550,1100,874,874,1100,874,874,874,874,874,1100,998,998,0,0,4
537658019,537658019,18,42,0,0,0,1514,1514,1514,1514,1514,1550,1100,874,874,1100,874,874,874,874,874,1100,998,998,0,0,4
537678374,537678374,18,42,0,0,0,1514,1514,1514,1514,1514,1550,1100,874,874,1100,874,874,874,874,874,1100,998,998,0,0,4
537758307,537758307,18,42,0,0,0,1514,1514,1514,1467,1514,1550,1100,874,874,1100,874,874,874,874,874,1100,998,998,0,0,4
537818119,537818119,18,42,0,0,0,1514,1514,1563,1481,1514,1550,1100,874,874,1100,874,874,874,874,874,1100,998,998,0,0,4
537858000,537858000,18,42,0,0,0,1514,1514,1574,1498,1514,1550,1100,874,874,1100,874,874,874,874,874,1100,998,998,0,0,4
537918401,537918401,18,42,0,0,0,1514,1514,1523,1514,1514,1550,1100,874,874,1100,874,874,874,874,874,1100,998,998,0,0,4
537958511,537958511,18,42,0,0,0,1514,1514,1514,1514,1514,1550,1100,874,874,1100,874,874,874,874,874,1100,998,998,0,0,4
538018410,538018410,18,42,0,0,0,1514,1514,1514,1514,1514,1550,1100,874,874,1100,874,874,874,874,874,1100,998,998,0,0,4
538058468,538058468,18,42,0,0,0,1514,1514,1514,1514,1514,1550,1100,874,874,1100,874,874,874,874,874,1100,998,998,0,0,4
538098488,538098488,18,42,0,0,0,1514,1514,1514,1514,1514,1550,1100,874,874,1100,874,874,874,874,874,1100,998,998,0,0,4
538178659,538178659,18,42,0,0,0,1514,1514,1514,1514,1514,1550,1100,874,874,1100,874,874,874,874,874,1100,998,998,0,0,4
538218657,538218657,18,42,0,0,0,1514,1514,1514,1514,1514,1550,1100,874,874,1100,874,874,874,874,874,1100,998,998,0,0,4
538278892,538278892,18,42,0,0,0,1514,1514,1514,1514,1514,1550,1100,874,874,1100,874,874,874,874,874,1100,998,998,0,0,4
538298714,538298714,18,42,0,0,0,1514,1514,1514,1514,1514,1550,1100,874,874,1100,874,874,874,874,874,1100,998,998,0,0,4
538378682,538378682,18,42,0,0,0,1514,1514,1514,1514,1514,1550,1100,874,874,1100,874,874,874,874,874,1100,998,998,0,0,4
538439129,538439129,18,42,0,0,0,1514,1514,1514,1514,1514,1550,1100,874,874,1100,874,874,874,874,874,1100,998,998,0,0,4
538479091,538479091,18,42,0,0,0,1514,1514,1514,1514,1514,1550,1100,874,874,1100,874,874,874,874,874,1100,998,998,0,0,4
538538804,538538804,18,42,0,0,0,1514,1514,1514,1514,1514,1550,1100,874,874,1100,874,874,874,874,874,1100,998,998,0,0,4
538578818,538578818,18,42,0,0,0,1514,1514,1514,1514,1514,1550,1100,874,874,1100,874,874,874,874,874,1100,998,998,0,0,4
538639107,538639107,18,42,0,0,0,1514,1514,1514,1514,1514,1550,1100,874,874,1100,874,874,874,874,874,1100,998,998,0,0,4
538698933,538698933,18,42,0,0,0,1514,1514,1514,1514,1514,1550,1100,874,874,1100,874,874,874,874,874,1100,998,998,0,0,4
538738969,538738969,18,42,0,0,0,1514,1514,1514,1514,1514,1550,1100,874,874,1100,874,874,874,874,874,1100,998,998,0,0,4
538799356,538799356,18,42,0,0,0,1514,1514,1514,1514,1514,1550,1100,874,874,1100,874,874,874,874,874,1100,998,998,0,0,4
538859232,538859232,18,42,0,0,0,1514,1514,1514,1514,1514,1550,1100,874,874,1100,874,874,874,874,874,1100,998,998,0,0,4
538899268,538899268,18,42,0,0,0,1514,1514,1514,1514,1514,1550,1100,874,874,1100,874,874,874,874,874,1100,998,998,0,0,4
538959530,538959530,18,42,0,0,0,1514,1514,1514,1514,1514,1550,1100,874,874,1100,874,874,874,874,874,1100,998,998,0,0,4
538999574,538999574,18,42,0,0,0,1514,1514,1514,1514,1514,1550,1100,874,874,1100,874,874,874,874,874,1100,998,998,0,0,4
539059512,539059512,18,42,0,0,0,1514,1514,1514,1514,1514,1550,1100,874,874,1100,874,874,874,874,874,1100,998,998,0,0,4
539099525,539099525,18,42,0,0,0,1514,1514,1514,1514,1514,1550,1100,874,874,1100,874,874,874,874,874,1100,998,998,0,0,4
539139546,539139546,18,42,0,0,0,1514,1514,1514,1514,1514,1550,1100,874,874,1100,874,874,874,874,874,1100,998,998,0,0,4
539219515,539219515,18,42,0,0,0,1514,1514,1538,1503,1514,1550,1100,874,874,1100,874,874,874,874,874,1100,998,998,0,0,4
539279893,539279893,18,42,0,0,0,1514,1514,1546,1514,1514,1550,1100,874,874,1100,874,874,874,874,874,1100,998,998,0,0,4
539319821,539319821,18,42,0,0,0,1514,1514,1578,1514,1514,1550,1100,874,874,1100,874,874,874,874,874,1100,998,998,0,0,4
539379522,539379522,18,42,0,0,0,1514,1514,1610,1502,1514,1550,1100,874,874,1100,874,874,874,874,874,1100,998,998,0,0,4
539419706,539419706,18,42,0,0,0,1514,1514,1610,1502,1514,1550,1100,874,874,1100,874,874,874,874,874,1100,998,998,0,0,4
539479984,539479984,18,42,0,0,0,1514,1514,1623,1514,1514,1550,1100,874,874,1100,874,874,874,874,874,1100,998,998,0,0,4
539539716,539539716,18,42,0,0,0,1514,1514,1626,1514,1514,1550,1100,874,874,1100,874,874,874,874,874,1100,998,998,0,0,4
539579855,539579855,18,42,0,0,0,1514,1514,1633,1514,1514,1550,1100,874,874,1100,874,874,874,874,874,1100,998,998,0,0,4
539640112,539640112,18,42,0,0,0,1514,1514,1638,1514,1514,1550,1100,874,874,1100,874,874,874,874,874,1100,998,998,0,0,4
539699906,539699906,18,42,0,0,0,1514,1514,1654,1514,1514,1550,1100,874,874,1100,874,874,874,874,874,1100,998,998,0,0,4
539740111,539740111,18,42,0,0,0,1514,1514,1654,1514,1514,1550,1100,874,874,1100,874,874,874,874,874,1100,998,998,0,0,4
539800362,539800362,18,42,0,0,0,1514,1514,1647,1514,1514,1550,1100,874,874,1100,874,874,874,874,874,1100,998,998,0,0,4
539840341,539840341,18,42,0,0,0,1514,1514,1642,1514,1514,1550,1100,874,874,1100,874,874,874,874,874,1100,998,998,0,0,4
539900125,539900125,18,42,0,0,0,1514,1514,1646,1514,1514,1550,1100,874,874,1100,874,874,874,874,874,1100,998,998,0,0,4
539940334,539940334,18,42,0,0,0,1514,1514,1648,1514,1514,1550,1100,874,874,1100,874,874,874,874,874,1100,998,998,0,0,4
540000515,540000515,18,42,0,0,0,1514,1514,1642,1514,1514,1550,1100,874,874,1100,874,874,874,874,874,1100,998,998,0,0,4
540060340,540060340,18,42,0,0,0,1514,1514,1649,1514,1514,1550,1100,874,874,1100,874,874,874,874,874,1100,998,998,0,0,4
540100360,540100360,18,42,0,0,0,1514,1514,1649,1514,1514,1550,1100,874,874,1100,874,874,874,874,874,1100,998,998,0,0,4
540160616,540160616,18,42,0,0,0,1514,1514,1649,1514,1514,1550,1100,874,874,1100,874,874,874,874,874,1100,998,998,0,0,4
540200629,540200629,18,42,0,0,0,1514,1514,1649,1514,1514,1550,1100,874,874,1100,874,874,874,874,874,1100,998,998,0,0,4
540260528,540260528,18,42,0,0,0,1514,1514,1652,1514,1514,1550,1100,874,874,1100,874,874,874,874,874,1100,998,998,0,0,4
540300519,540300519,18,42,0,0,0,1514,1514,1652,1514,1514,1550,1100,874,874,1100,874,874,874,874,874,1100,998,998,0,0,4
540360837,540360837,18,42,0,0,0,1514,1514,1651,1514,1514,1550,1100,874,874,1100,874,874,874,874,874,1100,998,998,0,0,4
540420662,540420662,18,42,0,0,0,1514,1514,1655,1514,1514,1550,1100,874,874,1100,874,874,874,874,874,1100,998,998,0,0,4
540460720,540460720,18,42,0,0,0,1514,1514,1655,1514,1514,1550,1100,874,874,1100,874,874,874,874,874,1100,998,998,0,0,4
540521127,540521127,18,42,0,0,0,1514,1514,1653,1514,1514,1550,1100,874,874,1100,874,874,874,874,874,1100,998,998,0,0,4
540580837,540580837,18,42,0,0,0,1514,1514,1655,1514,1514,1550,1100,874,874,1100,874,874,874,874,874,1100,998,998,0,0,4
540620849,540620849,18,42,0,0,0,1514,1514,1655,1514,1514,1550,1100,874,874,1100,874,874,874,874,874,1100,998,998,0,0,4
540660919,540660919,18,42,0,0,0,1514,1514,1658,1514,1514,1550,1100,874,874,1100,874,874,874,874,874,1100,998,998,0,0,4
540741151,540741151,18,42,0,0,0,1514,1514,1663,1514,1514,1550,1100,874,874,1100,874,874,874,874,874,1100,998,998,0,0,4
540781158,540781158,18,42,0,0,0,1514,1514,1664,1514,1514,1550,1100,874,874,1100,874,874,874,874,874,1100,998,998,0,0,4
540841400,540841400,18,42,0,0,0,1514,1514,1667,1514,1514,1550,1100,874,874,1100,874,874,874,874,874,1100,998,998,0,0,4
540881399,540881399,18,42,0,0,0,1514,1514,1667,1514,1514,1550,1100,874,874,1100,874,874,874,874,874,1100,998,998,0,0,4
540941171,540941171,18,42,0,0,0,1514,1514,1670,1514,1514,1550,1100,874,874,1100,874,874,874,874,874,1100,998,998,0,0,4
541001496,541001496,18,42,0,0,0,1514,1514,1670,1514,1514,1550,1100,874,874,1100,874,874,874,874,874,1100,998,998,0,0,4
541041498,541041498,18,42,0,0,0,1514,1514,1672,1514,1514,1550,1100,874,874,1100,874,874,874,874,874,1100,998,998,0,0,4
541101353,541101353,18,42,0,0,0,1514,1514,1672,1514,1514,1550,1100,874,874,1100,874,874,874,874,874,1100,998,998,0,0,4
541141348,541141348,18,42,0,0,0,1514,1514,1672,1514,1514,1550,1100,874,874,1100,874,874,874,874,874,1100,998,998,0,0,4
541201876,541201876,18,42,0,0,0,1514,1514,1673,1514,1514,1550,1100,874,874,1100,874,874,874,874,874,1100,998,998,0,0,4
541241722,541241722,18,42,0,0,0,1514,1514,1675,1514,1514,1550,1100,874,874,1100,874,874,874,874,874,1100,998,998,0,0,4
541281924,541281924,18,42,0,0,0,1514,1514,1678,1514,1514,1550,1100,874,874,1100,874,874,874,874,874,1100,998,998,0,0,4
541361934,541361934,18,42,0,0,0,1514,1514,1677,1514,1514,1550,1100,874,874,1100,874,874,874,874,874,1100,998,998,0,0,4
541401978,541401978,18,42,0,0,0,1514,1514,1675,1514,1514,1550,1100,874,874,1100,874,874,874,874,874,1100,998,998,0,0,4
541461909,541461909,18,42,0,0,0,1514,1514,1675,1514,1514,1550,1100,874,874,1100,874,874,874,874,874,1100,998,998,0,0,4
541522228,541522228,18,42,0,0,0,1514,1514,1675,1514,1514,1550,1100,874,874,1100,874,874,874,874,874,1100,998,998,0,0,4
541541933,541541933,18,42,0,0,0,1514,1514,1675,1514,1514,1550,1100,874,874,1100,874,874,874,874,874,1100,998,998,0,0,4
541621972,541621972,18,42,0,0,0,1514,1514,1686,1514,1514,1550,1100,874,874,1100,874,874,874,874,874,1100,998,998,0,0,4
541682278,541682278,18,42,0,0,0,1514,1514,1695,1514,1514,1550,1100,874,874,1100,874,874,874,874,874,1100,998,998,0,0,4
541722223,541722223,18,42,0,0,0,1514,1514,1695,1514,1514,1550,1100,874,874,1100,874,874,874,874,874,1100,998,998,0,0,4
541782014,541782014,18,42,0,0,0,1514,1514,1688,1514,1514,1550,1100,874,874,1100,874,874,874,874,874,1100,998,998,0,0,4
541821961,541821961,18,42,0,0,0,1514,1514,1685,1514,1514,1550,1100,874,874,1100,874,874,874,874,874,1100,998,998,0,0,4
541882410,541882410,18,42,0,0,0,1514,1514,1686,1514,1514,1550,1100,874,874,1100,874,874,874,874,874,1100,998,998,0,0,4
541922484,541922484,18,42,0,0,0,1514,1514,1686,1514,1514,1550,1100,874,874,1100,874,874,874,874,874,1100,998,998,0,0,4
541982251,541982251,18,42,0,0,0,1514,1514,1687,1514,1514,1550,1100,874,874,1100,874,874,874,874,874,1100,998,998,0,0,4
542042555,542042555,18,42,0,0,0,1514,1514,1687,1514,1514,1550,1100,874,874,1100,874,874,874,874,874,1100,998,998,0,0,4
542082661,542082661,18,42,0,0,0,1514,1514,1688,1514,1514,1550,1100,874,874,1100,874,874,874,874,874,1100,998,998,0,0,4
542142515,542142515,18,42,0,0,0,1514,1514,1692,1514,1514,1550,1100,874,874,1100,874,874,874,874,874,1100,998,998,0,0,4
542182624,542182624,18,42,0,0,0,1514,1514,1692,1514,1514,1550,1100,874,874,1100,874,874,874,874,874,1100,998,998,0,0,4
542242914,542242914,18,42,0,0,0,1514,1514,1691,1514,1514,1550,1100,874,874,1100,874,874,874,874,874,1100,998,998,0,0,4
542302711,542302711,18,42,0,0,0,1514,1514,1698,1514,1514,1550,1100,874,874,1100,874,874,874,874,874,1100,998,998,0,0,4
542342743,542342743,18,42,0,0,0,1514,1514,1700,1514,1514,1550,1100,874,874,1100,874,874,874,874,874,1100,998,998,0,0,4
542402930,542402930,18,42,0,0,0,1514,1514,1700,1514,1514,1550,1100,874,874,1100,874,874,874,874,874,1100,998,998,0,0,4
542422796,542422796,18,42,0,0,0,1514,1514,1698,1514,1514,1550,1100,874,874,1100,874,874,874,874,874,1100,998,998,0,0,4
542502763,542502763,18,42,0,0,0,1514,1514,1700,1514,1514,1550,1100,874,874,1100,874,874,874,874,874,1100,998,998,0,0,4
542563048,542563048,18,42,0,0,0,1514,1514,1706,1514,1514,1550,1100,874,874,1100,874,874,874,874,874,1100,998,998,0,0,4
542603060,542603060,18,42,0,0,0,1514,1514,1714,1514,1514,1550,1100,874,874,1100,874,874,874,874,874,1100,998,998,0,0,4
542662928,542662928,18,42,0,0,0,1514,1514,1718,1514,1514,1550,1100,874,874,1100,874,874,874,874,874,1100,998,998,0,0,4
542702942,542702942,18,42,0,0,0,1514,1514,1718,1514,1514,1550,1100,874,874,1100,874,874,874,874,874,1100,998,998,0,0,4
542763474,542763474,18,42,0,0,0,1514,1514,1718,1514,1514,1550,1100,874,874,1100,874,874,874,874,874,1100,998,998,0,0,4
542803338,542803338,18,42,0,0,0,1514,1514,1723,1514,1514,1550,1100,874,874,1100,874,874,874,874,874,1100,998,998,0,0,4
542863234,542863234,18,42,0,0,0,1514,1514,1731,1514,1514,1550,1100,874,874,1100,874,874,874,874,874,1100,998,998,0,0,4
542923522,542923522,18,42,0,0,0,1514,1514,1734,1514,1514,1550,1100,874,874,1100,874,874,874,874,874,1100,998,998,0,0,4
542963503,542963503,18,42,0,0,0,1514,1514,1734,1514,1514,1550,1100,874,874,1100,874,874,874,874,874,1100,998,998,0,0,4
543023254,543023254,18,42,0,0,0,1514,1514,1734,1514,1514,1550,1100,874,874,1100,874,874,874,874,874,1100,998,998,0,0,4
543063336,543063336,18,42,0,0,0,1514,1514,1734,1514,1514,1550,1100,874,874,1100,874,874,874,874,874,1100,998,998,0,0,4
543123691,543123691,18,42,0,0,0,1514,1514,1737,1514,1514,1550,1100,874,874,1100,874,874,874,874,874,1100,998,998,0,0,4
543183537,543183537,18,42,0,0,0,1514,1514,1739,1514,1514,1550,1100,874,874,1100,874,874,874,874,874,1100,998,998,0,0,4
543223516,543223516,18,42,0,0,0,1514,1514,1747,1514,1514,1550,1100,874,874,1100,874,874,874,874,874,1100,998,998,0,0,4
543283844,543283844,18,42,0,0,0,1514,1514,1747,1514,1514,1550,1100,874,874,1100,874,874,874,874,874,1100,998,998,0,0,4
543343563,543343563,18,42,0,0,0,1514,1514,1745,1514,1514,1550,1100,874,874,1100,874,874,874,874,874,1100,998,998,0,0,4
543383616,543383616,18,42,0,0,0,1514,1514,1747,1514,1514,1550,1100,874,874,1100,874,874,874,874,874,1100,998,998,0,0,4
543443892,543443892,18,42,0,0,0,1514,1514,1750,1514,1514,1550,1100,874,874,1100,874,874,874,874,874,1100,998,998,0,0,4
543503747,543503747,18,42,0,0,0,1514,1514,1732,1514,1514,1550,1100,874,874,1100,874,874,874,874,874,1100,998,998,0,0,4
543543744,543543744,18,42,0,0,0,1514,1514,1730,1514,1514,1550,1100,874,874,1100,874,874,874,874,874,1100,998,998,0,0,4
543604121,543604121,18,42,0,0,0,1514,1514,1748,1514,1514,1550,1100,874,874,1100,874,874,874,874,874,1100,998,998,0,0,4
543644116,543644116,18,42,0,0,0,1514,1514,1747,1514,1514,1550,1100,874,874,1100,874,874,874,874,874,1100,998,998,0,0,4
543704061,543704061,18,42,0,0,0,1514,1514,1740,1514,1514,1550,1100,874,874,1100,874,874,874,874,874,1100,998,998,0,0,4
543764348,543764348,18,42,0,0,0,1514,1514,1757,1514,1514,1550,1100,874,874,1100,874,874,874,874,874,1100,998,998,0,0,4
543804381,543804381,18,42,0,0,0,1514,1514,1762,1514,1514,1550,1100,874,874,1100,874,874,874,874,874,1100,998,998,0,0,4
543864147,543864147,18,42,0,0,0,1514,1514,1757,1514,1514,1550,1100,874,874,1100,874,874,874,874,874,1100,998,998,0,0,4
543904332,543904332,18,42,0,0,0,1514,1514,1757,1514,1514,1550,1100,874,874,1100,874,874,874,874,874,1100,998,998,0,0,4
543964641,543964641,18,42,0,0,0,1514,1514,1768,1514,1514,1550,1100,874,874,1100,874,874,874,874,874,1100,998,998,0,0,4
544024357,544024357,18,42,0,0,0,1514,1514,1788,1514,1514,1550,1100,874,874,1100,874,874,874,874,874,1100,998,998,0,0,4
544064345,544064345,18,42,0,0,0,1514,1514,1793,1514,1514,1550,1100,874,874,1100,874,874,874,874,874,1100,998,998,0,0,4
544124625,544124625,18,42,0,0,0,1514,1514,1786,1514,1514,1550,1100,874,874,1100,874,874,874,874,874,1100,998,998,0,0,4
544184406,544184406,18,42,0,0,0,1514,1514,1787,1514,1514,1550,1100,874,874,1100,874,874,874,874,874,1100,998,998,0,0,4
544224459,544224459,18,42,0,0,0,1514,1514,1786,1514,1514,1550,1100,874,874,1100,874,874,874,874,874,1100,998,998,0,0,4
544284798,544284798,18,42,0,0,0,1514,1514,1795,1514,1514,1550,1100,874,874,1100,874,874,874,874,874,1100,998,998,0,0,4
544324894,544324894,18,42,0,0,0,1514,1514,1795,1514,1514,1550,1100,874,874,1100,874,874,874,874,874,1100,998,998,0,0,4
544384632,544384632,18,42,0,0,0,1514,1514,1797,1514,1514,1550,1100,874,874,1100,874,874,874,874,874,1100,998,998,0,0,4
544445023,544445023,18,42,0,0,0,1514,1514,1795,1514,1514,1550,1100,874,874,1100,874,874,874,874,874,1100,998,998,0,0,4
544485079,544485079,18,42,0,0,0,1514,1514,1792,1514,1514,1550,1100,874,874,1100,874,874,874,874,874,1100,998,998,0,0,4
544544843,544544843,18,42,0,0,0,1514,1514,1814,1514,1514,1550,1100,874,874,1100,874,874,874,874,874,1100,998,998,0,0,4
544605176,544605176,18,42,0,0,0,1514,1514,1814,1514,1514,1550,1100,874,874,1100,874,874,874,874,874,1100,998,998,0,0,4
544624895,544624895,18,42,0,0,0,1514,1514,1812,1514,1514,1550,1100,874,874,1100,874,874,874,874,874,1100,998,998,0,0,4
544704934,544704934,18,42,0,0,0,1514,1514,1809,1514,1514,1550,1100,874,874,1100,874,874,874,874,874,1100,998,998,0,0,4
544745035,544745035,18,42,0,0,0,1514,1514,1806,1514,1514,1550,1100,874,874,1100,874,874,874,874,874,1100,998,998,0,0,4
544805341,544805341,18,42,0,0,0,1514,1514,1809,1514,1514,1550,1100,874,874,1100,874,874,874,874,874,1100,998,998,0,0,4
544865152,544865152,18,42,0,0,0,1514,1514,1817,1514,1514,1550,1100,874,874,1100,874,874,874,874,874,1100,998,998,0,0,4
544885483,544885483,18,42,0,0,0,1514,1514,1817,1514,1514,1550,1100,874,874,1100,874,874,874,874,874,1100,998,998,0,0,4
544965450,544965450,18,42,0,0,0,1514,1514,1812,1514,1514,1550,1100,874,874,1100,874,874,874,874,874,1100,998,998,0,0,4
545025160,545025160,18,42,0,0,0,1514,1390,1817,1514,1514,1550,1100,874,874,1100,874,874,874,874,874,1100,998,998,0,0,4
545065409,545065409,18,42,0,0,0,1514,1390,1817,1514,1514,1550,1100,874,874,1100,874,874,874,874,874,1100,998,998,0,0,4
545125629,545125629,18,42,0,0,0,1514,1342,1829,1514,1514,1550,1100,874,874,1100,874,874,874,874,874,1100,998,998,0,0,4
545165699,545165699,18,42,0,0,0,1514,1337,1825,1514,1514,1550,1100,874,874,1100,874,874,874,874,874,1100,998,998,0,0,4
