timestamp,time_utc_usec,lat,lon,alt,alt_ellipsoid,s_variance_m_s,c_variance_rad,eph,epv,hdop,vdop,noise_per_ms,jamming_indicator,vel_m_s,vel_n_m_s,vel_e_m_s,vel_d_m_s,cog_rad,timestamp_time_relative,heading,heading_offset,fix_type,vel_ned_valid,satellites_used
519008328,1706804391899687,306571744,-842085175,65140,35002,0.093,3.1415925,0.32700002,0.49100003,0.59,1.03,77,4,0.012,0.0050000004,0.011000001,-0.0050000004,2.4017618,0,nan,0.0,3,1,20
519112273,1706804391999688,306571744,-842085175,65142,35004,0.10300001,3.1415925,0.32700002,0.49100003,0.59,1.03,77,4,0.012,-0.003,-0.012,-0.018000001,2.4017618,0,nan,0.0,3,1,20
519208363,1706804392099687,306571744,-842085175,65145,35007,0.11400001,3.1415925,0.32700002,0.49100003,0.59,1.03,77,8,0.017,0.0,-0.017,0.019000001,2.4017618,0,nan,0.0,3,1,20
519308422,1706804392199687,306571744,-842085176,65140,35003,0.104,3.0849974,0.32700002,0.49100003,0.59,1.03,77,8,0.026,0.021000002,-0.016,0.016,2.4017618,0,nan,0.0,3,1,20
519403293,1706804392299686,306571745,-842085176,65147,35009,0.093,3.1415925,0.32700002,0.49100003,0.59,1.03,77,8,0.007,0.0,0.007,-0.003,2.4017618,0,nan,0.0,3,1,20
519506183,1706804392399686,306571745,-842085175,65148,35010,0.09200001,3.1415925,0.32700002,0.49100003,0.59,1.03,77,8,0.016,-0.016,0.002,0.001,2.4017618,0,nan,0.0,3,1,20
519611260,1706804392499686,306571745,-842085176,65143,35005,0.086,1.82938,0.32700002,0.49100003,0.59,1.03,77,8,0.045,0.033,-0.031000001,-0.017,2.4017618,0,nan,0.0,3,1,20
519707265,1706804392599686,306571745,-842085176,65141,35003,0.119,3.1415925,0.326,0.49100003,0.59,1.03,77,8,0.020000001,0.019000001,0.0050000004,0.065000005,2.4017618,0,nan,0.0,3,1,20
519807275,1706804392699686,306571745,-842085176,65140,35002,0.11400001,3.1415925,0.326,0.49100003,0.59,1.03,77,8,0.024,0.011000001,0.022000002,-0.026,2.4017618,0,nan,0.0,3,1,20
519909340,1706804392799686,306571745,-842085175,65148,35010,0.10300001,2.6075747,0.326,0.49100003,0.59,1.03,77,8,0.029000001,0.028,0.007,-0.023000002,2.4017618,0,nan,0.0,3,1,20
520005398,1706804392899686,306571745,-842085175,65142,35004,0.087000005,0.8957277,0.326,0.49100003,0.59,1.03,77,8,0.083000004,-0.082,0.013,0.0050000004,2.4017618,0,nan,0.0,3,1,20
520113422,1706804392999687,306571745,-842085175,65144,35007,0.11400001,1.1194324,0.326,0.49100003,0.59,1.03,77,8,0.065000005,0.063,-0.013,0.081,2.4017618,0,nan,0.0,3,1,20
520210255,1706804393099686,306571745,-842085175,65138,35000,0.120000005,2.3018668,0.326,0.49100003,0.59,1.03,77,4,0.031000001,-0.031000001,0.003,-0.068,2.4017618,0,nan,0.0,3,1,20
520305205,1706804393199686,306571745,-842085175,65143,35006,0.094000004,2.507508,0.326,0.49100003,0.59,1.03,77,4,0.030000001,0.030000001,0.003,0.010000001,2.4017618,0,nan,0.0,3,1,20
520409429,1706804393299686,306571745,-842085175,65144,35006,0.096,1.6939268,0.326,0.49100003,0.59,1.03,77,4,0.047000002,-0.040000003,-0.025,0.020000001,2.4017618,0,nan,0.0,3,1,20
520509340,1706804393399686,306571745,-842085175,65145,35007,0.091000006,1.6487615,0.326,0.49100003,0.59,1.03,77,4,0.044000003,0.044000003,0.003,-0.009000001,2.4017618,0,nan,0.0,3,1,20
520608787,1706804393499686,306571746,-842085175,65146,35008,0.095000006,3.1415925,0.326,0.49100003,0.59,1.03,77,4,0.016,0.016,0.002,0.007,2.4017618,0,nan,0.0,3,1,20
520708361,1706804393599686,306571746,-842085175,65142,35004,0.078,3.1415925,0.326,0.49100003,0.59,1.03,77,4,0.020000001,-0.0050000004,0.020000001,0.011000001,2.4017618,0,nan,0.0,3,1,20
520807973,1706804393699686,306571746,-842085175,65140,35002,0.098000005,1.0453013,0.326,0.49,0.59,1.03,77,4,0.071,-0.068,-0.020000001,0.045,2.4017618,0,nan,0.0,3,1,20
520909315,1706804393799686,306571745,-842085175,65142,35005,0.10300001,3.1415925,0.326,0.49,0.59,1.03,77,4,0.027,0.014,0.024,-0.019000001,2.4017618,0,nan,0.0,3,1,20
521007198,1706804393899686,306571745,-842085175,65143,35006,0.089,2.2733216,0.326,0.49,0.59,1.03,77,4,0.032,-0.032,-0.002,0.002,2.4017618,0,nan,0.0,3,1,20
521111284,1706804393999687,306571745,-842085175,65146,35008,0.09200001,2.2630239,0.326,0.49,0.59,1.03,77,4,0.034,-0.032,-0.012,-0.017,2.4017618,0,nan,0.0,3,1,20
521204367,1706804394099686,306571745,-842085175,65144,35007,0.1,3.1415925,0.326,0.49,0.59,1.03,77,4,0.014,-0.002,0.014,-0.008,2.4017618,0,nan,0.0,3,1,20
521307281,1706804394199686,306571745,-842085175,65148,35010,0.09200001,3.1415925,0.32500002,0.49,0.59,1.03,77,4,0.012,-0.002,-0.011000001,0.0050000004,2.4017618,0,nan,0.0,3,1,20
521407290,1706804394299686,306571745,-842085175,65148,35010,0.09200001,3.1415925,0.32500002,0.49,0.59,1.03,77,4,0.026,0.009000001,-0.024,0.010000001,2.4017618,0,nan,0.0,3,1,20
521506277,1706804394399686,306571746,-842085175,65150,35012,0.098000005,2.7547123,0.32500002,0.49,0.59,1.03,77,4,0.027,0.026,0.006,-0.015000001,2.4017618,0,nan,0.0,3,1,20
521610256,1706804394499686,306571746,-842085176,65151,35013,0.078,2.9852085,0.32500002,0.49,0.59,1.03,77,4,0.028,-0.021000002,-0.018000001,-0.004,2.4017618,0,nan,0.0,3,1,20
521709385,1706804394599685,306571746,-842085176,65153,35015,0.119,3.1415925,0.32500002,0.49,0.59,1.03,77,4,0.013,0.013,0.003,-0.030000001,2.4017618,0,nan,0.0,3,1,20
521807351,1706804394699685,306571746,-842085176,65152,35014,0.119,2.6998584,0.32500002,0.49,0.59,1.03,77,4,0.028,0.026,0.011000001,-0.061000004,2.4017618,0,nan,0.0,3,1,20
521909339,1706804394799685,306571746,-842085176,65155,35017,0.12100001,3.1415925,0.32500002,0.49,0.59,1.03,77,4,0.016,-0.010000001,-0.012,0.035,2.4017618,0,nan,0.0,3,1,20
522009362,1706804394899685,306571746,-842085176,65154,35017,0.115,3.1415925,0.32500002,0.49,0.59,1.03,77,4,0.014,-0.006,-0.012,0.017,2.4017618,0,nan,0.0,3,1,20
522108504,1706804394999686,306571746,-842085176,65155,35017,0.09200001,3.1415925,0.32500002,0.49,0.59,1.03,77,4,0.016,-0.015000001,-0.0050000004,0.0050000004,2.4017618,0,nan,0.0,3,1,20
522209369,1706804395099685,306571746,-842085176,65156,35019,0.09,3.1415925,0.32500002,0.49,0.59,1.03,77,5,0.022000002,0.021000002,0.007,-0.0050000004,2.4017618,0,nan,0.0,3,1,20
522309355,1706804395199685,306571746,-842085176,65156,35018,0.1,3.1415925,0.32500002,0.49,0.59,1.03,77,5,0.019000001,0.019000001,-0.002,-0.014,2.4017618,0,nan,0.0,3,1,20
522409352,1706804395299685,306571747,-842085176,65159,35021,0.119,3.1415925,0.32500002,0.48900002,0.59,1.03,77,5,0.010000001,-0.009000001,0.004,0.049000002,2.4017618,0,nan,0.0,3,1,20
522508713,1706804395399685,306571747,-842085176,65158,35021,0.115,3.1415925,0.32500002,0.48900002,0.59,1.03,77,5,0.023000002,-0.015000001,0.017,-0.029000001,2.4017618,0,nan,0.0,3,1,20
522608331,1706804395499685,306571747,-842085175,65161,35023,0.08400001,3.1415925,0.32500002,0.48900002,0.59,1.03,77,5,0.018000001,0.017,0.007,0.0050000004,2.4017618,0,nan,0.0,3,1,20
522708306,1706804395599685,306571747,-842085176,65159,35022,0.07,3.1415925,0.32500002,0.48900002,0.59,1.03,77,5,0.016,-0.006,-0.015000001,-0.004,2.4017618,0,nan,0.0,3,1,20
522808330,1706804395699685,306571747,-842085176,65156,35018,0.093,2.7474005,0.32500002,0.48900002,0.59,1.03,77,5,0.028,0.026,0.009000001,-0.010000001,2.4017618,0,nan,0.0,3,1,20
522908031,1706804395799685,306571747,-842085176,65158,35020,0.089,3.1415925,0.32500002,0.48900002,0.59,1.03,77,5,0.017,-0.017,0.003,0.002,2.4017618,0,nan,0.0,3,1,20
523003235,1706804395899685,306571747,-842085176,65160,35023,0.123,3.1415925,0.324,0.48900002,0.59,1.03,77,5,0.020000001,0.016,-0.012,0.078,2.4017618,0,nan,0.0,3,1,20
523111347,1706804395999686,306571747,-842085176,65157,35019,0.105000004,3.1415925,0.324,0.48900002,0.59,1.03,77,5,0.017,-0.016,-0.006,-0.020000001,2.4017618,0,nan,0.0,3,1,20
523210277,1706804396099685,306571747,-842085176,65156,35018,0.120000005,3.1415925,0.324,0.48900002,0.59,1.03,77,5,0.004,0.001,0.004,-0.022000002,2.4017618,0,nan,0.0,3,1,20
523307097,1706804396199685,306571747,-842085176,65157,35019,0.117000006,3.1415925,0.324,0.48900002,0.59,1.03,77,5,0.007,-0.007,0.003,0.024,2.4017618,0,nan,0.0,3,1,20
523410307,1706804396299685,306571747,-842085176,65154,35016,0.124000005,3.1415925,0.324,0.48900002,0.59,1.03,77,5,0.009000001,0.002,-0.009000001,0.048,2.4017618,0,nan,0.0,3,1,20
523510256,1706804396399685,306571747,-842085176,65153,35015,0.10700001,2.6436315,0.324,0.48900002,0.59,1.03,77,5,0.029000001,0.028,0.006,0.033,2.4017618,0,nan,0.0,3,1,20
523609359,1706804396499685,306571748,-842085176,65152,35014,0.12200001,3.1415925,0.324,0.48900002,0.59,1.03,77,5,0.011000001,0.009000001,0.006,-0.026,2.4017618,0,nan,0.0,3,1,20
523706731,1706804396599685,306571748,-842085176,65154,35017,0.116000004,3.1415925,0.324,0.48900002,0.59,1.03,77,5,0.015000001,-0.010000001,-0.011000001,0.020000001,2.4017618,0,nan,0.0,3,1,20
523809580,1706804396699685,306571748,-842085176,65156,35018,0.10700001,3.1415925,0.324,0.48900002,0.59,1.03,77,5,0.020000001,-0.020000001,-0.001,0.020000001,2.4017618,0,nan,0.0,3,1,20
523904910,1706804396799685,306571748,-842085176,65157,35020,0.11800001,2.7179518,0.324,0.48900002,0.59,1.03,77,5,0.032,0.014,0.029000001,-0.047000002,2.4017618,0,nan,0.0,3,1,20
524009341,1706804396899684,306571748,-842085176,65157,35019,0.10700001,3.1415925,0.324,0.48900002,0.59,1.03,77,5,0.013,0.013,0.002,-0.012,2.4017618,0,nan,0.0,3,1,20
524112517,1706804396999685,306571748,-842085176,65157,35019,0.098000005,3.1415925,0.324,0.48900002,0.59,1.03,77,5,0.023000002,0.020000001,0.010000001,-0.012,2.4017618,0,nan,0.0,3,1,20
524208719,1706804397099684,306571748,-842085176,65161,35023,0.11100001,3.1415925,0.324,0.48900002,0.59,1.03,77,5,0.020000001,0.018000001,-0.008,-0.034,2.4017618,0,nan,0.0,3,1,20
524307771,1706804397199684,306571748,-842085176,65163,35025,0.104,3.1415925,0.324,0.48900002,0.59,1.03,77,5,0.015000001,-0.013,0.007,-0.010000001,2.4017618,0,nan,0.0,3,1,20
524408222,1706804397299684,306571748,-842085175,65164,35026,0.08400001,3.1415925,0.324,0.48800004,0.59,1.03,77,5,0.023000002,0.014,0.018000001,0.015000001,2.4017618,0,nan,0.0,3,1,20
524508256,1706804397399684,306571748,-842085175,65162,35024,0.125,3.1415925,0.324,0.48800004,0.59,1.03,77,5,0.014,-0.001,-0.014,0.047000002,2.4017618,0,nan,0.0,3,1,20
524607880,1706804397499684,306571748,-842085176,65162,35024,0.12100001,3.1415925,0.324,0.48800004,0.59,1.03,77,5,0.009000001,-0.006,0.008,-0.027,2.4017618,0,nan,0.0,3,1,20
524707293,1706804397599684,306571749,-842085175,65162,35024,0.089,3.1415925,0.324,0.48800004,0.59,1.03,77,5,0.021000002,0.021000002,-0.001,-0.003,2.4017618,0,nan,0.0,3,1,20
524807488,1706804397699684,306571749,-842085176,65160,35022,0.093,3.1415925,0.324,0.48800004,0.59,1.03,77,5,0.017,-0.016,0.004,0.008,2.4017618,0,nan,0.0,3,1,20
524907460,1706804397799684,306571749,-842085175,65163,35025,0.106000006,3.1415925,0.324,0.48800004,0.59,1.03,77,5,0.021000002,-0.020000001,-0.0050000004,0.017,2.4017618,0,nan,0.0,3,1,20
525010269,1706804397899684,306571749,-842085175,65163,35025,0.085,3.1415925,0.324,0.48800004,0.59,1.03,77,5,0.018000001,0.012,0.013,0.011000001,2.4017618,0,nan,0.0,3,1,20
525110298,1706804397999685,306571749,-842085175,65159,35021,0.119,3.1415925,0.323,0.48800004,0.59,1.03,77,5,0.014,0.011000001,0.008,-0.018000001,2.4017618,0,nan,0.0,3,1,20
525210378,1706804398099684,306571749,-842085175,65164,35026,0.109000005,3.1415925,0.323,0.48800004,0.59,1.03,77,8,0.006,-0.006,0.0,0.010000001,2.4017618,0,nan,0.0,3,1,20
525306387,1706804398199684,306571749,-842085175,65164,35026,0.11800001,3.1415925,0.323,0.48800004,0.59,1.03,77,8,0.015000001,0.015000001,0.003,0.026,2.4017618,0,nan,0.0,3,1,20
525405462,1706804398299684,306571749,-842085175,65159,35022,0.095000006,2.6937587,0.323,0.48800004,0.59,1.03,77,8,0.030000001,-0.019000001,0.024,-0.008,2.4017618,0,nan,0.0,3,1,20
525509352,1706804398399684,306571749,-842085175,65164,35026,0.101,3.1415925,0.323,0.48900002,0.59,1.03,77,8,0.023000002,0.019000001,-0.014,0.009000001,2.4017618,0,nan,0.0,3,1,20
525607301,1706804398499684,306571749,-842085175,65161,35024,0.112,3.1415925,0.323,0.48900002,0.59,1.03,77,8,0.007,-0.0050000004,-0.004,0.010000001,2.4017618,0,nan,0.0,3,1,20
525706310,1706804398599684,306571749,-842085175,65163,35025,0.095000006,3.1415925,0.323,0.48900002,0.59,1.03,77,8,0.017,0.015000001,0.009000001,-0.006,2.4017618,0,nan,0.0,3,1,20
525806297,1706804398699684,306571749,-842085175,65162,35025,0.117000006,3.1415925,0.323,0.48900002,0.59,1.03,77,8,0.011000001,0.009000001,-0.008,-0.024,2.4017618,0,nan,0.0,3,1,20
525909379,1706804398799684,306571749,-842085175,65163,35026,0.098000005,3.1415925,0.323,0.48900002,0.59,1.03,77,8,0.016,0.012,0.010000001,0.013,2.4017618,0,nan,0.0,3,1,20
526009522,1706804398899684,306571750,-842085175,65161,35023,0.105000004,3.1415925,0.323,0.48900002,0.59,1.03,77,8,0.023000002,0.012,0.020000001,-0.014,2.4017618,0,nan,0.0,3,1,20
526112317,1706804398999685,306571750,-842085175,65162,35024,0.13000001,3.1415925,0.323,0.48900002,0.59,1.03,77,8,0.021000002,0.009000001,0.019000001,-0.047000002,2.4017618,0,nan,0.0,3,1,20
526208048,1706804399099684,306571750,-842085175,65164,35027,0.128,3.073431,0.323,0.48900002,0.59,1.03,77,6,0.028,0.022000002,0.018000001,-0.067,2.4017618,0,nan,0.0,3,1,20
526308679,1706804399199683,306571750,-842085175,65164,35026,0.127,3.1415925,0.323,0.48900002,0.59,1.03,77,6,0.013,0.013,-0.002,-0.058000002,2.4017618,0,nan,0.0,3,1,20
526408328,1706804399299683,306571750,-842085175,65164,35026,0.13000001,3.1415925,0.323,0.48900002,0.59,1.03,77,6,0.026,0.024,0.010000001,-0.098000005,2.4017618,0,nan,0.0,3,1,20
526508348,1706804399399683,306571750,-842085175,65164,35026,0.13100001,1.3030099,0.323,0.48900002,0.59,1.03,77,6,0.069000006,0.033,0.061000004,-0.14400001,2.4017618,0,nan,0.0,3,1,20
526604331,1706804399499683,306571750,-842085174,65175,35037,0.132,1.0077536,0.323,0.48900002,0.59,1.03,77,6,0.087000005,0.056,0.067,-0.21700001,2.4017618,0,nan,0.0,3,1,20
526708778,1706804399599683,306571751,-842085174,65196,35058,0.134,0.7035158,0.323,0.48900002,0.59,1.03,77,6,0.128,0.085,0.096,-0.42100003,0.84738904,0,nan,0.0,3,1,20
526810382,1706804399699683,306571751,-842085172,65252,35114,0.14,0.63058704,0.323,0.49,0.59,1.03,77,6,0.148,0.008,0.148,-0.69100004,1.5147718,0,nan,0.0,3,1,20
526907209,1706804399799683,306571752,-842085171,65325,35187,0.143,0.37636748,0.323,0.49,0.59,1.03,77,6,0.27800003,0.11000001,0.25500003,-0.98100007,1.162769,0,nan,0.0,3,1,20
527010796,1706804399899683,306571753,-842085169,65447,35309,0.142,0.49422643,0.323,0.49,0.59,1.03,77,6,0.157,0.149,0.05,-1.271,0.3220345,0,nan,0.0,3,1,20
527115161,1706804399999684,306571754,-842085168,65582,35444,0.14,0.41948918,0.323,0.49,0.59,1.03,77,6,0.223,0.123,0.186,-1.45,0.9858368,0,nan,0.0,3,1,20
527210133,1706804400099683,306571756,-842085166,65727,35590,0.13800001,0.3528216,0.324,0.49,0.59,1.03,77,4,0.252,0.21000001,0.141,-1.623,0.5909915,0,nan,0.0,3,1,20
527305995,1706804400199683,306571757,-842085165,65892,35754,0.142,0.44447827,0.324,0.49,0.59,1.03,77,4,0.201,0.192,0.060000002,-1.6860001,0.30429885,0,nan,0.0,3,1,20
527410161,1706804400299683,306571759,-842085164,66054,35917,0.147,0.41657585,0.324,0.49,0.59,1.03,77,4,0.24400002,0.2,0.141,-1.6110001,0.61302346,0,nan,0.0,3,1,20
527505392,1706804400399683,306571761,-842085164,66206,36068,0.14600001,0.38807428,0.324,0.49100003,0.59,1.03,77,4,0.231,0.22800002,-0.035,-1.562,6.133012,0,nan,0.0,3,1,20
527608335,1706804400499683,306571763,-842085164,66363,36225,0.148,0.77519804,0.324,0.49100003,0.59,1.03,77,4,0.127,0.11800001,0.048,-1.5560001,0.3877699,0,nan,0.0,3,1,20
527709930,1706804400599683,306571764,-842085163,66519,36382,0.14600001,0.50549114,0.324,0.49100003,0.59,1.03,77,4,0.186,0.18400002,0.026,-1.5840001,0.13914968,0,nan,0.0,3,1,20
527805374,1706804400699683,306571766,-842085163,66693,36555,0.14600001,0.3721197,0.324,0.492,0.59,1.03,77,4,0.23900001,0.23500001,-0.045,-1.6800001,6.092377,0,nan,0.0,3,1,20
527909103,1706804400799683,306571768,-842085164,66838,36700,0.147,0.31603584,0.324,0.492,0.59,1.03,77,4,0.28500003,0.26700002,-0.1,-1.5730001,5.9265647,0,nan,0.0,3,1,20
528007844,1706804400899683,306571770,-842085165,66992,36854,0.15200001,0.6711595,0.32500002,0.492,0.59,1.03,77,4,0.143,0.141,0.026,-1.547,0.17917252,0,nan,0.0,3,1,20
528111438,1706804400999684,306571772,-842085165,67150,37012,0.15100001,0.3954401,0.32500002,0.49300003,0.59,1.03,77,4,0.23500001,0.21000001,-0.105000004,-1.6620001,5.819512,0,nan,0.0,3,1,20
528207289,1706804401099683,306571773,-842085167,67301,37163,0.148,0.3694621,0.32500002,0.49300003,0.59,1.03,77,6,0.25500003,0.208,-0.148,-1.5630001,5.6666856,0,nan,0.0,3,1,20
528310938,1706804401199683,306571774,-842085168,67460,37322,0.149,1.4213384,0.32500002,0.49400002,0.59,1.03,77,6,0.069000006,0.048,-0.05,-1.6100001,5.7744517,0,nan,0.0,3,1,20
528407290,1706804401299683,306571775,-842085168,67615,37477,0.15100001,0.48470163,0.32500002,0.49400002,0.59,1.03,77,6,0.193,0.192,-0.024,-1.5910001,6.1573315,0,nan,0.0,3,1,20
528507696,1706804401399683,306571777,-842085169,67788,37650,0.14600001,0.34855306,0.32500002,0.49400002,0.59,1.03,77,6,0.25800002,0.19500001,-0.16800001,-1.6420001,5.5710454,0,nan,0.0,3,1,20
528610956,1706804401499682,306571778,-842085170,67929,37791,0.15200001,1.2256554,0.326,0.49500003,0.59,1.03,77,6,0.09,0.075,0.049000002,-1.575,5.688343,0,nan,0.0,3,1,20
528706281,1706804401599682,306571780,-842085171,68116,37979,0.148,0.34545317,0.326,0.49500003,0.59,1.03,77,6,0.261,0.17300001,-0.19600001,-1.6760001,5.437433,0,nan,0.0,3,1,20
528811236,1706804401699682,306571781,-842085172,68268,38130,0.164,0.90624154,0.326,0.49600002,0.59,1.03,77,6,0.117000006,0.112,0.034,-1.6630001,5.5617213,0,nan,0.0,3,1,20
528909553,1706804401799682,306571782,-842085172,68434,38296,0.164,0.82361174,0.326,0.49600002,0.59,1.03,77,6,0.123,0.023000002,-0.12100001,-1.6520001,5.5617213,0,nan,0.0,3,1,20
529009664,1706804401899682,306571783,-842085173,68609,38471,0.165,0.56380206,0.326,0.49600002,0.59,1.03,77,6,0.16900001,0.16900001,-0.011000001,-1.7540001,6.217724,0,nan,0.0,3,1,20
529114272,1706804401999683,306571783,-842085173,68761,38624,0.165,1.4607743,0.32700002,0.497,0.59,1.03,77,6,0.064,0.036000002,-0.053000003,-1.6140001,5.740931,0,nan,0.0,3,1,20
529209593,1706804402099682,306571784,-842085173,68939,38802,0.163,3.1415925,0.32700002,0.497,0.59,1.03,77,4,0.027,0.022000002,0.016,-1.725,5.740931,0,nan,0.0,3,1,20
529306264,1706804402199682,306571784,-842085174,69103,38965,0.162,1.9036504,0.32700002,0.497,0.59,1.03,77,4,0.046000004,0.035,-0.029000001,-1.6930001,5.740931,0,nan,0.0,3,1,20
529409361,1706804402299682,306571784,-842085174,69261,39124,0.16600001,1.0562625,0.32700002,0.49800003,0.59,1.03,77,4,0.09,0.038000003,-0.081,-1.5480001,5.740931,0,nan,0.0,3,1,20
529509352,1706804402399682,306571785,-842085174,69420,39283,0.16700001,0.77955526,0.32700002,0.49800003,0.59,1.03,77,4,0.13100001,0.045,0.123,-1.585,1.2237171,0,nan,0.0,3,1,20
529609426,1706804402499682,306571785,-842085174,69565,39427,0.16700001,0.50436276,0.32700002,0.49800003,0.59,1.03,77,4,0.18100001,0.14,-0.11400001,-1.5410001,5.5991473,0,nan,0.0,3,1,20
529707300,1706804402599682,306571787,-842085175,69720,39582,0.162,0.39016363,0.32700002,0.49800003,0.59,1.03,77,4,0.22900002,0.22800002,0.018000001,-1.595,0.07808864,0,nan,0.0,3,1,20
529807847,1706804402699682,306571790,-842085173,69890,39752,0.157,0.18918076,0.328,0.499,0.59,1.03,77,4,0.47400004,0.425,0.21000001,-1.7040001,0.45908004,0,nan,0.0,3,1,20
529908285,1706804402799682,306571795,-842085171,70046,39909,0.15100001,0.10930403,0.328,0.499,0.59,1.03,77,4,0.837,0.81700003,0.185,-1.59,0.2229822,0,nan,0.0,3,1,20
530009375,1706804402899682,306571804,-842085168,70215,40077,0.15,0.07867821,0.328,0.499,0.59,1.03,77,4,1.156,1.052,0.47900003,-1.769,0.42704293,0,nan,0.0,3,1,20
530116320,1706804402999683,306571815,-842085162,70401,40264,0.14500001,0.05420067,0.328,0.499,0.59,1.03,77,4,1.608,1.514,0.541,-1.8310001,0.34322962,0,nan,0.0,3,1,20
530204320,1706804403099682,306571831,-842085155,70598,40461,0.14,0.0413917,0.328,0.499,0.59,1.03,77,6,2.105,1.9330001,0.83300006,-2.0770001,0.4068631,0,nan,0.0,3,1,20
530307064,1706804403199682,306571850,-842085146,70812,40674,0.13700001,0.036588557,0.328,0.5,0.59,1.03,77,6,2.453,2.226,1.031,-2.239,0.43361935,0,nan,0.0,3,1,20
530412252,1706804403299682,306571870,-842085134,71034,40896,0.134,0.03505668,0.328,0.5,0.59,1.03,77,6,2.608,2.3790002,1.069,-2.128,0.42230386,0,nan,0.0,3,1,20
530506251,1706804403399682,306571892,-842085123,71232,41094,0.134,0.03770417,0.328,0.5,0.59,1.03,77,6,2.5770001,2.3500001,1.057,-1.978,0.42255554,0,nan,0.0,3,1,20
530610380,1706804403499682,306571913,-842085113,71429,41291,0.13800001,0.039406218,0.328,0.5,0.59,1.03,77,6,2.4950001,2.312,0.938,-1.9900001,0.3854629,0,nan,0.0,3,1,20
530706384,1706804403599682,306571934,-842085104,71624,41487,0.13800001,0.041002844,0.32900003,0.50100005,0.59,1.03,77,6,2.467,2.3530002,0.74100006,-1.889,0.30510744,0,nan,0.0,3,1,20
530805511,1706804403699682,306571954,-842085098,71800,41662,0.14600001,0.04638387,0.32900003,0.50100005,0.59,1.03,77,6,2.214,2.15,0.526,-1.8260001,0.23988938,0,nan,0.0,3,1,20
530909400,1706804403799682,306571973,-842085094,71994,41856,0.16100001,0.052637033,0.32900003,0.50200003,0.59,1.03,77,6,2.006,1.9860001,0.28500003,-1.9180001,0.14256966,0,nan,0.0,3,1,20
531010340,1706804403899681,306571990,-842085092,72171,42034,0.15300001,0.052226007,0.33,0.50200003,0.59,1.03,77,6,1.978,1.9760001,0.064,-1.7040001,0.032489475,0,nan,0.0,3,1,20
531110288,1706804403999682,306572008,-842085092,72356,42219,0.149,0.05474801,0.33,0.503,0.59,1.03,77,6,1.838,1.8360001,-0.09200001,-1.7880001,6.2330465,0,nan,0.0,3,1,20
531208304,1706804404099681,306572024,-842085093,72514,42376,0.149,0.057384852,0.33,0.503,0.59,1.03,77,4,1.7350001,1.7300001,-0.126,-1.817,6.210348,0,nan,0.0,3,1,20
531309890,1706804404199681,306572039,-842085094,72704,42566,0.15,0.055822432,0.33,0.504,0.59,1.03,77,4,1.705,1.7040001,-0.063,-1.8620001,6.246027,0,nan,0.0,3,1,20
531406151,1706804404299681,306572054,-842085095,72884,42746,0.148,0.054964602,0.33,0.504,0.59,1.03,77,4,1.6910001,1.69,-0.062000003,-1.8490001,6.2467055,0,nan,0.0,3,1,20
531511916,1706804404399681,306572069,-842085094,73079,42941,0.15,0.061888326,0.33100003,0.504,0.59,1.03,77,4,1.5600001,1.5530001,0.156,-1.9990001,0.10028748,0,nan,0.0,3,1,20
531615403,1706804404499681,306572082,-842085091,73269,43131,0.149,0.066559,0.33100003,0.504,0.59,1.03,77,4,1.48,1.401,0.47700003,-1.9670001,0.3278962,0,nan,0.0,3,1,20
531709306,1706804404599681,306572095,-842085085,73467,43329,0.149,0.06555387,0.33100003,0.505,0.59,1.03,77,4,1.5000001,1.3820001,0.583,-1.774,0.39943498,0,nan,0.0,3,1,20
531807307,1706804404699681,306572107,-842085079,73627,43489,0.147,0.06993935,0.33100003,0.505,0.59,1.03,77,4,1.414,1.264,0.633,-1.439,0.4642401,0,nan,0.0,3,1,20
531910400,1706804404799681,306572118,-842085071,73770,43632,0.14500001,0.06676862,0.33100003,0.505,0.59,1.03,77,4,1.4890001,1.1910001,0.89300007,-1.5560001,0.643044,0,nan,0.0,3,1,20
532006290,1706804404899681,306572129,-842085062,73954,43816,0.15100001,0.07260098,0.33100003,0.505,0.59,1.03,77,4,1.391,1.082,0.874,-1.794,0.6795861,0,nan,0.0,3,1,20
532117156,1706804404999682,306572138,-842085053,74131,43993,0.15200001,0.075945556,0.33100003,0.505,0.59,1.03,77,4,1.2850001,0.998,0.809,-1.8590001,0.68134123,0,nan,0.0,3,1,20
532210435,1706804405099681,306572147,-842085045,74313,44175,0.155,0.08239664,0.33100003,0.50600004,0.59,1.03,77,9,1.2040001,0.897,0.804,-1.9350001,0.7309346,0,nan,0.0,3,1,20
532306381,1706804405199681,306572154,-842085037,74511,44373,0.157,0.0996665,0.33100003,0.50600004,0.59,1.03,77,9,0.9710001,0.70000005,0.674,-1.9800001,0.7665473,0,nan,0.0,3,1,20
532410140,1706804405299681,306572159,-842085031,74708,44570,0.16000001,0.13831821,0.33200002,0.50600004,0.59,1.03,77,9,0.72800004,0.508,0.522,-1.9300001,0.79917085,0,nan,0.0,3,1,20
532507400,1706804405399681,306572164,-842085026,74912,44774,0.157,0.18635176,0.33200002,0.50600004,0.59,1.03,77,9,0.51600003,0.36900002,0.36100003,-1.9930001,0.77518725,0,nan,0.0,3,1,20
532609546,1706804405499681,306572165,-842085023,75106,44968,0.158,0.4511646,0.33200002,0.50600004,0.59,1.03,77,9,0.25100002,-0.025,0.24900001,-1.9650002,1.6712155,0,nan,0.0,3,1,20
532710254,1706804405599681,306572164,-842085022,75303,45166,0.157,0.3379193,0.33200002,0.50600004,0.59,1.03,77,9,0.28300002,-0.28,-0.038000003,-1.9250001,3.2756646,0,nan,0.0,3,1,20
532810785,1706804405699681,306572161,-842085023,75476,45338,0.15100001,0.19625999,0.33200002,0.50600004,0.59,1.03,77,9,0.50100005,-0.47300002,-0.16700001,-1.5380001,3.4815118,0,nan,0.0,3,1,20
532905297,1706804405799681,306572157,-842085025,75619,45481,0.14600001,0.16972959,0.33200002,0.50600004,0.59,1.03,77,9,0.57900006,-0.51500005,-0.26500002,-1.3210001,3.6168966,0,nan,0.0,3,1,20
533010261,1706804405899681,306572150,-842085028,75753,45615,0.135,0.10544144,0.33200002,0.50600004,0.59,1.03,77,9,0.90200007,-0.84300005,-0.321,-1.4080001,3.505612,0,nan,0.0,3,1,20
533113529,1706804405999682,306572143,-842085032,75908,45770,0.126,0.09775082,0.33200002,0.50600004,0.59,1.03,77,9,0.94100004,-0.851,-0.40100002,-1.5100001,3.5816727,0,nan,0.0,3,1,20
533209367,1706804406099681,306572136,-842085037,76058,45920,0.123,0.09879663,0.33200002,0.50600004,0.59,1.03,77,8,0.892,-0.785,-0.423,-1.5680001,3.6363778,0,nan,0.0,3,1,20
533308393,1706804406199680,306572129,-842085041,76220,46082,0.120000005,0.10116451,0.33200002,0.50600004,0.59,1.03,77,8,0.84700006,-0.772,-0.349,-1.6940001,3.5659187,0,nan,0.0,3,1,20
533407559,1706804406299680,306572123,-842085044,76391,46253,0.12100001,0.12530853,0.33200002,0.50600004,0.59,1.03,77,8,0.679,-0.597,-0.323,-1.7290001,3.637105,0,nan,0.0,3,1,20
533509094,1706804406399680,306572118,-842085047,76557,46419,0.12200001,0.18913679,0.33200002,0.50600004,0.59,1.03,77,8,0.462,-0.34800002,-0.303,-1.674,3.8579805,0,nan,0.0,3,1,20
533613398,1706804406499680,306572116,-842085049,76722,46585,0.12900001,0.6476894,0.33200002,0.505,0.59,1.03,77,8,0.135,-0.108,-0.081,-1.674,3.785598,0,nan,0.0,3,1,20
533708554,1706804406599680,306572116,-842085050,76879,46741,0.12900001,0.33629996,0.33200002,0.505,0.59,1.03,77,8,0.21000001,0.20300001,-0.056,-1.6300001,6.012977,0,nan,0.0,3,1,20
533804397,1706804406699680,306572120,-842085049,77055,46918,0.128,0.14189352,0.33200002,0.505,0.59,1.03,77,8,0.53900003,0.507,0.18400002,-1.8090001,0.34890088,0,nan,0.0,3,1,20
533908329,1706804406799680,306572125,-842085047,77235,47097,0.128,0.11906583,0.33200002,0.505,0.59,1.03,77,8,0.643,0.596,0.24300002,-1.8160001,0.3867782,0,nan,0.0,3,1,20
534011256,1706804406899680,306572131,-842085044,77392,47254,0.123,0.08966506,0.33200002,0.505,0.59,1.03,77,8,0.901,0.841,0.32200003,-1.4020001,0.36526442,0,nan,0.0,3,1,20
534118715,1706804406999681,306572139,-842085041,77520,47382,0.12200001,0.09733404,0.33200002,0.505,0.59,1.03,77,8,0.87600005,0.822,0.30200002,-1.21,0.3519252,0,nan,0.0,3,1,20
534211915,1706804407099680,306572146,-842085038,77623,47485,0.12100001,0.11934613,0.33200002,0.505,0.59,1.03,77,4,0.76500005,0.70900005,0.28800002,-0.87500006,0.3866171,0,nan,0.0,3,1,20
534311278,1706804407199680,306572152,-842085035,77689,47551,0.115,0.1178605,0.33200002,0.505,0.59,1.03,77,4,0.77500004,0.73700005,0.24000001,-0.532,0.31478444,0,nan,0.0,3,1,20
534411277,1706804407299680,306572158,-842085033,77729,47591,0.11100001,0.14376223,0.33200002,0.505,0.59,1.03,77,4,0.64400005,0.606,0.21800001,-0.30100003,0.34560537,0,nan,0.0,3,1,20
534510258,1706804407399680,306572163,-842085031,77738,47600,0.1,0.15546991,0.33200002,0.505,0.59,1.03,77,4,0.574,0.54,0.193,0.046000004,0.34383908,0,nan,0.0,3,1,20
534611449,1706804407499680,306572168,-842085029,77712,47574,0.108,0.18266039,0.33200002,0.505,0.59,1.03,77,4,0.48000002,0.46,0.13700001,0.36900002,0.2889197,0,nan,0.0,3,1,20
534707439,1706804407599680,306572171,-842085028,77648,47510,0.12100001,0.27517313,0.33200002,0.505,0.59,1.03,77,4,0.317,0.30400002,0.09200001,0.70900005,0.29470196,0,nan,0.0,3,1,20
534810114,1706804407699680,306572174,-842085027,77559,47422,0.126,0.34845236,0.33200002,0.505,0.59,1.03,77,4,0.24400002,0.238,0.051000003,1.008,0.20950268,0,nan,0.0,3,1,20
534913406,1706804407799680,306572176,-842085027,77451,47314,0.126,0.45779493,0.33200002,0.504,0.59,1.03,77,4,0.17400001,0.17400001,-0.004,1.2320001,6.262275,0,nan,0.0,3,1,20
535010002,1706804407899680,306572176,-842085027,77296,47159,0.126,3.1415925,0.33200002,0.504,0.59,1.03,77,4,0.025,-0.008,0.024,1.491,0.1650193,0,nan,0.0,3,1,20
535117629,1706804407999681,306572176,-842085028,77150,47012,0.13000001,0.8833048,0.33200002,0.504,0.59,1.03,77,4,0.11100001,-0.020000001,-0.109000005,1.3180001,0.1650193,0,nan,0.0,3,1,20
535211553,1706804408099680,306572175,-842085029,77027,46890,0.133,0.30317274,0.33200002,0.504,0.59,1.03,77,5,0.27600002,-0.26000002,-0.091000006,0.97200006,3.4785416,0,nan,0.0,3,1,20
535309325,1706804408199680,306572172,-842085029,76951,46813,0.13000001,0.27032462,0.33200002,0.504,0.59,1.03,77,5,0.30100003,-0.30100003,0.0,0.652,3.1431706,0,nan,0.0,3,1,20
535407289,1706804408299680,306572170,-842085029,76886,46748,0.128,0.30313802,0.33200002,0.504,0.59,1.03,77,5,0.26900002,-0.26000002,-0.071,0.455,3.4090922,0,nan,0.0,3,1,20
535508667,1706804408399680,306572167,-842085030,76860,46722,0.10300001,0.2072697,0.33200002,0.504,0.59,1.03,77,5,0.388,-0.38200003,-0.068,0.12200001,3.3168924,0,nan,0.0,3,1,20
535607267,1706804408499679,306572164,-842085031,76863,46725,0.098000005,0.20989451,0.33200002,0.504,0.59,1.03,77,5,0.37800002,-0.37300003,-0.062000003,-0.224,3.3059945,0,nan,0.0,3,1,20
535707186,1706804408599679,306572160,-842085031,76896,46758,0.11400001,0.2269352,0.33200002,0.503,0.59,1.03,77,5,0.34600002,-0.33900002,-0.07,-0.54,3.344208,0,nan,0.0,3,1,20
535810283,1706804408699679,306572157,-842085032,76967,46829,0.120000005,0.1801883,0.33200002,0.503,0.59,1.03,77,5,0.43500003,-0.42900002,-0.076000005,-0.813,3.3159354,0,nan,0.0,3,1,20
535906476,1706804408799679,306572153,-842085033,77057,46919,0.120000005,0.2034661,0.33200002,0.503,0.59,1.03,77,5,0.41500002,-0.39000002,-0.141,-1.034,3.4893773,0,nan,0.0,3,1,20
536010306,1706804408899679,306572150,-842085035,77185,47048,0.12200001,0.23339117,0.33200002,0.503,0.59,1.03,77,5,0.36200002,-0.317,-0.17500001,-1.342,3.646555,0,nan,0.0,3,1,20
536118201,1706804408999680,306572147,-842085036,77325,47187,0.124000005,0.21250308,0.33200002,0.503,0.59,1.03,77,5,0.38900003,-0.358,-0.15300001,-1.5870001,3.546947,0,nan,0.0,3,1,20
536209520,1706804409099679,306572144,-842085038,77500,47362,0.12900001,0.2449046,0.33200002,0.503,0.59,1.03,77,7,0.33600003,-0.32000002,-0.10300001,-1.8920001,3.4523058,0,nan,0.0,3,1,20
536310273,1706804409199679,306572141,-842085039,77694,47556,0.133,0.23106866,0.33200002,0.503,0.59,1.03,77,7,0.397,-0.333,-0.216,-2.0830002,3.7176094,0,nan,0.0,3,1,20
536411335,1706804409299679,306572138,-842085041,77924,47787,0.12900001,0.22745304,0.33200002,0.50200003,0.59,1.03,77,7,0.34800002,-0.33900002,-0.079,-2.459,3.3701375,0,nan,0.0,3,1,20
536506277,1706804409399679,306572135,-842085042,78180,48042,0.127,0.2619877,0.33200002,0.50200003,0.59,1.03,77,7,0.32900003,-0.264,-0.19600001,-2.6520002,3.7789137,0,nan,0.0,3,1,20
536608317,1706804409499679,306572133,-842085044,78424,48287,0.126,0.276502,0.33200002,0.50200003,0.59,1.03,77,7,0.30900002,-0.27100003,-0.148,-2.374,3.6426587,0,nan,0.0,3,1,20
536708276,1706804409599679,306572131,-842085045,78655,48517,0.125,0.30285072,0.33200002,0.50200003,0.59,1.03,77,7,0.26900002,-0.25100002,-0.095000006,-2.062,3.5017636,0,nan,0.0,3,1,20
536809564,1706804409699679,306572129,-842085047,78852,48714,0.126,0.30631974,0.33200002,0.50200003,0.59,1.03,77,7,0.279,-0.21300001,-0.18,-1.8280001,3.8439283,0,nan,0.0,3,1,20
536909416,1706804409799679,306572127,-842085048,79014,48876,0.13000001,0.37894884,0.33200002,0.50200003,0.59,1.03,77,7,0.22000001,-0.192,-0.10700001,-1.5640001,3.6521335,0,nan,0.0,3,1,20
537011284,1706804409899679,306572126,-842085049,79153,49015,0.13900001,0.93987477,0.33200002,0.50200003,0.59,1.03,77,7,0.085,-0.078,0.033,-1.2820001,3.684483,0,nan,0.0,3,1,20
537111917,1706804409999680,306572125,-842085048,79283,49146,0.13700001,0.59414494,0.33200002,0.50200003,0.59,1.03,77,7,0.13100001,-0.11000001,0.07,-1.1600001,2.5743234,0,nan,0.0,3,1,20
537209129,1706804410099679,306572125,-842085047,79378,49240,0.141,0.78980243,0.33200002,0.50200003,0.59,1.03,77,6,0.135,-0.003,0.135,-0.90400004,3.363357,0,nan,0.0,3,1,20
537308598,1706804410199679,306572124,-842085046,79446,49308,0.133,0.3313015,0.33200002,0.50100005,0.59,1.03,77,6,0.252,-0.216,0.13000001,-0.57500005,2.6002755,0,nan,0.0,3,1,20
537404592,1706804410299679,306572123,-842085045,79495,49357,0.134,3.1415925,0.33200002,0.50100005,0.59,1.03,77,6,0.027,-0.011000001,-0.024,-0.287,2.7812486,0,nan,0.0,3,1,20
537507271,1706804410399679,306572122,-842085045,79509,49372,0.119,0.9526832,0.33200002,0.50100005,0.59,1.03,77,6,0.094000004,-0.085,0.040000003,-0.076000005,2.7812486,0,nan,0.0,3,1,20
537609996,1706804410499679,306572122,-842085045,79514,49376,0.133,2.293618,0.33200002,0.50100005,0.59,1.03,77,6,0.037,-0.037,0.007,-0.093,2.7812486,0,nan,0.0,3,1,20
537708388,1706804410599679,306572122,-842085045,79517,49379,0.12100001,2.188357,0.33200002,0.50100005,0.59,1.03,77,6,0.047000002,-0.004,-0.047000002,-0.07700001,2.7812486,0,nan,0.0,3,1,20
537807293,1706804410699679,306572122,-842085046,79525,49387,0.116000004,1.7250453,0.33200002,0.50100005,0.59,1.03,77,6,0.057000004,-0.027,-0.05,-0.069000006,2.7812486,0,nan,0.0,3,1,20
537907908,1706804410799678,306572121,-842085046,79535,49397,0.133,3.1415925,0.33200002,0.50100005,0.59,1.03,77,6,0.030000001,-0.010000001,-0.029000001,-0.115,2.7812486,0,nan,0.0,3,1,20
538009151,1706804410899678,306572121,-842085047,79540,49402,0.11800001,1.9362664,0.33200002,0.50100005,0.59,1.03,77,6,0.053000003,-0.012,-0.052,-0.07,2.7812486,0,nan,0.0,3,1,20
538114262,1706804410999679,306572121,-842085048,79554,49416,0.127,1.369425,0.33200002,0.50100005,0.59,1.03,77,6,0.075,0.003,-0.075,-0.179,2.7812486,0,nan,0.0,3,1,20
538210272,1706804411099678,306572121,-842085048,79576,49438,0.12900001,1.9626321,0.33200002,0.50100005,0.59,1.03,77,8,0.051000003,0.002,-0.051000003,-0.162,2.7812486,0,nan,0.0,3,1,20
538306303,1706804411199678,306572121,-842085049,79582,49444,0.08400001,1.170603,0.33200002,0.5,0.59,1.03,77,8,0.085,-0.025,-0.082,-0.004,2.7812486,0,nan,0.0,3,1,20
538408352,1706804411299678,306572121,-842085050,79583,49446,0.096,1.4503286,0.33200002,0.5,0.59,1.03,77,8,0.068,0.039,-0.056,-0.043,2.7812486,0,nan,0.0,3,1,20
538509402,1706804411399678,306572122,-842085050,79586,49448,0.082,1.1263807,0.33200002,0.5,0.59,1.03,77,8,0.091000006,0.032,-0.085,-0.008,2.7812486,0,nan,0.0,3,1,20
538612686,1706804411499678,306572122,-842085051,79587,49449,0.085,1.0445424,0.33200002,0.5,0.59,1.03,77,8,0.096,0.051000003,-0.081,-0.020000001,2.7812486,0,nan,0.0,3,1,20
538708288,1706804411599678,306572122,-842085052,79591,49453,0.09,1.2423368,0.33200002,0.5,0.59,1.03,77,8,0.080000006,0.046000004,-0.066,0.010000001,2.7812486,0,nan,0.0,3,1,20
538809591,1706804411699678,306572123,-842085053,79591,49453,0.091000006,0.92366904,0.33200002,0.5,0.59,1.03,77,8,0.105000004,0.07,-0.078,0.0,2.7812486,0,nan,0.0,3,1,20
538908400,1706804411799678,306572124,-842085054,79592,49454,0.101,0.62639356,0.333,0.5,0.59,1.03,77,8,0.134,0.13100001,-0.028,-0.032,6.069173,0,nan,0.0,3,1,20
539008295,1706804411899678,306572125,-842085054,79594,49456,0.098000005,1.0635312,0.333,0.5,0.59,1.03,77,8,0.081,0.076000005,-0.029000001,-0.020000001,2.126245,0,nan,0.0,3,1,20
539111285,1706804411999679,306572126,-842085054,79596,49458,0.09900001,0.7231098,0.333,0.499,0.59,1.03,77,8,0.119,0.112,-0.041,-0.020000001,5.935646,0,nan,0.0,3,1,20
539208292,1706804412099678,306572127,-842085055,79600,49462,0.102000006,0.8368579,0.333,0.499,0.59,1.03,77,8,0.1,0.1,-0.010000001,-0.034,1.065729,0,nan,0.0,3,1,20
539308594,1706804412199678,306572128,-842085055,79601,49463,0.10300001,0.7078999,0.333,0.499,0.59,1.03,77,8,0.117000006,0.116000004,0.011000001,-0.033,0.09019826,0,nan,0.0,3,1,20
539408598,1706804412299678,306572129,-842085055,79602,49464,0.106000006,0.6443296,0.333,0.499,0.59,1.03,77,8,0.128,0.127,0.014,0.009000001,0.10663298,0,nan,0.0,3,1,20
539509724,1706804412399678,306572130,-842085055,79598,49460,0.104,0.69455653,0.333,0.499,0.59,1.03,77,8,0.119,0.119,0.009000001,-0.052,0.07813891,0,nan,0.0,3,1,20
539611260,1706804412499678,306572131,-842085054,79613,49475,0.120000005,0.571149,0.333,0.499,0.59,1.03,77,8,0.147,0.143,0.033,-0.30800003,0.22720294,0,nan,0.0,3,1,20
539712128,1706804412599678,306572131,-842085054,79653,49515,0.125,0.69517016,0.333,0.499,0.59,1.03,77,8,0.125,0.11100001,0.058000002,-0.54800004,0.47818512,0,nan,0.0,3,1,20
539806297,1706804412699678,306572132,-842085054,79725,49587,0.12900001,1.5290172,0.333,0.499,0.59,1.03,77,8,0.057000004,0.055000003,-0.015000001,-0.94500005,0.3231723,0,nan,0.0,3,1,20
539911321,1706804412799678,306572133,-842085054,79818,49680,0.13100001,0.4553014,0.333,0.499,0.59,1.03,77,8,0.19700001,0.19700001,0.002,-1.1190001,0.0115868915,0,nan,0.0,3,1,20
540010264,1706804412899678,306572134,-842085054,79948,49811,0.132,0.76653373,0.333,0.499,0.59,1.03,77,8,0.113000005,0.109000005,-0.029000001,-1.3280001,6.0261316,0,nan,0.0,3,1,20
540110811,1706804412999679,306572135,-842085053,80084,49946,0.12900001,0.50758183,0.333,0.49800003,0.59,1.03,77,8,0.18,0.12900001,0.126,-1.2850001,0.774528,0,nan,0.0,3,1,20
540209365,1706804413099677,306572137,-842085053,80203,50065,0.133,0.41307595,0.333,0.49800003,0.59,1.03,77,4,0.21300001,0.21300001,0.002,-1.2110001,0.009205739,0,nan,0.0,3,1,20
540310729,1706804413199677,306572139,-842085053,80322,50184,0.134,0.46154305,0.333,0.49800003,0.59,1.03,77,4,0.19100001,0.19000001,-0.020000001,-1.1450001,6.1808324,0,nan,0.0,3,1,20
540409382,1706804413299677,306572140,-842085052,80466,50328,0.13100001,0.6660166,0.333,0.49800003,0.59,1.03,77,4,0.12900001,0.10300001,0.078,-1.3280001,0.64387983,0,nan,0.0,3,1,20
540509928,1706804413399677,306572141,-842085052,80587,50449,0.136,0.45534155,0.333,0.49800003,0.59,1.03,77,4,0.2,0.17300001,-0.101,-1.279,5.757456,0,nan,0.0,3,1,20
540613366,1706804413499677,306572143,-842085053,80719,50581,0.141,1.2971345,0.333,0.49800003,0.59,1.03,77,4,0.067,0.062000003,0.026,-1.325,6.0080967,0,nan,0.0,3,1,20
540708679,1706804413599677,306572143,-842085053,80851,50713,0.14,0.8973395,0.333,0.49800003,0.59,1.03,77,4,0.09900001,0.094000004,-0.029000001,-1.2930001,6.0080967,0,nan,0.0,3,1,20
540808347,1706804413699677,306572144,-842085053,80982,50844,0.14,1.2377659,0.333,0.49800003,0.59,1.03,77,4,0.075,0.066,-0.036000002,-1.314,6.0080967,0,nan,0.0,3,1,20
540908313,1706804413799677,306572144,-842085054,81116,50978,0.13800001,1.6757879,0.333,0.49800003,0.59,1.03,77,4,0.057000004,0.036000002,-0.044000003,-1.3950001,6.0080967,0,nan,0.0,3,1,20
541007292,1706804413899677,306572144,-842085054,81251,51114,0.13900001,3.1415925,0.333,0.49800003,0.59,1.03,77,4,0.016,-0.008,-0.014,-1.445,6.0080967,0,nan,0.0,3,1,20
541116319,1706804413999678,306572144,-842085054,81412,51274,0.133,1.7914174,0.333,0.49800003,0.59,1.03,77,4,0.049000002,-0.046000004,0.016,-1.5200001,6.0080967,0,nan,0.0,3,1,20
541211689,1706804414099677,306572144,-842085054,81568,51430,0.133,0.9594949,0.333,0.49800003,0.59,1.03,77,4,0.09200001,-0.081,0.044000003,-1.5890001,6.0080967,0,nan,0.0,3,1,20
541307152,1706804414199677,306572143,-842085053,81714,51576,0.133,3.1415925,0.333,0.49800003,0.59,1.03,77,4,0.019000001,-0.019000001,0.003,-1.5410001,6.0080967,0,nan,0.0,3,1,20
541410268,1706804414299677,306572143,-842085054,81876,51738,0.133,0.7834664,0.333,0.49800003,0.59,1.03,77,4,0.106000006,-0.102000006,-0.029000001,-1.5970001,3.4188254,0,nan,0.0,3,1,20
541511300,1706804414399677,306572141,-842085053,82030,51892,0.13900001,0.6223943,0.333,0.49800003,0.59,1.03,77,4,0.14600001,-0.128,0.069000006,-1.616,2.6458135,0,nan,0.0,3,1,20
541611010,1706804414499677,306572140,-842085053,82193,52056,0.136,0.7830166,0.333,0.49800003,0.59,1.03,77,4,0.106000006,-0.104,-0.022000002,-1.623,3.3470397,0,nan,0.0,3,1,20
541710259,1706804414599677,306572140,-842085053,82364,52227,0.134,0.79697454,0.333,0.49800003,0.59,1.03,77,4,0.116000004,-0.081,0.08400001,-1.613,3.5592833,0,nan,0.0,3,1,20
541810270,1706804414699677,306572139,-842085052,82514,52376,0.14,0.93206596,0.333,0.497,0.59,1.03,77,4,0.093,-0.09200001,0.015000001,-1.6,3.5592833,0,nan,0.0,3,1,20
541907322,1706804414799677,306572138,-842085052,82685,52547,0.14600001,0.7927887,0.333,0.497,0.59,1.03,77,4,0.112,-0.106000006,0.037,-1.7350001,3.5592833,0,nan,0.0,3,1,20
542010454,1706804414899677,306572137,-842085052,82870,52732,0.13900001,0.5207106,0.333,0.497,0.59,1.03,77,4,0.16900001,-0.157,0.062000003,-1.8340001,2.765482,0,nan,0.0,3,1,20
542116070,1706804414999678,306572135,-842085051,83041,52903,0.13800001,0.8029854,0.333,0.497,0.59,1.03,77,4,0.112,-0.1,0.05,-1.7070001,3.0088344,0,nan,0.0,3,1,20
542210261,1706804415099677,306572134,-842085051,83212,53075,0.14500001,0.62787414,0.333,0.497,0.59,1.03,77,12,0.143,-0.142,0.017,-1.7120001,3.0249627,0,nan,0.0,3,1,20
542308770,1706804415199677,306572133,-842085051,83386,53248,0.14400001,0.6797652,0.333,0.497,0.59,1.03,77,12,0.128,-0.127,-0.016,-1.7240001,3.2659402,0,nan,0.0,3,1,20
542408291,1706804415299677,306572132,-842085051,83563,53425,0.13800001,0.46981695,0.333,0.497,0.59,1.03,77,12,0.19100001,-0.177,0.072000004,-1.7680001,2.756444,0,nan,0.0,3,1,20
542511475,1706804415399676,306572130,-842085050,83742,53604,0.141,0.6319116,0.333,0.497,0.59,1.03,77,12,0.142,-0.13700001,0.035,-1.8000001,2.8918777,0,nan,0.0,3,1,20
542608292,1706804415499676,306572129,-842085050,83924,53786,0.142,1.0024494,0.333,0.497,0.59,1.03,77,12,0.09,-0.087000005,-0.020000001,-1.8560001,2.8825786,0,nan,0.0,3,1,20
542707230,1706804415599676,306572128,-842085050,84110,53973,0.136,0.50042534,0.333,0.497,0.59,1.03,77,12,0.178,-0.16700001,0.061000004,-1.8620001,2.7944338,0,nan,0.0,3,1,20
542807258,1706804415699676,306572126,-842085049,84295,54157,0.13700001,0.43045035,0.333,0.497,0.59,1.03,77,12,0.208,-0.19700001,0.067,-1.8970001,2.8138194,0,nan,0.0,3,1,20
542912258,1706804415799676,306572125,-842085049,84498,54360,0.13700001,0.7894122,0.333,0.497,0.59,1.03,77,12,0.11100001,-0.11100001,-0.010000001,-2.0870001,2.8200197,0,nan,0.0,3,1,20
543007279,1706804415899676,306572124,-842085049,84709,54571,0.134,0.6333281,0.333,0.497,0.59,1.03,77,12,0.136,-0.134,0.023000002,-2.158,2.9691634,0,nan,0.0,3,1,20
543111316,1706804415999677,306572122,-842085049,84921,54783,0.13700001,0.8718338,0.333,0.497,0.59,1.03,77,12,0.102000006,-0.101,0.014,-2.1590002,2.8671663,0,nan,0.0,3,1,20
543211278,1706804416099676,306572122,-842085049,85153,55015,0.134,0.738132,0.333,0.497,0.59,1.03,77,6,0.119,-0.11100001,0.042000003,-2.289,2.7806735,0,nan,0.0,3,1,20
543311257,1706804416199676,306572120,-842085048,85382,55245,0.134,0.4238645,0.333,0.497,0.59,1.03,77,6,0.21400002,-0.18100001,0.113000005,-2.335,2.5851662,0,nan,0.0,3,1,20
543410501,1706804416299676,306572119,-842085047,85609,55472,0.13700001,0.7465558,0.333,0.497,0.59,1.03,77,6,0.119,-0.115,0.028,-2.2770002,2.9010937,0,nan,0.0,3,1,20
543507440,1706804416399676,306572118,-842085047,85844,55706,0.13800001,0.65734875,0.333,0.497,0.59,1.03,77,6,0.13700001,-0.126,0.054,-2.3850002,2.7372885,0,nan,0.0,3,1,20
543609594,1706804416499676,306572117,-842085046,86082,55944,0.136,0.88209075,0.333,0.497,0.59,1.03,77,6,0.109000005,-0.066,0.087000005,-2.4510002,2.7245843,0,nan,0.0,3,1,20
543706482,1706804416599676,306572116,-842085045,86337,56199,0.135,0.9287104,0.33400002,0.497,0.59,1.03,77,6,0.09900001,-0.08400001,0.052,-2.5070002,2.7245843,0,nan,0.0,3,1,20
543808904,1706804416699676,306572115,-842085045,86574,56436,0.135,1.6443964,0.33400002,0.497,0.59,1.03,77,6,0.057000004,-0.047000002,0.033,-2.302,2.7245843,0,nan,0.0,3,1,20
543909388,1706804416799676,306572115,-842085045,86810,56672,0.134,1.705084,0.33400002,0.497,0.59,1.03,77,6,0.060000002,-0.017,0.058000002,-2.355,2.7245843,0,nan,0.0,3,1,20
544009338,1706804416899676,306572115,-842085044,87053,56915,0.134,2.556853,0.33400002,0.497,0.59,1.03,77,6,0.041,-0.004,0.041,-2.6450002,2.7245843,0,nan,0.0,3,1,20
544116614,1706804416999677,306572115,-842085044,87324,57186,0.134,1.1274714,0.33400002,0.497,0.59,1.03,77,6,0.08800001,-0.060000002,0.065000005,-2.7180002,2.7245843,0,nan,0.0,3,1,20
544211435,1706804417099676,306572114,-842085043,87594,57456,0.134,1.4754908,0.33400002,0.497,0.59,1.03,77,5,0.071,-0.027,0.066,-2.7450001,2.7245843,0,nan,0.0,3,1,20
544308792,1706804417199676,306572114,-842085043,87880,57742,0.133,2.2433395,0.33400002,0.497,0.59,1.03,77,5,0.041,-0.038000003,0.015000001,-3.0210001,2.7245843,0,nan,0.0,3,1,20
544411556,1706804417299676,306572114,-842085042,88183,58045,0.132,1.5654793,0.33400002,0.497,0.59,1.03,77,5,0.064,0.029000001,0.057000004,-3.1190002,2.7245843,0,nan,0.0,3,1,20
544508627,1706804417399676,306572113,-842085042,88500,58362,0.132,1.6756196,0.33400002,0.497,0.59,1.03,77,5,0.056,-0.05,0.023000002,-3.1520002,2.7245843,0,nan,0.0,3,1,20
544608267,1706804417499676,306572113,-842085042,88820,58682,0.13100001,1.311044,0.33400002,0.497,0.59,1.03,77,5,0.067,-0.065000005,0.018000001,-3.2450001,2.7245843,0,nan,0.0,3,1,20
544707856,1706804417599676,306572112,-842085041,89144,59006,0.13000001,1.8650682,0.33400002,0.497,0.59,1.03,77,5,0.051000003,-0.041,0.029000001,-3.2270002,2.7245843,0,nan,0.0,3,1,20
544810773,1706804417699676,306572112,-842085041,89473,59335,0.128,1.3842206,0.33400002,0.497,0.59,1.03,77,5,0.069000006,-0.048,0.05,-3.3240001,2.7245843,0,nan,0.0,3,1,20
544907275,1706804417799675,306572112,-842085041,89813,59675,0.128,2.1851747,0.33400002,0.497,0.59,1.03,77,5,0.045,-0.023000002,0.039,-3.5040002,2.7245843,0,nan,0.0,3,1,20
545010403,1706804417899675,306572111,-842085040,90162,60024,0.127,1.3488308,0.33400002,0.49600002,0.59,1.03,77,5,0.067,-0.057000004,0.035,-3.4770002,2.7245843,0,nan,0.0,3,1,20
545115159,1706804417999676,306572111,-842085040,90508,60370,0.127,1.3127252,0.33400002,0.49600002,0.59,1.03,77,5,0.074,-0.037,0.064,-3.496,2.7245843,0,nan,0.0,3,1,20
545210262,1706804418099675,306572110,-842085039,90861,60724,0.126,1.1439432,0.33400002,0.49600002,0.59,1.03,77,9,0.08400001,-0.049000002,0.068,-3.568,2.7245843,0,nan,0.0,3,1,20
545307084,1706804418199675,306572110,-842085038,91224,61087,0.127,1.0023988,0.33400002,0.49600002,0.59,1.03,77,9,0.09900001,-0.025,0.096,-3.5530002,2.7245843,0,nan,0.0,3,1,20
545410297,1706804418299675,306572110,-842085037,91583,61445,0.128,0.71556944,0.33400002,0.49600002,0.59,1.03,77,9,0.13800001,0.017,0.13700001,-3.5970001,1.4437914,0,nan,0.0,3,1,20
545505636,1706804418399675,306572110,-842085036,91944,61807,0.128,0.5905641,0.33400002,0.49600002,0.59,1.03,77,9,0.171,0.055000003,0.162,-3.5930002,1.2449538,0,nan,0.0,3,1,20
545609699,1706804418499675,306572111,-842085033,92310,62172,0.12900001,0.28079885,0.33400002,0.49600002,0.59,1.03,77,9,0.36200002,0.16700001,0.321,-3.634,1.0906557,0,nan,0.0,3,1,20
545709398,1706804418599675,306572113,-842085029,92673,62535,0.13100001,0.16556123,0.335,0.49600002,0.59,1.03,77,9,0.62200004,0.314,0.537,-3.7460003,1.041721,0,nan,0.0,3,1,20
545809731,1706804418699675,306572117,-842085022,93047,62910,0.133,0.110653,0.335,0.49600002,0.59,1.03,77,9,0.88900006,0.44400004,0.77000004,-3.752,1.0471753,0,nan,0.0,3,1,20
545908848,1706804418799675,306572121,-842085012,93432,63294,0.13000001,0.08138068,0.335,0.49600002,0.59,1.03,77,9,1.2080001,0.57600003,1.062,-3.8020003,1.0739377,0,nan,0.0,3,1,20
546008270,1706804418899675,306572127,-842085000,93800,63662,0.13000001,0.06464298,0.335,0.49600002,0.59,1.03,77,9,1.585,0.818,1.358,-3.7020001,1.0287756,0,nan,0.0,3,1,20
546111030,1706804418999676,306572136,-842084984,94163,64025,0.12900001,0.052630402,0.335,0.49600002,0.59,1.03,77,9,1.968,1.018,1.6840001,-3.686,1.0270319,0,nan,0.0,3,1,20
546213300,1706804419099675,306572145,-842084965,94528,64391,0.127,0.045935493,0.335,0.49600002,0.59,1.03,77,4,2.229,1.12,1.927,-3.6480002,1.0441175,0,nan,0.0,3,1,20
546312262,1706804419199675,306572156,-842084944,94874,64736,0.12200001,0.043236863,0.335,0.49600002,0.59,1.03,77,4,2.357,1.2,2.029,-3.3530002,1.0368289,0,nan,0.0,3,1,20
546408286,1706804419299675,306572167,-842084922,95201,65063,0.116000004,0.039298356,0.335,0.49600002,0.59,1.03,77,4,2.5570002,1.358,2.1660001,-3.219,1.0109756,0,nan,0.0,3,1,20
546508523,1706804419399675,306572180,-842084899,95532,65394,0.117000006,0.03808762,0.335,0.49600002,0.59,1.03,77,4,2.687,1.4050001,2.2910001,-3.4190001,1.0206832,0,nan,0.0,3,1,20
546612308,1706804419499675,306572192,-842084875,95882,65744,0.11800001,0.03523645,0.335,0.49600002,0.59,1.03,77,4,2.7500002,1.4610001,2.3300002,-3.578,1.0107912,0,nan,0.0,3,1,20
546708358,1706804419599675,306572206,-842084850,96245,66108,0.117000006,0.034303047,0.335,0.49600002,0.59,1.03,77,4,2.8140001,1.5200001,2.368,-3.6740003,0.9999811,0,nan,0.0,3,1,20
546810762,1706804419699675,306572220,-842084825,96614,66476,0.117000006,0.03440637,0.335,0.49600002,0.59,1.03,77,4,2.855,1.514,2.421,-3.6480002,1.0118709,0,nan,0.0,3,1,20
546909490,1706804419799675,306572233,-842084800,96976,66838,0.117000006,0.033912096,0.335,0.49600002,0.59,1.03,77,4,2.841,1.539,2.388,-3.6130002,0.9983614,0,nan,0.0,3,1,20
547012739,1706804419899675,306572247,-842084775,97348,67210,0.119,0.033834778,0.335,0.49600002,0.59,1.03,77,4,2.8490002,1.536,2.4,-3.7830002,1.0015857,0,nan,0.0,3,1,20
547114756,1706804419999676,306572261,-842084751,97726,67588,0.124000005,0.0345919,0.335,0.49600002,0.59,1.03,77,4,2.786,1.542,2.321,-3.8170002,0.98452497,0,nan,0.0,3,1,20
547212611,1706804420099674,306572274,-842084727,98106,67969,0.12100001,0.035061743,0.335,0.49600002,0.59,1.03,77,7,2.6820002,1.4510001,2.255,-3.9280002,0.9991287,0,nan,0.0,3,1,20
547305373,1706804420199674,306572287,-842084704,98506,68369,0.123,0.037435215,0.33600003,0.49600002,0.59,1.03,77,7,2.562,1.414,2.137,-4.07,0.9861302,0,nan,0.0,3,1,20
547409621,1706804420299674,306572300,-842084682,98910,68772,0.117000006,0.037550233,0.33600003,0.49500003,0.59,1.03,77,7,2.4310002,1.355,2.019,-4.164,0.97978956,0,nan,0.0,3,1,20
547508316,1706804420399674,306572312,-842084662,99314,69176,0.123,0.038405966,0.335,0.49500003,0.59,1.03,77,7,2.3000002,1.2870001,1.9060001,-3.9580002,0.97673905,0,nan,0.0,3,1,20
547609409,1706804420499674,306572323,-842084643,99704,69566,0.123,0.040595658,0.335,0.49500003,0.59,1.03,77,7,2.1660001,1.2140001,1.7930001,-3.844,0.9755912,0,nan,0.0,3,1,20
547709332,1706804420599674,306572333,-842084624,100091,69953,0.119,0.041337423,0.335,0.49500003,0.59,1.03,77,7,2.071,1.1450001,1.7260001,-3.828,0.9848425,0,nan,0.0,3,1,20
547807570,1706804420699674,306572343,-842084607,100476,70338,0.119,0.045566007,0.335,0.49500003,0.59,1.03,77,7,1.876,1.0370001,1.5630001,-3.7510002,0.9851376,0,nan,0.0,3,1,20
547908616,1706804420799674,306572352,-842084591,100856,70718,0.123,0.046927888,0.335,0.49500003,0.59,1.03,77,7,1.7580001,0.97300005,1.4640001,-3.7660003,0.9842927,0,nan,0.0,3,1,20
548011706,1706804420899674,306572361,-842084577,101229,71091,0.124000005,0.050437745,0.335,0.49500003,0.59,1.03,77,7,1.6330001,0.94500005,1.3330001,-3.7310002,0.95409447,0,nan,0.0,3,1,20
548115601,1706804420999675,306572369,-842084564,101603,71466,0.125,0.05470961,0.335,0.49500003,0.59,1.03,77,7,1.511,0.89500004,1.217,-3.7810001,0.9370044,0,nan,0.0,3,1,20
548206299,1706804421099674,306572377,-842084551,101984,71846,0.126,0.05788646,0.335,0.49500003,0.59,1.03,77,7,1.4380001,0.84300005,1.1650001,-3.8390002,0.9441948,0,nan,0.0,3,1,20
548307823,1706804421199674,306572384,-842084540,102369,72231,0.125,0.06353487,0.335,0.49500003,0.59,1.03,77,7,1.315,0.81000006,1.0350001,-3.9040003,0.9066084,0,nan,0.0,3,1,20
548410294,1706804421299674,306572391,-842084530,102757,72619,0.125,0.07289419,0.335,0.49400002,0.59,1.03,77,7,1.1800001,0.76600003,0.89800006,-3.9310002,0.8645738,0,nan,0.0,3,1,20
548507247,1706804421399674,306572398,-842084521,103154,73016,0.125,0.075612895,0.335,0.49400002,0.59,1.03,77,7,1.138,0.74,0.864,-3.979,0.8626654,0,nan,0.0,3,1,20
548610755,1706804421499674,306572405,-842084512,103549,73411,0.125,0.08331712,0.335,0.49400002,0.59,1.03,77,7,1.0320001,0.693,0.76400006,-3.9510002,0.833543,0,nan,0.0,3,1,20
548711277,1706804421599674,306572411,-842084505,103942,73804,0.125,0.09705217,0.335,0.49400002,0.59,1.03,77,7,0.94200003,0.642,0.69000006,-3.9640002,0.82130635,0,nan,0.0,3,1,20
548809564,1706804421699674,306572416,-842084498,104336,74199,0.126,0.105772704,0.335,0.49400002,0.59,1.03,77,7,0.86800003,0.59000003,0.637,-3.854,0.8230859,0,nan,0.0,3,1,20
548910408,1706804421799674,306572421,-842084491,104721,74583,0.127,0.11229517,0.335,0.49400002,0.59,1.03,77,7,0.822,0.559,0.60300004,-3.8230002,0.8226766,0,nan,0.0,3,1,20
549011106,1706804421899674,306572426,-842084485,105106,74968,0.12900001,0.1167688,0.335,0.49400002,0.59,1.03,77,7,0.76900005,0.54300004,0.545,-3.9190001,0.78761977,0,nan,0.0,3,1,20
549108815,1706804421999675,306572431,-842084480,105500,75362,0.128,0.12079947,0.335,0.49400002,0.59,1.03,77,7,0.74700004,0.52500004,0.53300005,-4.011,0.7929257,0,nan,0.0,3,1,20
549212038,1706804422099674,306572436,-842084474,105893,75755,0.126,0.11429602,0.335,0.49400002,0.59,1.03,77,6,0.813,0.554,0.595,-3.8600001,0.8212545,0,nan,0.0,3,1,20
549309405,1706804422199674,306572441,-842084468,106279,76141,0.127,0.111451656,0.335,0.49400002,0.59,1.03,77,6,0.83400005,0.58000004,0.59900004,-3.709,0.8009146,0,nan,0.0,3,1,20
549407723,1706804422299674,306572446,-842084461,106639,76502,0.128,0.10989552,0.335,0.49400002,0.59,1.03,77,6,0.88400006,0.56700003,0.67800003,-3.4970002,0.87438095,0,nan,0.0,3,1,20
549508298,1706804422399673,306572451,-842084454,106972,76834,0.12900001,0.09485288,0.335,0.49400002,0.59,1.03,77,6,1.001,0.67700005,0.73700005,-3.216,0.8279337,0,nan,0.0,3,1,20
549611766,1706804422499673,306572458,-842084446,107295,77158,0.127,0.08997538,0.335,0.49400002,0.59,1.03,77,6,1.072,0.67600006,0.83300006,-3.1950002,0.888841,0,nan,0.0,3,1,20
549707293,1706804422599673,306572464,-842084437,107614,77476,0.126,0.08200359,0.33600003,0.49400002,0.59,1.03,77,6,1.1860001,0.748,0.919,-3.3680003,0.8876224,0,nan,0.0,3,1,20
549810482,1706804422699673,306572471,-842084427,107963,77825,0.127,0.074423105,0.33600003,0.49400002,0.59,1.03,77,6,1.342,0.81200004,1.069,-3.5570002,0.9213374,0,nan,0.0,3,1,20
549912771,1706804422799673,306572478,-842084415,108321,78184,0.128,0.07083733,0.33600003,0.49400002,0.59,1.03,77,6,1.4180001,0.83400005,1.1470001,-3.6440003,0.942365,0,nan,0.0,3,1,20
550008297,1706804422899673,306572486,-842084403,108684,78546,0.127,0.065640606,0.33600003,0.49400002,0.59,1.03,77,6,1.5180001,0.93100005,1.199,-3.657,0.9103578,0,nan,0.0,3,1,20
550112106,1706804422999674,306572494,-842084390,109060,78922,0.127,0.06271561,0.33600003,0.49400002,0.59,1.03,77,6,1.6020001,0.961,1.2820001,-3.9320002,0.92753774,0,nan,0.0,3,1,20
550211825,1706804423099673,306572503,-842084376,109468,79331,0.127,0.06096801,0.33600003,0.49400002,0.59,1.03,77,6,1.6500001,0.961,1.342,-4.2970004,0.9494093,0,nan,0.0,3,1,20
550311312,1706804423199673,306572512,-842084362,109911,79773,0.127,0.057243653,0.33600003,0.49400002,0.59,1.03,77,6,1.7260001,1.0040001,1.404,-4.537,0.9502464,0,nan,0.0,3,1,20
550411284,1706804423299673,306572520,-842084348,110377,80239,0.127,0.059565466,0.33600003,0.49400002,0.59,1.03,77,6,1.69,0.97800004,1.378,-4.7660003,0.9537201,0,nan,0.0,3,1,20
550511292,1706804423399673,306572529,-842084333,110867,80729,0.128,0.05626313,0.33600003,0.49400002,0.59,1.03,77,6,1.7950001,1.042,1.462,-5.043,0.9512344,0,nan,0.0,3,1,20
550611259,1706804423499673,306572539,-842084318,111386,81249,0.128,0.05520127,0.33600003,0.49400002,0.59,1.03,77,6,1.817,1.074,1.4660001,-5.3450003,0.9382966,0,nan,0.0,3,1,20
550714345,1706804423599673,306572549,-842084302,111928,81790,0.13000001,0.053991407,0.337,0.49400002,0.59,1.03,77,6,1.84,1.116,1.462,-5.55,0.9188795,0,nan,0.0,3,1,20
550809659,1706804423699673,306572558,-842084287,112495,82357,0.13000001,0.05483667,0.337,0.49400002,0.59,1.03,77,6,1.8140001,1.0780001,1.4590001,-5.794,0.93431795,0,nan,0.0,3,1,20
550908292,1706804423799673,306572568,-842084272,113067,82929,0.13000001,0.054414477,0.337,0.49400002,0.59,1.03,77,6,1.825,1.0940001,1.4610001,-5.663,0.928025,0,nan,0.0,3,1,20
551008592,1706804423899673,306572578,-842084257,113639,83501,0.12900001,0.054884493,0.337,0.49400002,0.59,1.03,77,6,1.8040001,1.0940001,1.4350001,-5.6740003,0.91936433,0,nan,0.0,3,1,20
551113377,1706804423999674,306572588,-842084242,114209,84071,0.12900001,0.052449062,0.337,0.49400002,0.59,1.03,77,6,1.8700001,1.1470001,1.4770001,-5.7260003,0.9104138,0,nan,0.0,3,1,20
551207729,1706804424099673,306572598,-842084226,114780,84642,0.128,0.051893175,0.337,0.49400002,0.59,1.03,77,7,1.9050001,1.121,1.5400001,-5.747,0.9418358,0,nan,0.0,3,1,20
551312906,1706804424199673,306572608,-842084210,115353,85215,0.128,0.05214031,0.337,0.49400002,0.59,1.03,77,7,1.889,1.09,1.5430001,-5.6940002,0.9557967,0,nan,0.0,3,1,20
551411934,1706804424299673,306572618,-842084194,115921,85783,0.127,0.049965456,0.337,0.49400002,0.59,1.03,77,7,1.945,1.105,1.6,-5.7380004,0.9663121,0,nan,0.0,3,1,20
551508408,1706804424399673,306572628,-842084177,116491,86353,0.127,0.049895994,0.337,0.49400002,0.59,1.03,77,7,1.9460001,1.1060001,1.6010001,-5.729,0.96635556,0,nan,0.0,3,1,20
551611318,1706804424499673,306572638,-842084161,117066,86928,0.127,0.050023228,0.337,0.49400002,0.59,1.03,77,7,1.955,1.1270001,1.598,-5.709,0.9566905,0,nan,0.0,3,1,20
551711456,1706804424599673,306572648,-842084144,117628,87490,0.127,0.04914812,0.337,0.49400002,0.59,1.03,77,7,1.9790001,1.1680001,1.5970001,-5.696,0.9393524,0,nan,0.0,3,1,20
551808265,1706804424699672,306572659,-842084127,118197,88059,0.127,0.048165847,0.337,0.49400002,0.59,1.03,77,7,1.9920001,1.1520001,1.6250001,-5.7000003,0.95416254,0,nan,0.0,3,1,20
551908684,1706804424799672,306572669,-842084110,118768,88630,0.127,0.04726805,0.33800003,0.49400002,0.59,1.03,77,7,2.0600002,1.197,1.677,-5.748,0.9508944,0,nan,0.0,3,1,20
552011438,1706804424899672,306572680,-842084092,119341,89203,0.128,0.048166897,0.33800003,0.49400002,0.59,1.03,77,7,2.107,1.235,1.7080001,-5.695,0.9445716,0,nan,0.0,3,1,20
552115261,1706804424999673,306572692,-842084074,119918,89780,0.127,0.044593334,0.33800003,0.49400002,0.59,1.03,77,7,2.25,1.312,1.8270001,-5.7730002,0.9480909,0,nan,0.0,3,1,20
552211292,1706804425099672,306572704,-842084054,120499,90361,0.127,0.039187003,0.33800003,0.49400002,0.59,1.03,77,9,2.525,1.5200001,2.0170002,-5.913,0.9248993,0,nan,0.0,3,1,20
552309366,1706804425199672,306572719,-842084032,121083,90945,0.126,0.034817744,0.33800003,0.49400002,0.59,1.03,77,9,2.769,1.626,2.242,-5.8640003,0.94334674,0,nan,0.0,3,1,20
552410312,1706804425299672,306572734,-842084007,121673,91535,0.127,0.03204948,0.33800003,0.49400002,0.59,1.03,77,9,3.1620002,1.8440001,2.568,-5.9870005,0.94806874,0,nan,0.0,3,1,20
552509382,1706804425399672,306572751,-842083978,122274,92136,0.126,0.02796314,0.33800003,0.49400002,0.59,1.03,77,9,3.505,1.9740001,2.8960001,-6.0270004,0.97259635,0,nan,0.0,3,1,20
552610316,1706804425499672,306572770,-842083946,122875,92737,0.124000005,0.025485994,0.33800003,0.49400002,0.59,1.03,77,9,3.9540002,2.196,3.288,-5.953,0.98193616,0,nan,0.0,3,1,20
552708280,1706804425599672,306572791,-842083909,123467,93329,0.124000005,0.022731341,0.33800003,0.49400002,0.59,1.03,77,9,4.4610004,2.505,3.6920002,-5.945,0.97464836,0,nan,0.0,3,1,20
552808661,1706804425699672,306572815,-842083868,124061,93923,0.12200001,0.019294962,0.33800003,0.49400002,0.59,1.03,77,9,4.967,2.7400002,4.143,-5.9290004,0.98655725,0,nan,0.0,3,1,20
552908338,1706804425799672,306572841,-842083822,124652,94514,0.120000005,0.01770654,0.33800003,0.49400002,0.59,1.03,77,9,5.5350003,3.006,4.6470003,-5.9420004,0.9967006,0,nan,0.0,3,1,20
553008051,1706804425899672,306572869,-842083772,125239,95102,0.117000006,0.016138012,0.33800003,0.49400002,0.59,1.03,77,9,6.0460005,3.2870002,5.0740004,-5.8650002,0.99591464,0,nan,0.0,3,1,20
553116312,1706804425999673,306572900,-842083716,125823,95685,0.11400001,0.015019605,0.33800003,0.49400002,0.59,1.03,77,9,6.5130005,3.496,5.4950004,-5.7380004,1.0041589,0,nan,0.0,3,1,20
