timestamp,noutputs,output[0],output[1],output[2],output[3],output[4],output[5],output[6],output[7],output[8],output[9],output[10],output[11],output[12],output[13],output[14],output[15]
519040318,8,1225.0,1225.0,1225.0,1225.0,1512.0,1512.0,0.0,0.0,0.0,0.0,0.0,0.0,0.0,0.0,0.0,0.0
519100679,8,1225.0,1225.0,1225.0,1225.0,1512.0,1512.0,0.0,0.0,0.0,0.0,0.0,0.0,0.0,0.0,0.0,0.0
519140637,8,1225.0,1225.0,1225.0,1225.0,1512.0,1512.0,0.0,0.0,0.0,0.0,0.0,0.0,0.0,0.0,0.0,0.0
519200315,8,1225.0,1225.0,1225.0,1225.0,1512.0,1512.0,0.0,0.0,0.0,0.0,0.0,0.0,0.0,0.0,0.0,0.0
519260627,8,1225.0,1225.0,1225.0,1225.0,1512.0,1512.0,0.0,0.0,0.0,0.0,0.0,0.0,0.0,0.0,0.0,0.0
519300609,8,1225.0,1225.0,1225.0,1225.0,1512.0,1512.0,0.0,0.0,0.0,0.0,0.0,0.0,0.0,0.0,0.0,0.0
519360360,8,1225.0,1225.0,1225.0,1225.0,1512.0,1512.0,0.0,0.0,0.0,0.0,0.0,0.0,0.0,0.0,0.0,0.0
519400367,8,1225.0,1225.0,1225.0,1225.0,1512.0,1512.0,0.0,0.0,0.0,0.0,0.0,0.0,0.0,0.0,0.0,0.0
519460729,8,1225.0,1225.0,1225.0,1225.0,1512.0,1512.0,0.0,0.0,0.0,0.0,0.0,0.0,0.0,0.0,0.0,0.0
519520705,8,1225.0,1225.0,1225.0,1225.0,1512.0,1512.0,0.0,0.0,0.0,0.0,0.0,0.0,0.0,0.0,0.0,0.0
519560705,8,1225.0,1225.0,1225.0,1225.0,1512.0,1512.0,0.0,0.0,0.0,0.0,0.0,0.0,0.0,0.0,0.0,0.0
519621100,8,1225.0,1225.0,1225.0,1225.0,1512.0,1512.0,0.0,0.0,0.0,0.0,0.0,0.0,0.0,0.0,0.0,0.0
519661156,8,1225.0,1225.0,1225.0,1225.0,1512.0,1512.0,0.0,0.0,0.0,0.0,0.0,0.0,0.0,0.0,0.0,0.0
519720803,8,1225.0,1225.0,1225.0,1225.0,1512.0,1512.0,0.0,0.0,0.0,0.0,0.0,0.0,0.0,0.0,0.0,0.0
519781106,8,1225.0,1225.0,1225.0,1225.0,1512.0,1512.0,0.0,0.0,0.0,0.0,0.0,0.0,0.0,0.0,0.0,0.0
519821116,8,1225.0,1225.0,1225.0,1225.0,1512.0,1512.0,0.0,0.0,0.0,0.0,0.0,0.0,0.0,0.0,0.0,0.0
519881069,8,1225.0,1225.0,1225.0,1225.0,1512.0,1512.0,0.0,0.0,0.0,0.0,0.0,0.0,0.0,0.0,0.0,0.0
519921074,8,1225.0,1225.0,1225.0,1225.0,1512.0,1512.0,0.0,0.0,0.0,0.0,0.0,0.0,0.0,0.0,0.0,0.0
519981328,8,1225.0,1225.0,1225.0,1225.0,1512.0,1512.0,0.0,0.0,0.0,0.0,0.0,0.0,0.0,0.0,0.0,0.0
520041208,8,1225.0,1225.0,1225.0,1225.0,1512.0,1512.0,0.0,0.0,0.0,0.0,0.0,0.0,0.0,0.0,0.0,0.0
520081332,8,1225.0,1225.0,1225.0,1225.0,1512.0,1512.0,0.0,0.0,0.0,0.0,0.0,0.0,0.0,0.0,0.0,0.0
520141423,8,1225.0,1225.0,1225.0,1225.0,1512.0,1512.0,0.0,0.0,0.0,0.0,0.0,0.0,0.0,0.0,0.0,0.0
520181456,8,1225.0,1225.0,1225.0,1225.0,1512.0,1512.0,0.0,0.0,0.0,0.0,0.0,0.0,0.0,0.0,0.0,0.0
520241355,8,1225.0,1225.0,1225.0,1225.0,1512.0,1512.0,0.0,0.0,0.0,0.0,0.0,0.0,0.0,0.0,0.0,0.0
520281383,8,1225.0,1225.0,1225.0,1225.0,1512.0,1512.0,0.0,0.0,0.0,0.0,0.0,0.0,0.0,0.0,0.0,0.0
520341702,8,1225.0,1225.0,1225.0,1225.0,1512.0,1512.0,0.0,0.0,0.0,0.0,0.0,0.0,0.0,0.0,0.0,0.0
520401478,8,1225.0,1225.0,1225.0,1225.0,1512.0,1512.0,0.0,0.0,0.0,0.0,0.0,0.0,0.0,0.0,0.0,0.0
520441514,8,1225.0,1225.0,1225.0,1225.0,1512.0,1512.0,0.0,0.0,0.0,0.0,0.0,0.0,0.0,0.0,0.0,0.0
520501870,8,1225.0,1225.0,1225.0,1225.0,1512.0,1512.0,0.0,0.0,0.0,0.0,0.0,0.0,0.0,0.0,0.0,0.0
520541875,8,1225.0,1225.0,1225.0,1225.0,1512.0,1512.0,0.0,0.0,0.0,0.0,0.0,0.0,0.0,0.0,0.0,0.0
520601703,8,1225.0,1225.0,1225.0,1225.0,1512.0,1512.0,0.0,0.0,0.0,0.0,0.0,0.0,0.0,0.0,0.0,0.0
520662147,8,1225.0,1225.0,1225.0,1225.0,1512.0,1512.0,0.0,0.0,0.0,0.0,0.0,0.0,0.0,0.0,0.0,0.0
520701950,8,1225.0,1225.0,1225.0,1225.0,1512.0,1512.0,0.0,0.0,0.0,0.0,0.0,0.0,0.0,0.0,0.0,0.0
520761879,8,1225.0,1225.0,1225.0,1225.0,1512.0,1512.0,0.0,0.0,0.0,0.0,0.0,0.0,0.0,0.0,0.0,0.0
520801923,8,1225.0,1225.0,1225.0,1225.0,1512.0,1512.0,0.0,0.0,0.0,0.0,0.0,0.0,0.0,0.0,0.0,0.0
520862318,8,1225.0,1225.0,1225.0,1225.0,1512.0,1512.0,0.0,0.0,0.0,0.0,0.0,0.0,0.0,0.0,0.0,0.0
520921932,8,1225.0,1225.0,1225.0,1225.0,1512.0,1512.0,0.0,0.0,0.0,0.0,0.0,0.0,0.0,0.0,0.0,0.0
520962166,8,1225.0,1225.0,1225.0,1225.0,1512.0,1512.0,0.0,0.0,0.0,0.0,0.0,0.0,0.0,0.0,0.0,0.0
521022313,8,1225.0,1225.0,1225.0,1225.0,1512.0,1512.0,0.0,0.0,0.0,0.0,0.0,0.0,0.0,0.0,0.0,0.0
521062355,8,1225.0,1225.0,1225.0,1225.0,1512.0,1512.0,0.0,0.0,0.0,0.0,0.0,0.0,0.0,0.0,0.0,0.0
521122219,8,1225.0,1225.0,1225.0,1225.0,1512.0,1512.0,0.0,0.0,0.0,0.0,0.0,0.0,0.0,0.0,0.0,0.0
521182490,8,1225.0,1225.0,1225.0,1225.0,1512.0,1512.0,0.0,0.0,0.0,0.0,0.0,0.0,0.0,0.0,0.0,0.0
521222522,8,1225.0,1225.0,1225.0,1225.0,1512.0,1512.0,0.0,0.0,0.0,0.0,0.0,0.0,0.0,0.0,0.0,0.0
521282510,8,1225.0,1225.0,1225.0,1225.0,1512.0,1512.0,0.0,0.0,0.0,0.0,0.0,0.0,0.0,0.0,0.0,0.0
521322485,8,1225.0,1225.0,1225.0,1225.0,1512.0,1512.0,0.0,0.0,0.0,0.0,0.0,0.0,0.0,0.0,0.0,0.0
521382741,8,1225.0,1225.0,1225.0,1225.0,1512.0,1512.0,0.0,0.0,0.0,0.0,0.0,0.0,0.0,0.0,0.0,0.0
521422913,8,1225.0,1225.0,1225.0,1225.0,1512.0,1512.0,0.0,0.0,0.0,0.0,0.0,0.0,0.0,0.0,0.0,0.0
521482656,8,1225.0,1225.0,1225.0,1225.0,1512.0,1512.0,0.0,0.0,0.0,0.0,0.0,0.0,0.0,0.0,0.0,0.0
521543150,8,1225.0,1225.0,1225.0,1225.0,1512.0,1512.0,0.0,0.0,0.0,0.0,0.0,0.0,0.0,0.0,0.0,0.0
521583093,8,1225.0,1225.0,1225.0,1225.0,1512.0,1512.0,0.0,0.0,0.0,0.0,0.0,0.0,0.0,0.0,0.0,0.0
521642763,8,1225.0,1225.0,1225.0,1225.0,1512.0,1512.0,0.0,0.0,0.0,0.0,0.0,0.0,0.0,0.0,0.0,0.0
521682784,8,1225.0,1225.0,1225.0,1225.0,1512.0,1512.0,0.0,0.0,0.0,0.0,0.0,0.0,0.0,0.0,0.0,0.0
521742988,8,1225.0,1225.0,1225.0,1225.0,1512.0,1512.0,0.0,0.0,0.0,0.0,0.0,0.0,0.0,0.0,0.0,0.0
521802752,8,1225.0,1225.0,1225.0,1225.0,1512.0,1512.0,0.0,0.0,0.0,0.0,0.0,0.0,0.0,0.0,0.0,0.0
521842910,8,1225.0,1225.0,1225.0,1225.0,1512.0,1512.0,0.0,0.0,0.0,0.0,0.0,0.0,0.0,0.0,0.0,0.0
521903162,8,1225.0,1225.0,1225.0,1225.0,1512.0,1512.0,0.0,0.0,0.0,0.0,0.0,0.0,0.0,0.0,0.0,0.0
521963057,8,1225.0,1225.0,1225.0,1225.0,1512.0,1512.0,0.0,0.0,0.0,0.0,0.0,0.0,0.0,0.0,0.0,0.0
521983476,8,1225.0,1225.0,1225.0,1225.0,1512.0,1512.0,0.0,0.0,0.0,0.0,0.0,0.0,0.0,0.0,0.0,0.0
522063552,8,1225.0,1225.0,1225.0,1225.0,1512.0,1512.0,0.0,0.0,0.0,0.0,0.0,0.0,0.0,0.0,0.0,0.0
522103495,8,1225.0,1225.0,1225.0,1225.0,1512.0,1512.0,0.0,0.0,0.0,0.0,0.0,0.0,0.0,0.0,0.0,0.0
522163433,8,1225.0,1225.0,1225.0,1225.0,1512.0,1512.0,0.0,0.0,0.0,0.0,0.0,0.0,0.0,0.0,0.0,0.0
522223571,8,1225.0,1225.0,1225.0,1225.0,1512.0,1512.0,0.0,0.0,0.0,0.0,0.0,0.0,0.0,0.0,0.0,0.0
522263809,8,1225.0,1225.0,1225.0,1225.0,1512.0,1512.0,0.0,0.0,0.0,0.0,0.0,0.0,0.0,0.0,0.0,0.0
522323476,8,1225.0,1225.0,1225.0,1225.0,1512.0,1512.0,0.0,0.0,0.0,0.0,0.0,0.0,0.0,0.0,0.0,0.0
522363526,8,1225.0,1225.0,1225.0,1225.0,1512.0,1512.0,0.0,0.0,0.0,0.0,0.0,0.0,0.0,0.0,0.0,0.0
522423778,8,1225.0,1225.0,1225.0,1225.0,1512.0,1512.0,0.0,0.0,0.0,0.0,0.0,0.0,0.0,0.0,0.0,0.0
522483585,8,1225.0,1225.0,1225.0,1225.0,1512.0,1512.0,0.0,0.0,0.0,0.0,0.0,0.0,0.0,0.0,0.0,0.0
522523521,8,1225.0,1225.0,1225.0,1225.0,1512.0,1512.0,0.0,0.0,0.0,0.0,0.0,0.0,0.0,0.0,0.0,0.0
522583861,8,1225.0,1225.0,1225.0,1225.0,1512.0,1512.0,0.0,0.0,0.0,0.0,0.0,0.0,0.0,0.0,0.0,0.0
522643742,8,1225.0,1225.0,1225.0,1225.0,1512.0,1512.0,0.0,0.0,0.0,0.0,0.0,0.0,0.0,0.0,0.0,0.0
522683842,8,1225.0,1225.0,1225.0,1225.0,1512.0,1512.0,0.0,0.0,0.0,0.0,0.0,0.0,0.0,0.0,0.0,0.0
522744100,8,1225.0,1225.0,1225.0,1225.0,1512.0,1512.0,0.0,0.0,0.0,0.0,0.0,0.0,0.0,0.0,0.0,0.0
522784095,8,1225.0,1225.0,1225.0,1225.0,1512.0,1512.0,0.0,0.0,0.0,0.0,0.0,0.0,0.0,0.0,0.0,0.0
522843915,8,1225.0,1225.0,1225.0,1225.0,1512.0,1512.0,0.0,0.0,0.0,0.0,0.0,0.0,0.0,0.0,0.0,0.0
522883877,8,1225.0,1225.0,1225.0,1225.0,1512.0,1512.0,0.0,0.0,0.0,0.0,0.0,0.0,0.0,0.0,0.0,0.0
522944401,8,1225.0,1225.0,1225.0,1225.0,1512.0,1512.0,0.0,0.0,0.0,0.0,0.0,0.0,0.0,0.0,0.0,0.0
523004257,8,1225.0,1225.0,1225.0,1225.0,1512.0,1512.0,0.0,0.0,0.0,0.0,0.0,0.0,0.0,0.0,0.0,0.0
523044140,8,1225.0,1225.0,1225.0,1225.0,1512.0,1512.0,0.0,0.0,0.0,0.0,0.0,0.0,0.0,0.0,0.0,0.0
523104626,8,1225.0,1225.0,1225.0,1225.0,1512.0,1512.0,0.0,0.0,0.0,0.0,0.0,0.0,0.0,0.0,0.0,0.0
523144520,8,1225.0,1225.0,1225.0,1225.0,1512.0,1512.0,0.0,0.0,0.0,0.0,0.0,0.0,0.0,0.0,0.0,0.0
523204253,8,1225.0,1225.0,1225.0,1225.0,1512.0,1512.0,0.0,0.0,0.0,0.0,0.0,0.0,0.0,0.0,0.0,0.0
523264742,8,1225.0,1225.0,1225.0,1225.0,1512.0,1512.0,0.0,0.0,0.0,0.0,0.0,0.0,0.0,0.0,0.0,0.0
523304747,8,1225.0,1225.0,1225.0,1225.0,1512.0,1512.0,0.0,0.0,0.0,0.0,0.0,0.0,0.0,0.0,0.0,0.0
523364558,8,1225.0,1225.0,1225.0,1225.0,1512.0,1512.0,0.0,0.0,0.0,0.0,0.0,0.0,0.0,0.0,0.0,0.0
523404385,8,1225.0,1225.0,1225.0,1225.0,1512.0,1512.0,0.0,0.0,0.0,0.0,0.0,0.0,0.0,0.0,0.0,0.0
523464996,8,1225.0,1225.0,1225.0,1225.0,1512.0,1512.0,0.0,0.0,0.0,0.0,0.0,0.0,0.0,0.0,0.0,0.0
523524618,8,1225.0,1225.0,1225.0,1225.0,1512.0,1512.0,0.0,0.0,0.0,0.0,0.0,0.0,0.0,0.0,0.0,0.0
523564710,8,1225.0,1225.0,1225.0,1225.0,1512.0,1512.0,0.0,0.0,0.0,0.0,0.0,0.0,0.0,0.0,0.0,0.0
523624920,8,1225.0,1225.0,1225.0,1225.0,1512.0,1512.0,0.0,0.0,0.0,0.0,0.0,0.0,0.0,0.0,0.0,0.0
523665034,8,1225.0,1225.0,1225.0,1225.0,1512.0,1512.0,0.0,0.0,0.0,0.0,0.0,0.0,0.0,0.0,0.0,0.0
523724823,8,1225.0,1225.0,1225.0,1225.0,1512.0,1512.0,0.0,0.0,0.0,0.0,0.0,0.0,0.0,0.0,0.0,0.0
523785095,8,1225.0,1225.0,1225.0,1225.0,1512.0,1512.0,0.0,0.0,0.0,0.0,0.0,0.0,0.0,0.0,0.0,0.0
523825073,8,1225.0,1225.0,1225.0,1225.0,1512.0,1512.0,0.0,0.0,0.0,0.0,0.0,0.0,0.0,0.0,0.0,0.0
523865402,8,1225.0,1225.0,1225.0,1225.0,1512.0,1512.0,0.0,0.0,0.0,0.0,0.0,0.0,0.0,0.0,0.0,0.0
523925135,8,1225.0,1225.0,1225.0,1225.0,1512.0,1512.0,0.0,0.0,0.0,0.0,0.0,0.0,0.0,0.0,0.0,0.0
523965139,8,1225.0,1225.0,1225.0,1225.0,1512.0,1512.0,0.0,0.0,0.0,0.0,0.0,0.0,0.0,0.0,0.0,0.0
524025504,8,1225.0,1225.0,1225.0,1225.0,1512.0,1512.0,0.0,0.0,0.0,0.0,0.0,0.0,0.0,0.0,0.0,0.0
524065508,8,1225.0,1225.0,1225.0,1225.0,1512.0,1512.0,0.0,0.0,0.0,0.0,0.0,0.0,0.0,0.0,0.0,0.0
524145395,8,1225.0,1225.0,1225.0,1225.0,1512.0,1512.0,0.0,0.0,0.0,0.0,0.0,0.0,0.0,0.0,0.0,0.0
524185476,8,1225.0,1225.0,1225.0,1225.0,1512.0,1512.0,0.0,0.0,0.0,0.0,0.0,0.0,0.0,0.0,0.0,0.0
524245292,8,1225.0,1225.0,1225.0,1225.0,1512.0,1512.0,0.0,0.0,0.0,0.0,0.0,0.0,0.0,0.0,0.0,0.0
524305685,8,1225.0,1225.0,1225.0,1225.0,1512.0,1512.0,0.0,0.0,0.0,0.0,0.0,0.0,0.0,0.0,0.0,0.0
524345875,8,1225.0,1225.0,1225.0,1225.0,1512.0,1512.0,0.0,0.0,0.0,0.0,0.0,0.0,0.0,0.0,0.0,0.0
524405686,8,1225.0,1225.0,1225.0,1225.0,1512.0,1512.0,0.0,0.0,0.0,0.0,0.0,0.0,0.0,0.0,0.0,0.0
524445643,8,1225.0,1225.0,1225.0,1225.0,1512.0,1512.0,0.0,0.0,0.0,0.0,0.0,0.0,0.0,0.0,0.0,0.0
524485670,8,1225.0,1225.0,1225.0,1225.0,1512.0,1512.0,0.0,0.0,0.0,0.0,0.0,0.0,0.0,0.0,0.0,0.0
524565739,8,1225.0,1225.0,1225.0,1225.0,1512.0,1512.0,0.0,0.0,0.0,0.0,0.0,0.0,0.0,0.0,0.0,0.0
524605723,8,1225.0,1225.0,1225.0,1225.0,1512.0,1512.0,0.0,0.0,0.0,0.0,0.0,0.0,0.0,0.0,0.0,0.0
524666203,8,1225.0,1225.0,1225.0,1225.0,1512.0,1512.0,0.0,0.0,0.0,0.0,0.0,0.0,0.0,0.0,0.0,0.0
524725884,8,1225.0,1225.0,1225.0,1225.0,1512.0,1512.0,0.0,0.0,0.0,0.0,0.0,0.0,0.0,0.0,0.0,0.0
524765904,8,1225.0,1225.0,1225.0,1225.0,1512.0,1512.0,0.0,0.0,0.0,0.0,0.0,0.0,0.0,0.0,0.0,0.0
524826285,8,1225.0,1225.0,1225.0,1225.0,1512.0,1512.0,0.0,0.0,0.0,0.0,0.0,0.0,0.0,0.0,0.0,0.0
524866203,8,1225.0,1225.0,1225.0,1225.0,1512.0,1512.0,0.0,0.0,0.0,0.0,0.0,0.0,0.0,0.0,0.0,0.0
524925943,8,1225.0,1225.0,1225.0,1225.0,1512.0,1512.0,0.0,0.0,0.0,0.0,0.0,0.0,0.0,0.0,0.0,0.0
524986249,8,1225.0,1225.0,1225.0,1225.0,1512.0,1512.0,0.0,0.0,0.0,0.0,0.0,0.0,0.0,0.0,0.0,0.0
525026266,8,1225.0,1225.0,1225.0,1225.0,1512.0,1512.0,0.0,0.0,0.0,0.0,0.0,0.0,0.0,0.0,0.0,0.0
525086187,8,1225.0,1225.0,1225.0,1225.0,1512.0,1512.0,0.0,0.0,0.0,0.0,0.0,0.0,0.0,0.0,0.0,0.0
525126231,8,1225.0,1225.0,1225.0,1225.0,1512.0,1512.0,0.0,0.0,0.0,0.0,0.0,0.0,0.0,0.0,0.0,0.0
525186522,8,1225.0,1225.0,1225.0,1225.0,1512.0,1512.0,0.0,0.0,0.0,0.0,0.0,0.0,0.0,0.0,0.0,0.0
525226670,8,1225.0,1225.0,1225.0,1225.0,1512.0,1512.0,0.0,0.0,0.0,0.0,0.0,0.0,0.0,0.0,0.0,0.0
525286278,8,1225.0,1225.0,1225.0,1225.0,1512.0,1512.0,0.0,0.0,0.0,0.0,0.0,0.0,0.0,0.0,0.0,0.0
525346918,8,1225.0,1225.0,1225.0,1225.0,1512.0,1512.0,0.0,0.0,0.0,0.0,0.0,0.0,0.0,0.0,0.0,0.0
525366498,8,1225.0,1225.0,1225.0,1225.0,1512.0,1512.0,0.0,0.0,0.0,0.0,0.0,0.0,0.0,0.0,0.0,0.0
525446529,8,1225.0,1225.0,1225.0,1225.0,1512.0,1512.0,0.0,0.0,0.0,0.0,0.0,0.0,0.0,0.0,0.0,0.0
525486642,8,1225.0,1225.0,1225.0,1225.0,1512.0,1512.0,0.0,0.0,0.0,0.0,0.0,0.0,0.0,0.0,0.0,0.0
525546806,8,1225.0,1225.0,1225.0,1225.0,1512.0,1512.0,0.0,0.0,0.0,0.0,0.0,0.0,0.0,0.0,0.0,0.0
525606729,8,1225.0,1225.0,1225.0,1225.0,1512.0,1512.0,0.0,0.0,0.0,0.0,0.0,0.0,0.0,0.0,0.0,0.0
525646731,8,1225.0,1225.0,1225.0,1225.0,1512.0,1512.0,0.0,0.0,0.0,0.0,0.0,0.0,0.0,0.0,0.0,0.0
525707043,8,1225.0,1225.0,1225.0,1225.0,1512.0,1512.0,0.0,0.0,0.0,0.0,0.0,0.0,0.0,0.0,0.0,0.0
525747069,8,1302.0,1305.0,1287.0,1279.0,1512.0,1512.0,0.0,0.0,0.0,0.0,0.0,0.0,0.0,0.0,0.0,0.0
525806967,8,1287.0,1290.0,1299.0,1297.0,1512.0,1512.0,0.0,0.0,0.0,0.0,0.0,0.0,0.0,0.0,0.0,0.0
525867200,8,1296.0,1297.0,1289.0,1289.0,1512.0,1512.0,0.0,0.0,0.0,0.0,0.0,0.0,0.0,0.0,0.0,0.0
525907272,8,1295.0,1300.0,1287.0,1289.0,1512.0,1512.0,0.0,0.0,0.0,0.0,0.0,0.0,0.0,0.0,0.0,0.0
525967193,8,1292.0,1300.0,1291.0,1292.0,1512.0,1512.0,0.0,0.0,0.0,0.0,0.0,0.0,0.0,0.0,0.0,0.0
526007204,8,1303.0,1309.0,1305.0,1304.0,1512.0,1512.0,0.0,0.0,0.0,0.0,0.0,0.0,0.0,0.0,0.0,0.0
526067575,8,1336.0,1336.0,1321.0,1322.0,1512.0,1512.0,0.0,0.0,0.0,0.0,0.0,0.0,0.0,0.0,0.0,0.0
526127343,8,1335.0,1331.0,1350.0,1370.0,1512.0,1512.0,0.0,0.0,0.0,0.0,0.0,0.0,0.0,0.0,0.0,0.0
526167322,8,1357.0,1376.0,1346.0,1328.0,1512.0,1512.0,0.0,0.0,0.0,0.0,0.0,0.0,0.0,0.0,0.0,0.0
526227489,8,1370.0,1379.0,1372.0,1381.0,1512.0,1512.0,0.0,0.0,0.0,0.0,0.0,0.0,0.0,0.0,0.0,0.0
526267809,8,1381.0,1373.0,1389.0,1406.0,1512.0,1512.0,0.0,0.0,0.0,0.0,0.0,0.0,0.0,0.0,0.0,0.0
526327458,8,1391.0,1408.0,1412.0,1406.0,1512.0,1512.0,0.0,0.0,0.0,0.0,0.0,0.0,0.0,0.0,0.0,0.0
526387715,8,1418.0,1434.0,1404.0,1407.0,1512.0,1512.0,0.0,0.0,0.0,0.0,0.0,0.0,0.0,0.0,0.0,0.0
526427870,8,1440.0,1448.0,1412.0,1433.0,1512.0,1512.0,0.0,0.0,0.0,0.0,0.0,0.0,0.0,0.0,0.0,0.0
526487576,8,1447.0,1458.0,1422.0,1442.0,1512.0,1512.0,0.0,0.0,0.0,0.0,0.0,0.0,0.0,0.0,0.0,0.0
526527541,8,1454.0,1469.0,1440.0,1454.0,1512.0,1512.0,0.0,0.0,0.0,0.0,0.0,0.0,0.0,0.0,0.0,0.0
526567568,8,1460.0,1469.0,1444.0,1457.0,1512.0,1512.0,0.0,0.0,0.0,0.0,0.0,0.0,0.0,0.0,0.0,0.0
526647746,8,1473.0,1472.0,1451.0,1471.0,1512.0,1512.0,0.0,0.0,0.0,0.0,0.0,0.0,0.0,0.0,0.0,0.0
526687793,8,1474.0,1471.0,1452.0,1473.0,1512.0,1512.0,0.0,0.0,0.0,0.0,0.0,0.0,0.0,0.0,0.0,0.0
526748141,8,1469.0,1472.0,1458.0,1475.0,1512.0,1512.0,0.0,0.0,0.0,0.0,0.0,0.0,0.0,0.0,0.0,0.0
526788276,8,1475.0,1470.0,1455.0,1476.0,1512.0,1512.0,0.0,0.0,0.0,0.0,0.0,0.0,0.0,0.0,0.0,0.0
526847856,8,1470.0,1467.0,1461.0,1474.0,1512.0,1512.0,0.0,0.0,0.0,0.0,0.0,0.0,0.0,0.0,0.0,0.0
526908273,8,1474.0,1475.0,1460.0,1465.0,1512.0,1512.0,0.0,0.0,0.0,0.0,0.0,0.0,0.0,0.0,0.0,0.0
526948252,8,1470.0,1472.0,1462.0,1474.0,1512.0,1512.0,0.0,0.0,0.0,0.0,0.0,0.0,0.0,0.0,0.0,0.0
527008128,8,1476.0,1479.0,1463.0,1471.0,1512.0,1512.0,0.0,0.0,0.0,0.0,0.0,0.0,0.0,0.0,0.0,0.0
527068583,8,1469.0,1474.0,1467.0,1468.0,1512.0,1512.0,0.0,0.0,0.0,0.0,0.0,0.0,0.0,0.0,0.0,0.0
527108560,8,1456.0,1464.0,1462.0,1462.0,1512.0,1512.0,0.0,0.0,0.0,0.0,0.0,0.0,0.0,0.0,0.0,0.0
527168326,8,1442.0,1451.0,1450.0,1448.0,1512.0,1512.0,0.0,0.0,0.0,0.0,0.0,0.0,0.0,0.0,0.0,0.0
527208309,8,1434.0,1442.0,1439.0,1439.0,1512.0,1512.0,0.0,0.0,0.0,0.0,0.0,0.0,0.0,0.0,0.0,0.0
527268638,8,1428.0,1432.0,1429.0,1432.0,1512.0,1512.0,0.0,0.0,0.0,0.0,0.0,0.0,0.0,0.0,0.0,0.0
527328600,8,1423.0,1427.0,1433.0,1436.0,1512.0,1512.0,0.0,0.0,0.0,0.0,0.0,0.0,0.0,0.0,0.0,0.0
527368626,8,1428.0,1431.0,1436.0,1434.0,1512.0,1512.0,0.0,0.0,0.0,0.0,0.0,0.0,0.0,0.0,0.0,0.0
527428876,8,1431.0,1433.0,1432.0,1436.0,1512.0,1512.0,0.0,0.0,0.0,0.0,0.0,0.0,0.0,0.0,0.0,0.0
527448637,8,1431.0,1433.0,1432.0,1436.0,1512.0,1512.0,0.0,0.0,0.0,0.0,0.0,0.0,0.0,0.0,0.0,0.0
527528616,8,1430.0,1430.0,1436.0,1434.0,1512.0,1512.0,0.0,0.0,0.0,0.0,0.0,0.0,0.0,0.0,0.0,0.0
527588895,8,1431.0,1433.0,1432.0,1432.0,1512.0,1512.0,0.0,0.0,0.0,0.0,0.0,0.0,0.0,0.0,0.0,0.0
527629102,8,1433.0,1430.0,1428.0,1435.0,1512.0,1512.0,0.0,0.0,0.0,0.0,0.0,0.0,0.0,0.0,0.0,0.0
527688902,8,1431.0,1431.0,1433.0,1432.0,1512.0,1512.0,0.0,0.0,0.0,0.0,0.0,0.0,0.0,0.0,0.0,0.0
527728899,8,1436.0,1433.0,1430.0,1435.0,1512.0,1512.0,0.0,0.0,0.0,0.0,0.0,0.0,0.0,0.0,0.0,0.0
527789172,8,1431.0,1433.0,1436.0,1434.0,1512.0,1512.0,0.0,0.0,0.0,0.0,0.0,0.0,0.0,0.0,0.0,0.0
527849106,8,1433.0,1435.0,1432.0,1439.0,1512.0,1512.0,0.0,0.0,0.0,0.0,0.0,0.0,0.0,0.0,0.0,0.0
527889062,8,1438.0,1434.0,1429.0,1435.0,1512.0,1512.0,0.0,0.0,0.0,0.0,0.0,0.0,0.0,0.0,0.0,0.0
527949459,8,1439.0,1435.0,1429.0,1434.0,1512.0,1512.0,0.0,0.0,0.0,0.0,0.0,0.0,0.0,0.0,0.0,0.0
527989457,8,1437.0,1437.0,1435.0,1432.0,1512.0,1512.0,0.0,0.0,0.0,0.0,0.0,0.0,0.0,0.0,0.0,0.0
528049221,8,1441.0,1437.0,1432.0,1435.0,1512.0,1512.0,0.0,0.0,0.0,0.0,0.0,0.0,0.0,0.0,0.0,0.0
528109641,8,1436.0,1437.0,1435.0,1436.0,1512.0,1512.0,0.0,0.0,0.0,0.0,0.0,0.0,0.0,0.0,0.0,0.0
528149610,8,1440.0,1439.0,1439.0,1434.0,1512.0,1512.0,0.0,0.0,0.0,0.0,0.0,0.0,0.0,0.0,0.0,0.0
528209438,8,1442.0,1436.0,1436.0,1439.0,1512.0,1512.0,0.0,0.0,0.0,0.0,0.0,0.0,0.0,0.0,0.0,0.0
528229713,8,1436.0,1436.0,1440.0,1437.0,1512.0,1512.0,0.0,0.0,0.0,0.0,0.0,0.0,0.0,0.0,0.0,0.0
528309869,8,1443.0,1436.0,1433.0,1432.0,1512.0,1512.0,0.0,0.0,0.0,0.0,0.0,0.0,0.0,0.0,0.0,0.0
528369589,8,1439.0,1432.0,1433.0,1430.0,1512.0,1512.0,0.0,0.0,0.0,0.0,0.0,0.0,0.0,0.0,0.0,0.0
528409612,8,1435.0,1433.0,1437.0,1434.0,1512.0,1512.0,0.0,0.0,0.0,0.0,0.0,0.0,0.0,0.0,0.0,0.0
528449725,8,1438.0,1431.0,1432.0,1432.0,1512.0,1512.0,0.0,0.0,0.0,0.0,0.0,0.0,0.0,0.0,0.0,0.0
528509881,8,1438.0,1432.0,1432.0,1435.0,1512.0,1512.0,0.0,0.0,0.0,0.0,0.0,0.0,0.0,0.0,0.0,0.0
528569737,8,1442.0,1436.0,1433.0,1429.0,1512.0,1512.0,0.0,0.0,0.0,0.0,0.0,0.0,0.0,0.0,0.0,0.0
528629909,8,1444.0,1436.0,1430.0,1430.0,1512.0,1512.0,0.0,0.0,0.0,0.0,0.0,0.0,0.0,0.0,0.0,0.0
528670198,8,1441.0,1433.0,1433.0,1432.0,1512.0,1512.0,0.0,0.0,0.0,0.0,0.0,0.0,0.0,0.0,0.0,0.0
528729906,8,1442.0,1434.0,1434.0,1433.0,1512.0,1512.0,0.0,0.0,0.0,0.0,0.0,0.0,0.0,0.0,0.0,0.0
528790119,8,1443.0,1434.0,1431.0,1432.0,1512.0,1512.0,0.0,0.0,0.0,0.0,0.0,0.0,0.0,0.0,0.0,0.0
528809970,8,1443.0,1434.0,1431.0,1432.0,1512.0,1512.0,0.0,0.0,0.0,0.0,0.0,0.0,0.0,0.0,0.0,0.0
528890039,8,1437.0,1430.0,1432.0,1433.0,1512.0,1512.0,0.0,0.0,0.0,0.0,0.0,0.0,0.0,0.0,0.0,0.0
528930267,8,1442.0,1432.0,1428.0,1430.0,1512.0,1512.0,0.0,0.0,0.0,0.0,0.0,0.0,0.0,0.0,0.0,0.0
528990248,8,1434.0,1434.0,1432.0,1436.0,1512.0,1512.0,0.0,0.0,0.0,0.0,0.0,0.0,0.0,0.0,0.0,0.0
529050163,8,1438.0,1430.0,1429.0,1431.0,1512.0,1512.0,0.0,0.0,0.0,0.0,0.0,0.0,0.0,0.0,0.0,0.0
529090131,8,1439.0,1434.0,1430.0,1431.0,1512.0,1512.0,0.0,0.0,0.0,0.0,0.0,0.0,0.0,0.0,0.0,0.0
529150488,8,1439.0,1432.0,1428.0,1431.0,1512.0,1512.0,0.0,0.0,0.0,0.0,0.0,0.0,0.0,0.0,0.0,0.0
529210226,8,1426.0,1446.0,1439.0,1424.0,1512.0,1512.0,0.0,0.0,0.0,0.0,0.0,0.0,0.0,0.0,0.0,0.0
529230735,8,1427.0,1449.0,1446.0,1419.0,1512.0,1512.0,0.0,0.0,0.0,0.0,0.0,0.0,0.0,0.0,0.0,0.0
529310640,8,1427.0,1445.0,1445.0,1424.0,1512.0,1512.0,0.0,0.0,0.0,0.0,0.0,0.0,0.0,0.0,0.0,0.0
529330440,8,1429.0,1447.0,1450.0,1426.0,1512.0,1512.0,0.0,0.0,0.0,0.0,0.0,0.0,0.0,0.0,0.0,0.0
529410630,8,1431.0,1450.0,1449.0,1428.0,1512.0,1512.0,0.0,0.0,0.0,0.0,0.0,0.0,0.0,0.0,0.0,0.0
529450468,8,1431.0,1451.0,1451.0,1436.0,1512.0,1512.0,0.0,0.0,0.0,0.0,0.0,0.0,0.0,0.0,0.0,0.0
529510836,8,1439.0,1452.0,1449.0,1439.0,1512.0,1512.0,0.0,0.0,0.0,0.0,0.0,0.0,0.0,0.0,0.0,0.0
529551107,8,1444.0,1454.0,1449.0,1442.0,1512.0,1512.0,0.0,0.0,0.0,0.0,0.0,0.0,0.0,0.0,0.0,0.0
529610750,8,1451.0,1456.0,1453.0,1448.0,1512.0,1512.0,0.0,0.0,0.0,0.0,0.0,0.0,0.0,0.0,0.0,0.0
529671071,8,1445.0,1452.0,1454.0,1448.0,1512.0,1512.0,0.0,0.0,0.0,0.0,0.0,0.0,0.0,0.0,0.0,0.0
529711016,8,1449.0,1454.0,1455.0,1449.0,1512.0,1512.0,0.0,0.0,0.0,0.0,0.0,0.0,0.0,0.0,0.0,0.0
529770764,8,1457.0,1455.0,1458.0,1457.0,1512.0,1512.0,0.0,0.0,0.0,0.0,0.0,0.0,0.0,0.0,0.0,0.0
529831116,8,1461.0,1455.0,1455.0,1459.0,1512.0,1512.0,0.0,0.0,0.0,0.0,0.0,0.0,0.0,0.0,0.0,0.0
529871155,8,1460.0,1450.0,1450.0,1456.0,1512.0,1512.0,0.0,0.0,0.0,0.0,0.0,0.0,0.0,0.0,0.0,0.0
529931023,8,1474.0,1458.0,1459.0,1472.0,1512.0,1512.0,0.0,0.0,0.0,0.0,0.0,0.0,0.0,0.0,0.0,0.0
529971122,8,1479.0,1461.0,1453.0,1468.0,1512.0,1512.0,0.0,0.0,0.0,0.0,0.0,0.0,0.0,0.0,0.0,0.0
530031285,8,1520.0,1368.0,1363.0,1513.0,1512.0,1512.0,0.0,0.0,0.0,0.0,0.0,0.0,0.0,0.0,0.0,0.0
530091095,8,1531.0,1375.0,1362.0,1521.0,1512.0,1512.0,0.0,0.0,0.0,0.0,0.0,0.0,0.0,0.0,0.0,0.0
530111473,8,1511.0,1414.0,1409.0,1500.0,1512.0,1512.0,0.0,0.0,0.0,0.0,0.0,0.0,0.0,0.0,0.0,0.0
530191575,8,1476.0,1460.0,1463.0,1452.0,1512.0,1512.0,0.0,0.0,0.0,0.0,0.0,0.0,0.0,0.0,0.0,0.0
530211449,8,1469.0,1460.0,1453.0,1458.0,1512.0,1512.0,0.0,0.0,0.0,0.0,0.0,0.0,0.0,0.0,0.0,0.0
530291516,8,1464.0,1443.0,1441.0,1433.0,1512.0,1512.0,0.0,0.0,0.0,0.0,0.0,0.0,0.0,0.0,0.0,0.0
530351868,8,1448.0,1452.0,1442.0,1392.0,1512.0,1512.0,0.0,0.0,0.0,0.0,0.0,0.0,0.0,0.0,0.0,0.0
530391882,8,1449.0,1454.0,1442.0,1396.0,1512.0,1512.0,0.0,0.0,0.0,0.0,0.0,0.0,0.0,0.0,0.0,0.0
530451537,8,1439.0,1452.0,1452.0,1396.0,1512.0,1512.0,0.0,0.0,0.0,0.0,0.0,0.0,0.0,0.0,0.0,0.0
530491524,8,1437.0,1448.0,1446.0,1399.0,1512.0,1512.0,0.0,0.0,0.0,0.0,0.0,0.0,0.0,0.0,0.0,0.0
530551846,8,1439.0,1453.0,1450.0,1396.0,1512.0,1512.0,0.0,0.0,0.0,0.0,0.0,0.0,0.0,0.0,0.0,0.0
530611727,8,1435.0,1449.0,1456.0,1414.0,1512.0,1512.0,0.0,0.0,0.0,0.0,0.0,0.0,0.0,0.0,0.0,0.0
530651695,8,1423.0,1438.0,1458.0,1429.0,1512.0,1512.0,0.0,0.0,0.0,0.0,0.0,0.0,0.0,0.0,0.0,0.0
530712030,8,1402.0,1433.0,1463.0,1434.0,1512.0,1512.0,0.0,0.0,0.0,0.0,0.0,0.0,0.0,0.0,0.0,0.0
530752078,8,1305.0,1454.0,1508.0,1403.0,1512.0,1512.0,0.0,0.0,0.0,0.0,0.0,0.0,0.0,0.0,0.0,0.0
530811900,8,1327.0,1452.0,1495.0,1418.0,1512.0,1512.0,0.0,0.0,0.0,0.0,0.0,0.0,0.0,0.0,0.0,0.0
530872240,8,1378.0,1416.0,1451.0,1430.0,1512.0,1512.0,0.0,0.0,0.0,0.0,0.0,0.0,0.0,0.0,0.0,0.0
530912254,8,1409.0,1427.0,1432.0,1443.0,1512.0,1512.0,0.0,0.0,0.0,0.0,0.0,0.0,0.0,0.0,0.0,0.0
530972154,8,1419.0,1437.0,1436.0,1452.0,1512.0,1512.0,0.0,0.0,0.0,0.0,0.0,0.0,0.0,0.0,0.0,0.0
531032325,8,1425.0,1430.0,1446.0,1455.0,1512.0,1512.0,0.0,0.0,0.0,0.0,0.0,0.0,0.0,0.0,0.0,0.0
531072627,8,1426.0,1438.0,1434.0,1449.0,1512.0,1512.0,0.0,0.0,0.0,0.0,0.0,0.0,0.0,0.0,0.0,0.0
531132255,8,1435.0,1437.0,1436.0,1449.0,1512.0,1512.0,0.0,0.0,0.0,0.0,0.0,0.0,0.0,0.0,0.0,0.0
531172318,8,1440.0,1447.0,1442.0,1454.0,1512.0,1512.0,0.0,0.0,0.0,0.0,0.0,0.0,0.0,0.0,0.0,0.0
531232628,8,1447.0,1455.0,1446.0,1461.0,1512.0,1512.0,0.0,0.0,0.0,0.0,0.0,0.0,0.0,0.0,0.0,0.0
531292374,8,1443.0,1448.0,1439.0,1451.0,1512.0,1512.0,0.0,0.0,0.0,0.0,0.0,0.0,0.0,0.0,0.0,0.0
531332332,8,1435.0,1440.0,1440.0,1447.0,1512.0,1512.0,0.0,0.0,0.0,0.0,0.0,0.0,0.0,0.0,0.0,0.0
531392641,8,1439.0,1441.0,1435.0,1450.0,1512.0,1512.0,0.0,0.0,0.0,0.0,0.0,0.0,0.0,0.0,0.0,0.0
531432661,8,1447.0,1445.0,1442.0,1451.0,1512.0,1512.0,0.0,0.0,0.0,0.0,0.0,0.0,0.0,0.0,0.0,0.0
531492671,8,1457.0,1453.0,1425.0,1459.0,1512.0,1512.0,0.0,0.0,0.0,0.0,0.0,0.0,0.0,0.0,0.0,0.0
531532626,8,1483.0,1483.0,1358.0,1334.0,1512.0,1512.0,0.0,0.0,0.0,0.0,0.0,0.0,0.0,0.0,0.0,0.0
531593072,8,1478.0,1497.0,1359.0,1328.0,1512.0,1512.0,0.0,0.0,0.0,0.0,0.0,0.0,0.0,0.0,0.0,0.0
531652743,8,1436.0,1441.0,1405.0,1409.0,1512.0,1512.0,0.0,0.0,0.0,0.0,0.0,0.0,0.0,0.0,0.0,0.0
531713072,8,1436.0,1427.0,1422.0,1440.0,1512.0,1512.0,0.0,0.0,0.0,0.0,0.0,0.0,0.0,0.0,0.0,0.0
531753111,8,1443.0,1431.0,1434.0,1444.0,1512.0,1512.0,0.0,0.0,0.0,0.0,0.0,0.0,0.0,0.0,0.0,0.0
531793292,8,1441.0,1431.0,1435.0,1441.0,1512.0,1512.0,0.0,0.0,0.0,0.0,0.0,0.0,0.0,0.0,0.0,0.0
531853080,8,1436.0,1423.0,1440.0,1445.0,1512.0,1512.0,0.0,0.0,0.0,0.0,0.0,0.0,0.0,0.0,0.0,0.0
531893125,8,1436.0,1427.0,1444.0,1453.0,1512.0,1512.0,0.0,0.0,0.0,0.0,0.0,0.0,0.0,0.0,0.0,0.0
531973106,8,1442.0,1443.0,1465.0,1457.0,1512.0,1512.0,0.0,0.0,0.0,0.0,0.0,0.0,0.0,0.0,0.0,0.0
532013132,8,1448.0,1438.0,1463.0,1455.0,1512.0,1512.0,0.0,0.0,0.0,0.0,0.0,0.0,0.0,0.0,0.0,0.0
532073486,8,1450.0,1428.0,1450.0,1452.0,1512.0,1512.0,0.0,0.0,0.0,0.0,0.0,0.0,0.0,0.0,0.0,0.0
532113484,8,1443.0,1425.0,1450.0,1450.0,1512.0,1512.0,0.0,0.0,0.0,0.0,0.0,0.0,0.0,0.0,0.0,0.0
532173194,8,1441.0,1427.0,1445.0,1442.0,1512.0,1512.0,0.0,0.0,0.0,0.0,0.0,0.0,0.0,0.0,0.0,0.0
532233520,8,1437.0,1419.0,1444.0,1443.0,1512.0,1512.0,0.0,0.0,0.0,0.0,0.0,0.0,0.0,0.0,0.0,0.0
532273662,8,1434.0,1423.0,1446.0,1443.0,1512.0,1512.0,0.0,0.0,0.0,0.0,0.0,0.0,0.0,0.0,0.0,0.0
532333426,8,1441.0,1431.0,1453.0,1440.0,1512.0,1512.0,0.0,0.0,0.0,0.0,0.0,0.0,0.0,0.0,0.0,0.0
532373560,8,1445.0,1434.0,1453.0,1446.0,1512.0,1512.0,0.0,0.0,0.0,0.0,0.0,0.0,0.0,0.0,0.0,0.0
532433699,8,1446.0,1431.0,1456.0,1454.0,1512.0,1512.0,0.0,0.0,0.0,0.0,0.0,0.0,0.0,0.0,0.0,0.0
532493467,8,1455.0,1442.0,1466.0,1459.0,1512.0,1512.0,0.0,0.0,0.0,0.0,0.0,0.0,0.0,0.0,0.0,0.0
532533867,8,1436.0,1440.0,1456.0,1452.0,1512.0,1512.0,0.0,0.0,0.0,0.0,0.0,0.0,0.0,0.0,0.0,0.0
532573704,8,1432.0,1436.0,1445.0,1426.0,1512.0,1512.0,0.0,0.0,0.0,0.0,0.0,0.0,0.0,0.0,0.0,0.0
532633923,8,1322.0,1461.0,1473.0,1324.0,1512.0,1512.0,0.0,0.0,0.0,0.0,0.0,0.0,0.0,0.0,0.0,0.0
532693901,8,1367.0,1437.0,1439.0,1373.0,1512.0,1512.0,0.0,0.0,0.0,0.0,0.0,0.0,0.0,0.0,0.0,0.0
532734120,8,1388.0,1421.0,1428.0,1394.0,1512.0,1512.0,0.0,0.0,0.0,0.0,0.0,0.0,0.0,0.0,0.0,0.0
532774123,8,1416.0,1416.0,1416.0,1428.0,1512.0,1512.0,0.0,0.0,0.0,0.0,0.0,0.0,0.0,0.0,0.0,0.0
532834301,8,1433.0,1431.0,1430.0,1438.0,1512.0,1512.0,0.0,0.0,0.0,0.0,0.0,0.0,0.0,0.0,0.0,0.0
532914257,8,1442.0,1425.0,1421.0,1444.0,1512.0,1512.0,0.0,0.0,0.0,0.0,0.0,0.0,0.0,0.0,0.0,0.0
532954319,8,1440.0,1424.0,1423.0,1448.0,1512.0,1512.0,0.0,0.0,0.0,0.0,0.0,0.0,0.0,0.0,0.0,0.0
533013974,8,1444.0,1439.0,1435.0,1448.0,1512.0,1512.0,0.0,0.0,0.0,0.0,0.0,0.0,0.0,0.0,0.0,0.0
533054112,8,1451.0,1436.0,1445.0,1450.0,1512.0,1512.0,0.0,0.0,0.0,0.0,0.0,0.0,0.0,0.0,0.0,0.0
533114364,8,1458.0,1443.0,1443.0,1453.0,1512.0,1512.0,0.0,0.0,0.0,0.0,0.0,0.0,0.0,0.0,0.0,0.0
533174295,8,1462.0,1444.0,1446.0,1460.0,1512.0,1512.0,0.0,0.0,0.0,0.0,0.0,0.0,0.0,0.0,0.0,0.0
533194615,8,1458.0,1445.0,1448.0,1452.0,1512.0,1512.0,0.0,0.0,0.0,0.0,0.0,0.0,0.0,0.0,0.0,0.0
533274624,8,1432.0,1426.0,1425.0,1420.0,1512.0,1512.0,0.0,0.0,0.0,0.0,0.0,0.0,0.0,0.0,0.0,0.0
533314615,8,1431.0,1422.0,1426.0,1425.0,1512.0,1512.0,0.0,0.0,0.0,0.0,0.0,0.0,0.0,0.0,0.0,0.0
533374657,8,1445.0,1425.0,1432.0,1436.0,1512.0,1512.0,0.0,0.0,0.0,0.0,0.0,0.0,0.0,0.0,0.0,0.0
533434737,8,1451.0,1430.0,1436.0,1439.0,1512.0,1512.0,0.0,0.0,0.0,0.0,0.0,0.0,0.0,0.0,0.0,0.0
533454718,8,1446.0,1427.0,1433.0,1436.0,1512.0,1512.0,0.0,0.0,0.0,0.0,0.0,0.0,0.0,0.0,0.0,0.0
533534716,8,1448.0,1428.0,1435.0,1434.0,1512.0,1512.0,0.0,0.0,0.0,0.0,0.0,0.0,0.0,0.0,0.0,0.0
533594927,8,1458.0,1438.0,1443.0,1444.0,1512.0,1512.0,0.0,0.0,0.0,0.0,0.0,0.0,0.0,0.0,0.0,0.0
533635115,8,1487.0,1316.0,1317.0,1476.0,1512.0,1512.0,0.0,0.0,0.0,0.0,0.0,0.0,0.0,0.0,0.0,0.0
533694799,8,1470.0,1316.0,1315.0,1458.0,1512.0,1512.0,0.0,0.0,0.0,0.0,0.0,0.0,0.0,0.0,0.0,0.0
533734798,8,1465.0,1329.0,1340.0,1453.0,1512.0,1512.0,0.0,0.0,0.0,0.0,0.0,0.0,0.0,0.0,0.0,0.0
533795036,8,1436.0,1375.0,1381.0,1409.0,1512.0,1512.0,0.0,0.0,0.0,0.0,0.0,0.0,0.0,0.0,0.0,0.0
533855033,8,1415.0,1400.0,1418.0,1394.0,1512.0,1512.0,0.0,0.0,0.0,0.0,0.0,0.0,0.0,0.0,0.0,0.0
533894930,8,1411.0,1410.0,1421.0,1385.0,1512.0,1512.0,0.0,0.0,0.0,0.0,0.0,0.0,0.0,0.0,0.0,0.0
533955282,8,1390.0,1406.0,1405.0,1375.0,1512.0,1512.0,0.0,0.0,0.0,0.0,0.0,0.0,0.0,0.0,0.0,0.0
533995463,8,1387.0,1396.0,1404.0,1370.0,1512.0,1512.0,0.0,0.0,0.0,0.0,0.0,0.0,0.0,0.0,0.0,0.0
534055165,8,1369.0,1385.0,1395.0,1365.0,1512.0,1512.0,0.0,0.0,0.0,0.0,0.0,0.0,0.0,0.0,0.0,0.0
534115494,8,1365.0,1383.0,1398.0,1357.0,1512.0,1512.0,0.0,0.0,0.0,0.0,0.0,0.0,0.0,0.0,0.0,0.0
534155517,8,1362.0,1374.0,1390.0,1349.0,1512.0,1512.0,0.0,0.0,0.0,0.0,0.0,0.0,0.0,0.0,0.0,0.0
534215293,8,1363.0,1367.0,1388.0,1355.0,1512.0,1512.0,0.0,0.0,0.0,0.0,0.0,0.0,0.0,0.0,0.0,0.0
534275734,8,1360.0,1359.0,1384.0,1354.0,1512.0,1512.0,0.0,0.0,0.0,0.0,0.0,0.0,0.0,0.0,0.0,0.0
534315714,8,1366.0,1367.0,1383.0,1353.0,1512.0,1512.0,0.0,0.0,0.0,0.0,0.0,0.0,0.0,0.0,0.0,0.0
534375528,8,1366.0,1366.0,1379.0,1358.0,1512.0,1512.0,0.0,0.0,0.0,0.0,0.0,0.0,0.0,0.0,0.0,0.0
534415499,8,1361.0,1358.0,1381.0,1362.0,1512.0,1512.0,0.0,0.0,0.0,0.0,0.0,0.0,0.0,0.0,0.0,0.0
534475913,8,1365.0,1358.0,1380.0,1364.0,1512.0,1512.0,0.0,0.0,0.0,0.0,0.0,0.0,0.0,0.0,0.0,0.0
534515881,8,1364.0,1361.0,1380.0,1359.0,1512.0,1512.0,0.0,0.0,0.0,0.0,0.0,0.0,0.0,0.0,0.0,0.0
534575555,8,1369.0,1358.0,1373.0,1364.0,1512.0,1512.0,0.0,0.0,0.0,0.0,0.0,0.0,0.0,0.0,0.0,0.0
534635946,8,1370.0,1361.0,1371.0,1363.0,1512.0,1512.0,0.0,0.0,0.0,0.0,0.0,0.0,0.0,0.0,0.0,0.0
534675991,8,1367.0,1360.0,1364.0,1365.0,1512.0,1512.0,0.0,0.0,0.0,0.0,0.0,0.0,0.0,0.0,0.0,0.0
534735848,8,1367.0,1358.0,1363.0,1363.0,1512.0,1512.0,0.0,0.0,0.0,0.0,0.0,0.0,0.0,0.0,0.0,0.0
534775923,8,1373.0,1358.0,1364.0,1367.0,1512.0,1512.0,0.0,0.0,0.0,0.0,0.0,0.0,0.0,0.0,0.0,0.0
534836121,8,1394.0,1389.0,1395.0,1381.0,1512.0,1512.0,0.0,0.0,0.0,0.0,0.0,0.0,0.0,0.0,0.0,0.0
534895892,8,1434.0,1425.0,1433.0,1415.0,1512.0,1512.0,0.0,0.0,0.0,0.0,0.0,0.0,0.0,0.0,0.0,0.0
534936092,8,1460.0,1446.0,1452.0,1438.0,1512.0,1512.0,0.0,0.0,0.0,0.0,0.0,0.0,0.0,0.0,0.0,0.0
534996296,8,1479.0,1468.0,1459.0,1456.0,1512.0,1512.0,0.0,0.0,0.0,0.0,0.0,0.0,0.0,0.0,0.0,0.0
535056274,8,1491.0,1482.0,1477.0,1472.0,1512.0,1512.0,0.0,0.0,0.0,0.0,0.0,0.0,0.0,0.0,0.0,0.0
535096280,8,1502.0,1476.0,1483.0,1478.0,1512.0,1512.0,0.0,0.0,0.0,0.0,0.0,0.0,0.0,0.0,0.0,0.0
535136519,8,1516.0,1476.0,1482.0,1474.0,1512.0,1512.0,0.0,0.0,0.0,0.0,0.0,0.0,0.0,0.0,0.0,0.0
535176366,8,1513.0,1471.0,1483.0,1477.0,1512.0,1512.0,0.0,0.0,0.0,0.0,0.0,0.0,0.0,0.0,0.0,0.0
535236696,8,1508.0,1469.0,1485.0,1481.0,1512.0,1512.0,0.0,0.0,0.0,0.0,0.0,0.0,0.0,0.0,0.0,0.0
535276746,8,1516.0,1466.0,1481.0,1477.0,1512.0,1512.0,0.0,0.0,0.0,0.0,0.0,0.0,0.0,0.0,0.0,0.0
535336629,8,1506.0,1463.0,1481.0,1474.0,1512.0,1512.0,0.0,0.0,0.0,0.0,0.0,0.0,0.0,0.0,0.0,0.0
535416567,8,1503.0,1471.0,1478.0,1484.0,1512.0,1512.0,0.0,0.0,0.0,0.0,0.0,0.0,0.0,0.0,0.0,0.0
535456495,8,1503.0,1478.0,1480.0,1499.0,1512.0,1512.0,0.0,0.0,0.0,0.0,0.0,0.0,0.0,0.0,0.0,0.0
535516805,8,1503.0,1477.0,1487.0,1499.0,1512.0,1512.0,0.0,0.0,0.0,0.0,0.0,0.0,0.0,0.0,0.0,0.0
535576752,8,1502.0,1481.0,1486.0,1493.0,1512.0,1512.0,0.0,0.0,0.0,0.0,0.0,0.0,0.0,0.0,0.0,0.0
535616782,8,1498.0,1483.0,1487.0,1495.0,1512.0,1512.0,0.0,0.0,0.0,0.0,0.0,0.0,0.0,0.0,0.0,0.0
535677197,8,1498.0,1488.0,1486.0,1498.0,1512.0,1512.0,0.0,0.0,0.0,0.0,0.0,0.0,0.0,0.0,0.0,0.0
535717168,8,1492.0,1482.0,1484.0,1487.0,1512.0,1512.0,0.0,0.0,0.0,0.0,0.0,0.0,0.0,0.0,0.0,0.0
535776863,8,1490.0,1481.0,1489.0,1491.0,1512.0,1512.0,0.0,0.0,0.0,0.0,0.0,0.0,0.0,0.0,0.0,0.0
535816915,8,1492.0,1483.0,1489.0,1495.0,1512.0,1512.0,0.0,0.0,0.0,0.0,0.0,0.0,0.0,0.0,0.0,0.0
535877482,8,1494.0,1481.0,1485.0,1496.0,1512.0,1512.0,0.0,0.0,0.0,0.0,0.0,0.0,0.0,0.0,0.0,0.0
535937100,8,1497.0,1487.0,1486.0,1493.0,1512.0,1512.0,0.0,0.0,0.0,0.0,0.0,0.0,0.0,0.0,0.0,0.0
535977110,8,1493.0,1485.0,1492.0,1496.0,1512.0,1512.0,0.0,0.0,0.0,0.0,0.0,0.0,0.0,0.0,0.0,0.0
536037517,8,1494.0,1486.0,1486.0,1495.0,1512.0,1512.0,0.0,0.0,0.0,0.0,0.0,0.0,0.0,0.0,0.0,0.0
536077486,8,1500.0,1492.0,1487.0,1492.0,1512.0,1512.0,0.0,0.0,0.0,0.0,0.0,0.0,0.0,0.0,0.0,0.0
536137143,8,1502.0,1492.0,1491.0,1496.0,1512.0,1512.0,0.0,0.0,0.0,0.0,0.0,0.0,0.0,0.0,0.0,0.0
536197479,8,1499.0,1492.0,1490.0,1494.0,1512.0,1512.0,0.0,0.0,0.0,0.0,0.0,0.0,0.0,0.0,0.0,0.0
536237689,8,1504.0,1492.0,1494.0,1502.0,1512.0,1512.0,0.0,0.0,0.0,0.0,0.0,0.0,0.0,0.0,0.0,0.0
536297332,8,1507.0,1497.0,1489.0,1493.0,1512.0,1512.0,0.0,0.0,0.0,0.0,0.0,0.0,0.0,0.0,0.0,0.0
536357650,8,1480.0,1469.0,1466.0,1469.0,1512.0,1512.0,0.0,0.0,0.0,0.0,0.0,0.0,0.0,0.0,0.0,0.0
536397883,8,1448.0,1441.0,1443.0,1448.0,1512.0,1512.0,0.0,0.0,0.0,0.0,0.0,0.0,0.0,0.0,0.0,0.0
536457472,8,1412.0,1413.0,1414.0,1424.0,1512.0,1512.0,0.0,0.0,0.0,0.0,0.0,0.0,0.0,0.0,0.0,0.0
536477955,8,1412.0,1413.0,1414.0,1424.0,1512.0,1512.0,0.0,0.0,0.0,0.0,0.0,0.0,0.0,0.0,0.0,0.0
536557890,8,1391.0,1389.0,1390.0,1401.0,1512.0,1512.0,0.0,0.0,0.0,0.0,0.0,0.0,0.0,0.0,0.0,0.0
536597863,8,1392.0,1384.0,1390.0,1397.0,1512.0,1512.0,0.0,0.0,0.0,0.0,0.0,0.0,0.0,0.0,0.0,0.0
536657727,8,1380.0,1376.0,1383.0,1389.0,1512.0,1512.0,0.0,0.0,0.0,0.0,0.0,0.0,0.0,0.0,0.0,0.0
536718120,8,1388.0,1362.0,1393.0,1376.0,1512.0,1512.0,0.0,0.0,0.0,0.0,0.0,0.0,0.0,0.0,0.0,0.0
536737954,8,1400.0,1360.0,1394.0,1368.0,1512.0,1512.0,0.0,0.0,0.0,0.0,0.0,0.0,0.0,0.0,0.0,0.0
536817906,8,1429.0,1323.0,1424.0,1332.0,1512.0,1512.0,0.0,0.0,0.0,0.0,0.0,0.0,0.0,0.0,0.0,0.0
536857925,8,1436.0,1314.0,1431.0,1331.0,1512.0,1512.0,0.0,0.0,0.0,0.0,0.0,0.0,0.0,0.0,0.0,0.0
536918484,8,1498.0,1257.0,1482.0,1274.0,1512.0,1512.0,0.0,0.0,0.0,0.0,0.0,0.0,0.0,0.0,0.0,0.0
536977954,8,1501.0,1248.0,1482.0,1265.0,1512.0,1512.0,0.0,0.0,0.0,0.0,0.0,0.0,0.0,0.0,0.0,0.0
537018186,8,1497.0,1235.0,1487.0,1267.0,1512.0,1512.0,0.0,0.0,0.0,0.0,0.0,0.0,0.0,0.0,0.0,0.0
537078637,8,1490.0,1232.0,1479.0,1268.0,1512.0,1512.0,0.0,0.0,0.0,0.0,0.0,0.0,0.0,0.0,0.0,0.0
537098240,8,1482.0,1231.0,1478.0,1276.0,1512.0,1512.0,0.0,0.0,0.0,0.0,0.0,0.0,0.0,0.0,0.0,0.0
537178330,8,1397.0,1313.0,1397.0,1340.0,1512.0,1512.0,0.0,0.0,0.0,0.0,0.0,0.0,0.0,0.0,0.0,0.0
537238520,8,1339.0,1373.0,1345.0,1388.0,1512.0,1512.0,0.0,0.0,0.0,0.0,0.0,0.0,0.0,0.0,0.0,0.0
537278656,8,1332.0,1385.0,1334.0,1400.0,1512.0,1512.0,0.0,0.0,0.0,0.0,0.0,0.0,0.0,0.0,0.0,0.0
537338486,8,1348.0,1418.0,1343.0,1413.0,1512.0,1512.0,0.0,0.0,0.0,0.0,0.0,0.0,0.0,0.0,0.0,0.0
537398917,8,1352.0,1437.0,1377.0,1443.0,1512.0,1512.0,0.0,0.0,0.0,0.0,0.0,0.0,0.0,0.0,0.0,0.0
537438916,8,1369.0,1458.0,1379.0,1443.0,1512.0,1512.0,0.0,0.0,0.0,0.0,0.0,0.0,0.0,0.0,0.0,0.0
537498646,8,1375.0,1454.0,1386.0,1453.0,1512.0,1512.0,0.0,0.0,0.0,0.0,0.0,0.0,0.0,0.0,0.0,0.0
537538668,8,1370.0,1461.0,1387.0,1475.0,1512.0,1512.0,0.0,0.0,0.0,0.0,0.0,0.0,0.0,0.0,0.0,0.0
537599008,8,1362.0,1478.0,1381.0,1482.0,1512.0,1512.0,0.0,0.0,0.0,0.0,0.0,0.0,0.0,0.0,0.0,0.0
537658901,8,1392.0,1456.0,1400.0,1463.0,1512.0,1512.0,0.0,0.0,0.0,0.0,0.0,0.0,0.0,0.0,0.0,0.0
537679154,8,1392.0,1456.0,1400.0,1463.0,1512.0,1512.0,0.0,0.0,0.0,0.0,0.0,0.0,0.0,0.0,0.0,0.0
537759093,8,1399.0,1451.0,1410.0,1453.0,1512.0,1512.0,0.0,0.0,0.0,0.0,0.0,0.0,0.0,0.0,0.0,0.0
537799328,8,1406.0,1441.0,1414.0,1448.0,1512.0,1512.0,0.0,0.0,0.0,0.0,0.0,0.0,0.0,0.0,0.0,0.0
537858760,8,1408.0,1439.0,1412.0,1443.0,1512.0,1512.0,0.0,0.0,0.0,0.0,0.0,0.0,0.0,0.0,0.0,0.0
537919163,8,1434.0,1460.0,1447.0,1460.0,1512.0,1512.0,0.0,0.0,0.0,0.0,0.0,0.0,0.0,0.0,0.0,0.0
537959277,8,1436.0,1458.0,1442.0,1455.0,1512.0,1512.0,0.0,0.0,0.0,0.0,0.0,0.0,0.0,0.0,0.0,0.0
538019181,8,1419.0,1437.0,1422.0,1430.0,1512.0,1512.0,0.0,0.0,0.0,0.0,0.0,0.0,0.0,0.0,0.0,0.0
538059271,8,1410.0,1425.0,1414.0,1414.0,1512.0,1512.0,0.0,0.0,0.0,0.0,0.0,0.0,0.0,0.0,0.0,0.0
538099276,8,1413.0,1418.0,1418.0,1416.0,1512.0,1512.0,0.0,0.0,0.0,0.0,0.0,0.0,0.0,0.0,0.0,0.0
538179418,8,1414.0,1424.0,1422.0,1415.0,1512.0,1512.0,0.0,0.0,0.0,0.0,0.0,0.0,0.0,0.0,0.0,0.0
538219462,8,1422.0,1423.0,1427.0,1421.0,1512.0,1512.0,0.0,0.0,0.0,0.0,0.0,0.0,0.0,0.0,0.0,0.0
538279757,8,1423.0,1423.0,1430.0,1423.0,1512.0,1512.0,0.0,0.0,0.0,0.0,0.0,0.0,0.0,0.0,0.0,0.0
538299497,8,1423.0,1423.0,1430.0,1423.0,1512.0,1512.0,0.0,0.0,0.0,0.0,0.0,0.0,0.0,0.0,0.0,0.0
538379519,8,1426.0,1420.0,1431.0,1421.0,1512.0,1512.0,0.0,0.0,0.0,0.0,0.0,0.0,0.0,0.0,0.0,0.0
538439891,8,1428.0,1424.0,1434.0,1422.0,1512.0,1512.0,0.0,0.0,0.0,0.0,0.0,0.0,0.0,0.0,0.0,0.0
538479909,8,1429.0,1421.0,1436.0,1420.0,1512.0,1512.0,0.0,0.0,0.0,0.0,0.0,0.0,0.0,0.0,0.0,0.0
538539605,8,1431.0,1420.0,1434.0,1421.0,1512.0,1512.0,0.0,0.0,0.0,0.0,0.0,0.0,0.0,0.0,0.0,0.0
538579775,8,1432.0,1418.0,1437.0,1421.0,1512.0,1512.0,0.0,0.0,0.0,0.0,0.0,0.0,0.0,0.0,0.0,0.0
538639871,8,1435.0,1418.0,1437.0,1421.0,1512.0,1512.0,0.0,0.0,0.0,0.0,0.0,0.0,0.0,0.0,0.0,0.0
538699785,8,1435.0,1419.0,1433.0,1422.0,1512.0,1512.0,0.0,0.0,0.0,0.0,0.0,0.0,0.0,0.0,0.0,0.0
538739845,8,1437.0,1418.0,1433.0,1419.0,1512.0,1512.0,0.0,0.0,0.0,0.0,0.0,0.0,0.0,0.0,0.0,0.0
538800127,8,1438.0,1422.0,1435.0,1420.0,1512.0,1512.0,0.0,0.0,0.0,0.0,0.0,0.0,0.0,0.0,0.0,0.0
538860071,8,1442.0,1421.0,1435.0,1421.0,1512.0,1512.0,0.0,0.0,0.0,0.0,0.0,0.0,0.0,0.0,0.0,0.0
538900104,8,1443.0,1422.0,1436.0,1419.0,1512.0,1512.0,0.0,0.0,0.0,0.0,0.0,0.0,0.0,0.0,0.0,0.0
538960300,8,1438.0,1422.0,1439.0,1419.0,1512.0,1512.0,0.0,0.0,0.0,0.0,0.0,0.0,0.0,0.0,0.0,0.0
539000350,8,1440.0,1420.0,1436.0,1419.0,1512.0,1512.0,0.0,0.0,0.0,0.0,0.0,0.0,0.0,0.0,0.0,0.0
539060288,8,1439.0,1419.0,1435.0,1421.0,1512.0,1512.0,0.0,0.0,0.0,0.0,0.0,0.0,0.0,0.0,0.0,0.0
539100283,8,1441.0,1413.0,1437.0,1419.0,1512.0,1512.0,0.0,0.0,0.0,0.0,0.0,0.0,0.0,0.0,0.0,0.0
539140347,8,1438.0,1417.0,1437.0,1417.0,1512.0,1512.0,0.0,0.0,0.0,0.0,0.0,0.0,0.0,0.0,0.0,0.0
539220276,8,1442.0,1415.0,1435.0,1414.0,1512.0,1512.0,0.0,0.0,0.0,0.0,0.0,0.0,0.0,0.0,0.0,0.0
539280699,8,1442.0,1415.0,1439.0,1414.0,1512.0,1512.0,0.0,0.0,0.0,0.0,0.0,0.0,0.0,0.0,0.0,0.0
539320612,8,1449.0,1419.0,1444.0,1423.0,1512.0,1512.0,0.0,0.0,0.0,0.0,0.0,0.0,0.0,0.0,0.0,0.0
539380281,8,1458.0,1433.0,1452.0,1431.0,1512.0,1512.0,0.0,0.0,0.0,0.0,0.0,0.0,0.0,0.0,0.0,0.0
539420563,8,1474.0,1445.0,1472.0,1450.0,1512.0,1512.0,0.0,0.0,0.0,0.0,0.0,0.0,0.0,0.0,0.0,0.0
539480744,8,1490.0,1464.0,1486.0,1467.0,1512.0,1512.0,0.0,0.0,0.0,0.0,0.0,0.0,0.0,0.0,0.0,0.0
539540557,8,1495.0,1473.0,1495.0,1477.0,1512.0,1512.0,0.0,0.0,0.0,0.0,0.0,0.0,0.0,0.0,0.0,0.0
539580729,8,1502.0,1474.0,1496.0,1482.0,1512.0,1512.0,0.0,0.0,0.0,0.0,0.0,0.0,0.0,0.0,0.0,0.0
539640908,8,1500.0,1480.0,1496.0,1487.0,1512.0,1512.0,0.0,0.0,0.0,0.0,0.0,0.0,0.0,0.0,0.0,0.0
539681057,8,1494.0,1479.0,1499.0,1492.0,1512.0,1512.0,0.0,0.0,0.0,0.0,0.0,0.0,0.0,0.0,0.0,0.0
539740950,8,1491.0,1479.0,1491.0,1481.0,1512.0,1512.0,0.0,0.0,0.0,0.0,0.0,0.0,0.0,0.0,0.0,0.0
539801167,8,1478.0,1474.0,1479.0,1475.0,1512.0,1512.0,0.0,0.0,0.0,0.0,0.0,0.0,0.0,0.0,0.0,0.0
539841109,8,1461.0,1450.0,1459.0,1459.0,1512.0,1512.0,0.0,0.0,0.0,0.0,0.0,0.0,0.0,0.0,0.0,0.0
539900886,8,1431.0,1421.0,1429.0,1435.0,1512.0,1512.0,0.0,0.0,0.0,0.0,0.0,0.0,0.0,0.0,0.0,0.0
539941101,8,1423.0,1421.0,1435.0,1437.0,1512.0,1512.0,0.0,0.0,0.0,0.0,0.0,0.0,0.0,0.0,0.0,0.0
540001370,8,1429.0,1421.0,1431.0,1439.0,1512.0,1512.0,0.0,0.0,0.0,0.0,0.0,0.0,0.0,0.0,0.0,0.0
540061145,8,1418.0,1414.0,1419.0,1428.0,1512.0,1512.0,0.0,0.0,0.0,0.0,0.0,0.0,0.0,0.0,0.0,0.0
540101120,8,1416.0,1414.0,1422.0,1429.0,1512.0,1512.0,0.0,0.0,0.0,0.0,0.0,0.0,0.0,0.0,0.0,0.0
540161456,8,1429.0,1427.0,1437.0,1444.0,1512.0,1512.0,0.0,0.0,0.0,0.0,0.0,0.0,0.0,0.0,0.0,0.0
540201398,8,1430.0,1431.0,1434.0,1441.0,1512.0,1512.0,0.0,0.0,0.0,0.0,0.0,0.0,0.0,0.0,0.0,0.0
540261353,8,1430.0,1426.0,1432.0,1439.0,1512.0,1512.0,0.0,0.0,0.0,0.0,0.0,0.0,0.0,0.0,0.0,0.0
540301319,8,1430.0,1429.0,1430.0,1441.0,1512.0,1512.0,0.0,0.0,0.0,0.0,0.0,0.0,0.0,0.0,0.0,0.0
540361686,8,1433.0,1430.0,1432.0,1440.0,1512.0,1512.0,0.0,0.0,0.0,0.0,0.0,0.0,0.0,0.0,0.0,0.0
540421478,8,1430.0,1427.0,1430.0,1433.0,1512.0,1512.0,0.0,0.0,0.0,0.0,0.0,0.0,0.0,0.0,0.0,0.0
540461479,8,1425.0,1425.0,1429.0,1436.0,1512.0,1512.0,0.0,0.0,0.0,0.0,0.0,0.0,0.0,0.0,0.0,0.0
540521886,8,1435.0,1431.0,1436.0,1436.0,1512.0,1512.0,0.0,0.0,0.0,0.0,0.0,0.0,0.0,0.0,0.0,0.0
540581656,8,1435.0,1427.0,1435.0,1429.0,1512.0,1512.0,0.0,0.0,0.0,0.0,0.0,0.0,0.0,0.0,0.0,0.0
540621687,8,1431.0,1426.0,1429.0,1429.0,1512.0,1512.0,0.0,0.0,0.0,0.0,0.0,0.0,0.0,0.0,0.0,0.0
540661679,8,1438.0,1427.0,1432.0,1427.0,1512.0,1512.0,0.0,0.0,0.0,0.0,0.0,0.0,0.0,0.0,0.0,0.0
540741955,8,1446.0,1433.0,1440.0,1436.0,1512.0,1512.0,0.0,0.0,0.0,0.0,0.0,0.0,0.0,0.0,0.0,0.0
540781920,8,1455.0,1441.0,1448.0,1444.0,1512.0,1512.0,0.0,0.0,0.0,0.0,0.0,0.0,0.0,0.0,0.0,0.0
540842189,8,1450.0,1437.0,1447.0,1441.0,1512.0,1512.0,0.0,0.0,0.0,0.0,0.0,0.0,0.0,0.0,0.0,0.0
540882186,8,1449.0,1431.0,1444.0,1440.0,1512.0,1512.0,0.0,0.0,0.0,0.0,0.0,0.0,0.0,0.0,0.0,0.0
540941932,8,1448.0,1432.0,1439.0,1437.0,1512.0,1512.0,0.0,0.0,0.0,0.0,0.0,0.0,0.0,0.0,0.0,0.0
541002256,8,1446.0,1429.0,1446.0,1443.0,1512.0,1512.0,0.0,0.0,0.0,0.0,0.0,0.0,0.0,0.0,0.0,0.0
541042311,8,1447.0,1430.0,1442.0,1440.0,1512.0,1512.0,0.0,0.0,0.0,0.0,0.0,0.0,0.0,0.0,0.0,0.0
541102121,8,1447.0,1429.0,1447.0,1439.0,1512.0,1512.0,0.0,0.0,0.0,0.0,0.0,0.0,0.0,0.0,0.0,0.0
541142235,8,1447.0,1431.0,1443.0,1439.0,1512.0,1512.0,0.0,0.0,0.0,0.0,0.0,0.0,0.0,0.0,0.0,0.0
541202686,8,1443.0,1426.0,1444.0,1432.0,1512.0,1512.0,0.0,0.0,0.0,0.0,0.0,0.0,0.0,0.0,0.0,0.0
541242490,8,1444.0,1423.0,1441.0,1438.0,1512.0,1512.0,0.0,0.0,0.0,0.0,0.0,0.0,0.0,0.0,0.0,0.0
541282759,8,1442.0,1424.0,1440.0,1439.0,1512.0,1512.0,0.0,0.0,0.0,0.0,0.0,0.0,0.0,0.0,0.0,0.0
541362706,8,1441.0,1426.0,1442.0,1443.0,1512.0,1512.0,0.0,0.0,0.0,0.0,0.0,0.0,0.0,0.0,0.0,0.0
541402747,8,1441.0,1426.0,1441.0,1441.0,1512.0,1512.0,0.0,0.0,0.0,0.0,0.0,0.0,0.0,0.0,0.0,0.0
541462683,8,1438.0,1419.0,1438.0,1436.0,1512.0,1512.0,0.0,0.0,0.0,0.0,0.0,0.0,0.0,0.0,0.0,0.0
541523056,8,1429.0,1414.0,1430.0,1427.0,1512.0,1512.0,0.0,0.0,0.0,0.0,0.0,0.0,0.0,0.0,0.0,0.0
541542689,8,1428.0,1412.0,1432.0,1426.0,1512.0,1512.0,0.0,0.0,0.0,0.0,0.0,0.0,0.0,0.0,0.0,0.0
541622734,8,1431.0,1416.0,1429.0,1425.0,1512.0,1512.0,0.0,0.0,0.0,0.0,0.0,0.0,0.0,0.0,0.0,0.0
541683040,8,1453.0,1435.0,1449.0,1444.0,1512.0,1512.0,0.0,0.0,0.0,0.0,0.0,0.0,0.0,0.0,0.0,0.0
541723020,8,1456.0,1441.0,1449.0,1444.0,1512.0,1512.0,0.0,0.0,0.0,0.0,0.0,0.0,0.0,0.0,0.0,0.0
541783013,8,1455.0,1448.0,1456.0,1451.0,1512.0,1512.0,0.0,0.0,0.0,0.0,0.0,0.0,0.0,0.0,0.0,0.0
541822721,8,1453.0,1434.0,1450.0,1440.0,1512.0,1512.0,0.0,0.0,0.0,0.0,0.0,0.0,0.0,0.0,0.0,0.0
541883169,8,1435.0,1420.0,1437.0,1425.0,1512.0,1512.0,0.0,0.0,0.0,0.0,0.0,0.0,0.0,0.0,0.0,0.0
541923325,8,1432.0,1416.0,1433.0,1423.0,1512.0,1512.0,0.0,0.0,0.0,0.0,0.0,0.0,0.0,0.0,0.0,0.0
541983122,8,1437.0,1418.0,1438.0,1427.0,1512.0,1512.0,0.0,0.0,0.0,0.0,0.0,0.0,0.0,0.0,0.0,0.0
542043324,8,1438.0,1418.0,1441.0,1424.0,1512.0,1512.0,0.0,0.0,0.0,0.0,0.0,0.0,0.0,0.0,0.0,0.0
542083517,8,1437.0,1418.0,1443.0,1429.0,1512.0,1512.0,0.0,0.0,0.0,0.0,0.0,0.0,0.0,0.0,0.0,0.0
542143430,8,1435.0,1421.0,1441.0,1426.0,1512.0,1512.0,0.0,0.0,0.0,0.0,0.0,0.0,0.0,0.0,0.0,0.0
542183470,8,1442.0,1421.0,1444.0,1428.0,1512.0,1512.0,0.0,0.0,0.0,0.0,0.0,0.0,0.0,0.0,0.0,0.0
542243715,8,1451.0,1431.0,1452.0,1432.0,1512.0,1512.0,0.0,0.0,0.0,0.0,0.0,0.0,0.0,0.0,0.0,0.0
542303487,8,1446.0,1428.0,1448.0,1429.0,1512.0,1512.0,0.0,0.0,0.0,0.0,0.0,0.0,0.0,0.0,0.0,0.0
542343522,8,1449.0,1429.0,1446.0,1429.0,1512.0,1512.0,0.0,0.0,0.0,0.0,0.0,0.0,0.0,0.0,0.0,0.0
542403716,8,1452.0,1434.0,1458.0,1439.0,1512.0,1512.0,0.0,0.0,0.0,0.0,0.0,0.0,0.0,0.0,0.0,0.0
542423594,8,1455.0,1434.0,1457.0,1439.0,1512.0,1512.0,0.0,0.0,0.0,0.0,0.0,0.0,0.0,0.0,0.0,0.0
542503592,8,1446.0,1428.0,1450.0,1433.0,1512.0,1512.0,0.0,0.0,0.0,0.0,0.0,0.0,0.0,0.0,0.0,0.0
542563868,8,1440.0,1425.0,1444.0,1430.0,1512.0,1512.0,0.0,0.0,0.0,0.0,0.0,0.0,0.0,0.0,0.0,0.0
542603820,8,1445.0,1426.0,1448.0,1431.0,1512.0,1512.0,0.0,0.0,0.0,0.0,0.0,0.0,0.0,0.0,0.0,0.0
542663755,8,1457.0,1438.0,1462.0,1445.0,1512.0,1512.0,0.0,0.0,0.0,0.0,0.0,0.0,0.0,0.0,0.0,0.0
542703808,8,1463.0,1443.0,1465.0,1456.0,1512.0,1512.0,0.0,0.0,0.0,0.0,0.0,0.0,0.0,0.0,0.0,0.0
542764286,8,1465.0,1443.0,1468.0,1456.0,1512.0,1512.0,0.0,0.0,0.0,0.0,0.0,0.0,0.0,0.0,0.0,0.0
542804232,8,1460.0,1440.0,1458.0,1441.0,1512.0,1512.0,0.0,0.0,0.0,0.0,0.0,0.0,0.0,0.0,0.0,0.0
542864101,8,1464.0,1441.0,1455.0,1444.0,1512.0,1512.0,0.0,0.0,0.0,0.0,0.0,0.0,0.0,0.0,0.0,0.0
542924284,8,1471.0,1450.0,1470.0,1459.0,1512.0,1512.0,0.0,0.0,0.0,0.0,0.0,0.0,0.0,0.0,0.0,0.0
542964281,8,1475.0,1454.0,1470.0,1455.0,1512.0,1512.0,0.0,0.0,0.0,0.0,0.0,0.0,0.0,0.0,0.0,0.0
543024088,8,1468.0,1446.0,1464.0,1451.0,1512.0,1512.0,0.0,0.0,0.0,0.0,0.0,0.0,0.0,0.0,0.0,0.0
543064295,8,1464.0,1441.0,1456.0,1448.0,1512.0,1512.0,0.0,0.0,0.0,0.0,0.0,0.0,0.0,0.0,0.0,0.0
543124547,8,1460.0,1438.0,1446.0,1437.0,1512.0,1512.0,0.0,0.0,0.0,0.0,0.0,0.0,0.0,0.0,0.0,0.0
543184305,8,1455.0,1435.0,1447.0,1440.0,1512.0,1512.0,0.0,0.0,0.0,0.0,0.0,0.0,0.0,0.0,0.0,0.0
543224311,8,1453.0,1435.0,1446.0,1440.0,1512.0,1512.0,0.0,0.0,0.0,0.0,0.0,0.0,0.0,0.0,0.0,0.0
543284606,8,1466.0,1443.0,1468.0,1454.0,1512.0,1512.0,0.0,0.0,0.0,0.0,0.0,0.0,0.0,0.0,0.0,0.0
543344324,8,1469.0,1450.0,1468.0,1459.0,1512.0,1512.0,0.0,0.0,0.0,0.0,0.0,0.0,0.0,0.0,0.0,0.0
543384609,8,1456.0,1437.0,1461.0,1451.0,1512.0,1512.0,0.0,0.0,0.0,0.0,0.0,0.0,0.0,0.0,0.0,0.0
543444720,8,1452.0,1431.0,1457.0,1445.0,1512.0,1512.0,0.0,0.0,0.0,0.0,0.0,0.0,0.0,0.0,0.0,0.0
543504527,8,1455.0,1433.0,1462.0,1449.0,1512.0,1512.0,0.0,0.0,0.0,0.0,0.0,0.0,0.0,0.0,0.0,0.0
543544615,8,1447.0,1422.0,1451.0,1443.0,1512.0,1512.0,0.0,0.0,0.0,0.0,0.0,0.0,0.0,0.0,0.0,0.0
543604957,8,1415.0,1394.0,1422.0,1414.0,1512.0,1512.0,0.0,0.0,0.0,0.0,0.0,0.0,0.0,0.0,0.0,0.0
543644924,8,1417.0,1395.0,1414.0,1413.0,1512.0,1512.0,0.0,0.0,0.0,0.0,0.0,0.0,0.0,0.0,0.0,0.0
543704884,8,1437.0,1417.0,1436.0,1426.0,1512.0,1512.0,0.0,0.0,0.0,0.0,0.0,0.0,0.0,0.0,0.0,0.0
543765118,8,1454.0,1436.0,1453.0,1442.0,1512.0,1512.0,0.0,0.0,0.0,0.0,0.0,0.0,0.0,0.0,0.0,0.0
543805151,8,1459.0,1445.0,1455.0,1447.0,1512.0,1512.0,0.0,0.0,0.0,0.0,0.0,0.0,0.0,0.0,0.0,0.0
543864934,8,1478.0,1464.0,1471.0,1464.0,1512.0,1512.0,0.0,0.0,0.0,0.0,0.0,0.0,0.0,0.0,0.0,0.0
543905109,8,1476.0,1459.0,1477.0,1468.0,1512.0,1512.0,0.0,0.0,0.0,0.0,0.0,0.0,0.0,0.0,0.0,0.0
543965516,8,1457.0,1448.0,1461.0,1452.0,1512.0,1512.0,0.0,0.0,0.0,0.0,0.0,0.0,0.0,0.0,0.0,0.0
544025118,8,1461.0,1449.0,1459.0,1453.0,1512.0,1512.0,0.0,0.0,0.0,0.0,0.0,0.0,0.0,0.0,0.0,0.0
544065148,8,1470.0,1458.0,1468.0,1453.0,1512.0,1512.0,0.0,0.0,0.0,0.0,0.0,0.0,0.0,0.0,0.0,0.0
544125405,8,1484.0,1472.0,1488.0,1481.0,1512.0,1512.0,0.0,0.0,0.0,0.0,0.0,0.0,0.0,0.0,0.0,0.0
544185171,8,1495.0,1482.0,1497.0,1483.0,1512.0,1512.0,0.0,0.0,0.0,0.0,0.0,0.0,0.0,0.0,0.0,0.0
544225310,8,1472.0,1461.0,1472.0,1455.0,1512.0,1512.0,0.0,0.0,0.0,0.0,0.0,0.0,0.0,0.0,0.0,0.0
544285566,8,1463.0,1453.0,1466.0,1453.0,1512.0,1512.0,0.0,0.0,0.0,0.0,0.0,0.0,0.0,0.0,0.0,0.0
544325674,8,1457.0,1446.0,1458.0,1447.0,1512.0,1512.0,0.0,0.0,0.0,0.0,0.0,0.0,0.0,0.0,0.0,0.0
544385436,8,1470.0,1457.0,1467.0,1459.0,1512.0,1512.0,0.0,0.0,0.0,0.0,0.0,0.0,0.0,0.0,0.0,0.0
544445867,8,1465.0,1456.0,1458.0,1453.0,1512.0,1512.0,0.0,0.0,0.0,0.0,0.0,0.0,0.0,0.0,0.0,0.0
544485925,8,1464.0,1453.0,1463.0,1449.0,1512.0,1512.0,0.0,0.0,0.0,0.0,0.0,0.0,0.0,0.0,0.0,0.0
544545823,8,1452.0,1439.0,1446.0,1435.0,1512.0,1512.0,0.0,0.0,0.0,0.0,0.0,0.0,0.0,0.0,0.0,0.0
544605990,8,1462.0,1450.0,1457.0,1445.0,1512.0,1512.0,0.0,0.0,0.0,0.0,0.0,0.0,0.0,0.0,0.0,0.0
544625723,8,1473.0,1466.0,1462.0,1462.0,1512.0,1512.0,0.0,0.0,0.0,0.0,0.0,0.0,0.0,0.0,0.0,0.0
544705879,8,1485.0,1481.0,1475.0,1473.0,1512.0,1512.0,0.0,0.0,0.0,0.0,0.0,0.0,0.0,0.0,0.0,0.0
544745873,8,1483.0,1472.0,1470.0,1471.0,1512.0,1512.0,0.0,0.0,0.0,0.0,0.0,0.0,0.0,0.0,0.0,0.0
544806177,8,1453.0,1447.0,1441.0,1444.0,1512.0,1512.0,0.0,0.0,0.0,0.0,0.0,0.0,0.0,0.0,0.0,0.0
544865990,8,1451.0,1440.0,1436.0,1442.0,1512.0,1512.0,0.0,0.0,0.0,0.0,0.0,0.0,0.0,0.0,0.0,0.0
544886243,8,1462.0,1451.0,1451.0,1450.0,1512.0,1512.0,0.0,0.0,0.0,0.0,0.0,0.0,0.0,0.0,0.0,0.0
544966234,8,1474.0,1460.0,1458.0,1463.0,1512.0,1512.0,0.0,0.0,0.0,0.0,0.0,0.0,0.0,0.0,0.0,0.0
545025948,8,1457.0,1450.0,1448.0,1447.0,1512.0,1512.0,0.0,0.0,0.0,0.0,0.0,0.0,0.0,0.0,0.0,0.0
545066208,8,1458.0,1451.0,1444.0,1448.0,1512.0,1512.0,0.0,0.0,0.0,0.0,0.0,0.0,0.0,0.0,0.0,0.0
545126472,8,1455.0,1466.0,1459.0,1444.0,1512.0,1512.0,0.0,0.0,0.0,0.0,0.0,0.0,0.0,0.0,0.0,0.0
545166492,8,1467.0,1479.0,1478.0,1457.0,1512.0,1512.0,0.0,0.0,0.0,0.0,0.0,0.0,0.0,0.0,0.0,0.0
545226280,8,1472.0,1486.0,1480.0,1460.0,1512.0,1512.0,0.0,0.0,0.0,0.0,0.0,0.0,0.0,0.0,0.0,0.0
545286705,8,1450.0,1465.0,1460.0,1437.0,1512.0,1512.0,0.0,0.0,0.0,0.0,0.0,0.0,0.0,0.0,0.0,0.0
545326615,8,1439.0,1463.0,1456.0,1432.0,1512.0,1512.0,0.0,0.0,0.0,0.0,0.0,0.0,0.0,0.0,0.0,0.0
545386472,8,1447.0,1464.0,1456.0,1440.0,1512.0,1512.0,0.0,0.0,0.0,0.0,0.0,0.0,0.0,0.0,0.0,0.0
545446759,8,1461.0,1468.0,1463.0,1450.0,1512.0,1512.0,0.0,0.0,0.0,0.0,0.0,0.0,0.0,0.0,0.0,0.0
545466715,8,1461.0,1468.0,1463.0,1450.0,1512.0,1512.0,0.0,0.0,0.0,0.0,0.0,0.0,0.0,0.0,0.0,0.0
545546652,8,1480.0,1478.0,1471.0,1465.0,1512.0,1512.0,0.0,0.0,0.0,0.0,0.0,0.0,0.0,0.0,0.0,0.0
545586704,8,1478.0,1478.0,1469.0,1459.0,1512.0,1512.0,0.0,0.0,0.0,0.0,0.0,0.0,0.0,0.0,0.0,0.0
545646962,8,1468.0,1465.0,1457.0,1459.0,1512.0,1512.0,0.0,0.0,0.0,0.0,0.0,0.0,0.0,0.0,0.0,0.0
545706809,8,1468.0,1438.0,1429.0,1460.0,1512.0,1512.0,0.0,0.0,0.0,0.0,0.0,0.0,0.0,0.0,0.0,0.0
545746748,8,1466.0,1440.0,1435.0,1461.0,1512.0,1512.0,0.0,0.0,0.0,0.0,0.0,0.0,0.0,0.0,0.0,0.0
545807058,8,1470.0,1443.0,1438.0,1463.0,1512.0,1512.0,0.0,0.0,0.0,0.0,0.0,0.0,0.0,0.0,0.0,0.0
545867051,8,1475.0,1430.0,1421.0,1470.0,1512.0,1512.0,0.0,0.0,0.0,0.0,0.0,0.0,0.0,0.0,0.0,0.0
545907058,8,1476.0,1426.0,1423.0,1467.0,1512.0,1512.0,0.0,0.0,0.0,0.0,0.0,0.0,0.0,0.0,0.0,0.0
545967271,8,1478.0,1435.0,1429.0,1468.0,1512.0,1512.0,0.0,0.0,0.0,0.0,0.0,0.0,0.0,0.0,0.0,0.0
546007486,8,1472.0,1427.0,1424.0,1462.0,1512.0,1512.0,0.0,0.0,0.0,0.0,0.0,0.0,0.0,0.0,0.0,0.0
546047479,8,1460.0,1417.0,1406.0,1449.0,1512.0,1512.0,0.0,0.0,0.0,0.0,0.0,0.0,0.0,0.0,0.0,0.0
546127479,8,1430.0,1409.0,1398.0,1425.0,1512.0,1512.0,0.0,0.0,0.0,0.0,0.0,0.0,0.0,0.0,0.0,0.0
546167482,8,1432.0,1423.0,1418.0,1419.0,1512.0,1512.0,0.0,0.0,0.0,0.0,0.0,0.0,0.0,0.0,0.0,0.0
546227308,8,1445.0,1468.0,1463.0,1428.0,1512.0,1512.0,0.0,0.0,0.0,0.0,0.0,0.0,0.0,0.0,0.0,0.0
546247576,8,1442.0,1460.0,1455.0,1429.0,1512.0,1512.0,0.0,0.0,0.0,0.0,0.0,0.0,0.0,0.0,0.0,0.0
546327846,8,1459.0,1468.0,1470.0,1448.0,1512.0,1512.0,0.0,0.0,0.0,0.0,0.0,0.0,0.0,0.0,0.0,0.0
546387510,8,1481.0,1490.0,1494.0,1470.0,1512.0,1512.0,0.0,0.0,0.0,0.0,0.0,0.0,0.0,0.0,0.0,0.0
546427555,8,1484.0,1492.0,1494.0,1474.0,1512.0,1512.0,0.0,0.0,0.0,0.0,0.0,0.0,0.0,0.0,0.0,0.0
546467529,8,1476.0,1482.0,1486.0,1469.0,1512.0,1512.0,0.0,0.0,0.0,0.0,0.0,0.0,0.0,0.0,0.0,0.0
546547606,8,1463.0,1465.0,1468.0,1459.0,1512.0,1512.0,0.0,0.0,0.0,0.0,0.0,0.0,0.0,0.0,0.0,0.0
546587547,8,1465.0,1462.0,1460.0,1456.0,1512.0,1512.0,0.0,0.0,0.0,0.0,0.0,0.0,0.0,0.0,0.0,0.0
546647827,8,1450.0,1442.0,1444.0,1451.0,1512.0,1512.0,0.0,0.0,0.0,0.0,0.0,0.0,0.0,0.0,0.0,0.0
546687850,8,1448.0,1447.0,1447.0,1448.0,1512.0,1512.0,0.0,0.0,0.0,0.0,0.0,0.0,0.0,0.0,0.0,0.0
546747706,8,1451.0,1449.0,1444.0,1446.0,1512.0,1512.0,0.0,0.0,0.0,0.0,0.0,0.0,0.0,0.0,0.0,0.0
546808075,8,1451.0,1458.0,1454.0,1446.0,1512.0,1512.0,0.0,0.0,0.0,0.0,0.0,0.0,0.0,0.0,0.0,0.0
546848124,8,1443.0,1458.0,1458.0,1440.0,1512.0,1512.0,0.0,0.0,0.0,0.0,0.0,0.0,0.0,0.0,0.0,0.0
546907920,8,1445.0,1457.0,1456.0,1447.0,1512.0,1512.0,0.0,0.0,0.0,0.0,0.0,0.0,0.0,0.0,0.0,0.0
546948087,8,1465.0,1464.0,1458.0,1460.0,1512.0,1512.0,0.0,0.0,0.0,0.0,0.0,0.0,0.0,0.0,0.0,0.0
547008523,8,1464.0,1467.0,1464.0,1459.0,1512.0,1512.0,0.0,0.0,0.0,0.0,0.0,0.0,0.0,0.0,0.0,0.0
547068293,8,1471.0,1477.0,1469.0,1463.0,1512.0,1512.0,0.0,0.0,0.0,0.0,0.0,0.0,0.0,0.0,0.0,0.0
547108279,8,1466.0,1475.0,1472.0,1459.0,1512.0,1512.0,0.0,0.0,0.0,0.0,0.0,0.0,0.0,0.0,0.0,0.0
547168387,8,1484.0,1492.0,1487.0,1472.0,1512.0,1512.0,0.0,0.0,0.0,0.0,0.0,0.0,0.0,0.0,0.0,0.0
547208546,8,1479.0,1490.0,1489.0,1473.0,1512.0,1512.0,0.0,0.0,0.0,0.0,0.0,0.0,0.0,0.0,0.0,0.0
547268516,8,1473.0,1478.0,1479.0,1467.0,1512.0,1512.0,0.0,0.0,0.0,0.0,0.0,0.0,0.0,0.0,0.0,0.0
547328660,8,1442.0,1442.0,1441.0,1437.0,1512.0,1512.0,0.0,0.0,0.0,0.0,0.0,0.0,0.0,0.0,0.0,0.0
547368650,8,1434.0,1439.0,1437.0,1428.0,1512.0,1512.0,0.0,0.0,0.0,0.0,0.0,0.0,0.0,0.0,0.0,0.0
547428370,8,1435.0,1441.0,1441.0,1428.0,1512.0,1512.0,0.0,0.0,0.0,0.0,0.0,0.0,0.0,0.0,0.0,0.0
547468625,8,1437.0,1442.0,1439.0,1425.0,1512.0,1512.0,0.0,0.0,0.0,0.0,0.0,0.0,0.0,0.0,0.0,0.0
547528887,8,1438.0,1439.0,1439.0,1426.0,1512.0,1512.0,0.0,0.0,0.0,0.0,0.0,0.0,0.0,0.0,0.0,0.0
547588679,8,1438.0,1439.0,1438.0,1427.0,1512.0,1512.0,0.0,0.0,0.0,0.0,0.0,0.0,0.0,0.0,0.0,0.0
547628631,8,1443.0,1450.0,1451.0,1427.0,1512.0,1512.0,0.0,0.0,0.0,0.0,0.0,0.0,0.0,0.0,0.0,0.0
547668898,8,1449.0,1456.0,1456.0,1431.0,1512.0,1512.0,0.0,0.0,0.0,0.0,0.0,0.0,0.0,0.0,0.0,0.0
547708890,8,1451.0,1453.0,1455.0,1430.0,1512.0,1512.0,0.0,0.0,0.0,0.0,0.0,0.0,0.0,0.0,0.0,0.0
547788867,8,1456.0,1443.0,1454.0,1442.0,1512.0,1512.0,0.0,0.0,0.0,0.0,0.0,0.0,0.0,0.0,0.0,0.0
547828907,8,1449.0,1439.0,1450.0,1432.0,1512.0,1512.0,0.0,0.0,0.0,0.0,0.0,0.0,0.0,0.0,0.0,0.0
547889401,8,1457.0,1449.0,1470.0,1444.0,1512.0,1512.0,0.0,0.0,0.0,0.0,0.0,0.0,0.0,0.0,0.0,0.0
547949079,8,1461.0,1444.0,1463.0,1439.0,1512.0,1512.0,0.0,0.0,0.0,0.0,0.0,0.0,0.0,0.0,0.0,0.0
547989112,8,1463.0,1439.0,1465.0,1443.0,1512.0,1512.0,0.0,0.0,0.0,0.0,0.0,0.0,0.0,0.0,0.0,0.0
548049538,8,1471.0,1453.0,1477.0,1451.0,1512.0,1512.0,0.0,0.0,0.0,0.0,0.0,0.0,0.0,0.0,0.0,0.0
548089541,8,1472.0,1454.0,1477.0,1452.0,1512.0,1512.0,0.0,0.0,0.0,0.0,0.0,0.0,0.0,0.0,0.0,0.0
548149148,8,1470.0,1442.0,1466.0,1453.0,1512.0,1512.0,0.0,0.0,0.0,0.0,0.0,0.0,0.0,0.0,0.0,0.0
548209518,8,1472.0,1447.0,1471.0,1456.0,1512.0,1512.0,0.0,0.0,0.0,0.0,0.0,0.0,0.0,0.0,0.0,0.0
548249563,8,1485.0,1469.0,1488.0,1462.0,1512.0,1512.0,0.0,0.0,0.0,0.0,0.0,0.0,0.0,0.0,0.0,0.0
548309353,8,1479.0,1459.0,1476.0,1455.0,1512.0,1512.0,0.0,0.0,0.0,0.0,0.0,0.0,0.0,0.0,0.0,0.0
548349346,8,1463.0,1438.0,1454.0,1444.0,1512.0,1512.0,0.0,0.0,0.0,0.0,0.0,0.0,0.0,0.0,0.0,0.0
548389581,8,1464.0,1442.0,1459.0,1444.0,1512.0,1512.0,0.0,0.0,0.0,0.0,0.0,0.0,0.0,0.0,0.0,0.0
548469535,8,1459.0,1446.0,1463.0,1447.0,1512.0,1512.0,0.0,0.0,0.0,0.0,0.0,0.0,0.0,0.0,0.0,0.0
548509606,8,1464.0,1455.0,1471.0,1454.0,1512.0,1512.0,0.0,0.0,0.0,0.0,0.0,0.0,0.0,0.0,0.0,0.0
548569885,8,1461.0,1454.0,1467.0,1448.0,1512.0,1512.0,0.0,0.0,0.0,0.0,0.0,0.0,0.0,0.0,0.0,0.0
548609890,8,1446.0,1439.0,1456.0,1440.0,1512.0,1512.0,0.0,0.0,0.0,0.0,0.0,0.0,0.0,0.0,0.0,0.0
548669738,8,1448.0,1440.0,1442.0,1432.0,1512.0,1512.0,0.0,0.0,0.0,0.0,0.0,0.0,0.0,0.0,0.0,0.0
548729942,8,1447.0,1446.0,1448.0,1434.0,1512.0,1512.0,0.0,0.0,0.0,0.0,0.0,0.0,0.0,0.0,0.0,0.0
548770280,8,1459.0,1465.0,1468.0,1448.0,1512.0,1512.0,0.0,0.0,0.0,0.0,0.0,0.0,0.0,0.0,0.0,0.0
548810290,8,1471.0,1483.0,1483.0,1461.0,1512.0,1512.0,0.0,0.0,0.0,0.0,0.0,0.0,0.0,0.0,0.0,0.0
548869880,8,1476.0,1476.0,1476.0,1468.0,1512.0,1512.0,0.0,0.0,0.0,0.0,0.0,0.0,0.0,0.0,0.0,0.0
548909974,8,1480.0,1463.0,1463.0,1473.0,1512.0,1512.0,0.0,0.0,0.0,0.0,0.0,0.0,0.0,0.0,0.0,0.0
548970222,8,1454.0,1451.0,1448.0,1445.0,1512.0,1512.0,0.0,0.0,0.0,0.0,0.0,0.0,0.0,0.0,0.0,0.0
549030144,8,1447.0,1456.0,1456.0,1441.0,1512.0,1512.0,0.0,0.0,0.0,0.0,0.0,0.0,0.0,0.0,0.0,0.0
549070095,8,1446.0,1450.0,1448.0,1438.0,1512.0,1512.0,0.0,0.0,0.0,0.0,0.0,0.0,0.0,0.0,0.0,0.0
549130511,8,1433.0,1433.0,1430.0,1432.0,1512.0,1512.0,0.0,0.0,0.0,0.0,0.0,0.0,0.0,0.0,0.0,0.0
549190199,8,1418.0,1410.0,1407.0,1417.0,1512.0,1512.0,0.0,0.0,0.0,0.0,0.0,0.0,0.0,0.0,0.0,0.0
549250641,8,1408.0,1397.0,1399.0,1407.0,1512.0,1512.0,0.0,0.0,0.0,0.0,0.0,0.0,0.0,0.0,0.0,0.0
549290654,8,1399.0,1390.0,1390.0,1396.0,1512.0,1512.0,0.0,0.0,0.0,0.0,0.0,0.0,0.0,0.0,0.0,0.0
549350431,8,1395.0,1387.0,1391.0,1394.0,1512.0,1512.0,0.0,0.0,0.0,0.0,0.0,0.0,0.0,0.0,0.0,0.0
549390500,8,1408.0,1400.0,1399.0,1408.0,1512.0,1512.0,0.0,0.0,0.0,0.0,0.0,0.0,0.0,0.0,0.0,0.0
549450731,8,1433.0,1418.0,1417.0,1429.0,1512.0,1512.0,0.0,0.0,0.0,0.0,0.0,0.0,0.0,0.0,0.0,0.0
549510707,8,1461.0,1449.0,1446.0,1458.0,1512.0,1512.0,0.0,0.0,0.0,0.0,0.0,0.0,0.0,0.0,0.0,0.0
549550677,8,1473.0,1460.0,1460.0,1473.0,1512.0,1512.0,0.0,0.0,0.0,0.0,0.0,0.0,0.0,0.0,0.0,0.0
549611006,8,1481.0,1472.0,1468.0,1477.0,1512.0,1512.0,0.0,0.0,0.0,0.0,0.0,0.0,0.0,0.0,0.0,0.0
549651111,8,1477.0,1467.0,1470.0,1476.0,1512.0,1512.0,0.0,0.0,0.0,0.0,0.0,0.0,0.0,0.0,0.0,0.0
549710727,8,1474.0,1468.0,1469.0,1470.0,1512.0,1512.0,0.0,0.0,0.0,0.0,0.0,0.0,0.0,0.0,0.0,0.0
549771053,8,1466.0,1461.0,1460.0,1469.0,1512.0,1512.0,0.0,0.0,0.0,0.0,0.0,0.0,0.0,0.0,0.0,0.0
549811060,8,1470.0,1465.0,1463.0,1465.0,1512.0,1512.0,0.0,0.0,0.0,0.0,0.0,0.0,0.0,0.0,0.0,0.0
549870943,8,1483.0,1483.0,1482.0,1478.0,1512.0,1512.0,0.0,0.0,0.0,0.0,0.0,0.0,0.0,0.0,0.0,0.0
549910919,8,1495.0,1497.0,1497.0,1495.0,1512.0,1512.0,0.0,0.0,0.0,0.0,0.0,0.0,0.0,0.0,0.0,0.0
549971289,8,1503.0,1503.0,1506.0,1501.0,1512.0,1512.0,0.0,0.0,0.0,0.0,0.0,0.0,0.0,0.0,0.0,0.0
550031074,8,1513.0,1506.0,1507.0,1505.0,1512.0,1512.0,0.0,0.0,0.0,0.0,0.0,0.0,0.0,0.0,0.0,0.0
550071295,8,1515.0,1520.0,1514.0,1503.0,1512.0,1512.0,0.0,0.0,0.0,0.0,0.0,0.0,0.0,0.0,0.0,0.0
550131415,8,1512.0,1525.0,1519.0,1507.0,1512.0,1512.0,0.0,0.0,0.0,0.0,0.0,0.0,0.0,0.0,0.0,0.0
550171582,8,1520.0,1523.0,1521.0,1514.0,1512.0,1512.0,0.0,0.0,0.0,0.0,0.0,0.0,0.0,0.0,0.0,0.0
550231308,8,1520.0,1524.0,1522.0,1518.0,1512.0,1512.0,0.0,0.0,0.0,0.0,0.0,0.0,0.0,0.0,0.0,0.0
550291847,8,1516.0,1525.0,1524.0,1517.0,1512.0,1512.0,0.0,0.0,0.0,0.0,0.0,0.0,0.0,0.0,0.0,0.0
550331704,8,1520.0,1525.0,1530.0,1521.0,1512.0,1512.0,0.0,0.0,0.0,0.0,0.0,0.0,0.0,0.0,0.0,0.0
550391501,8,1518.0,1525.0,1528.0,1523.0,1512.0,1512.0,0.0,0.0,0.0,0.0,0.0,0.0,0.0,0.0,0.0,0.0
550431550,8,1521.0,1526.0,1532.0,1521.0,1512.0,1512.0,0.0,0.0,0.0,0.0,0.0,0.0,0.0,0.0,0.0,0.0
550491838,8,1517.0,1528.0,1534.0,1516.0,1512.0,1512.0,0.0,0.0,0.0,0.0,0.0,0.0,0.0,0.0,0.0,0.0
550551606,8,1519.0,1528.0,1534.0,1516.0,1512.0,1512.0,0.0,0.0,0.0,0.0,0.0,0.0,0.0,0.0,0.0,0.0
550591578,8,1522.0,1530.0,1535.0,1521.0,1512.0,1512.0,0.0,0.0,0.0,0.0,0.0,0.0,0.0,0.0,0.0,0.0
550651950,8,1505.0,1518.0,1520.0,1499.0,1512.0,1512.0,0.0,0.0,0.0,0.0,0.0,0.0,0.0,0.0,0.0,0.0
550691945,8,1491.0,1509.0,1508.0,1489.0,1512.0,1512.0,0.0,0.0,0.0,0.0,0.0,0.0,0.0,0.0,0.0,0.0
550751901,8,1487.0,1497.0,1499.0,1482.0,1512.0,1512.0,0.0,0.0,0.0,0.0,0.0,0.0,0.0,0.0,0.0,0.0
550812307,8,1483.0,1481.0,1483.0,1477.0,1512.0,1512.0,0.0,0.0,0.0,0.0,0.0,0.0,0.0,0.0,0.0,0.0
550852317,8,1481.0,1482.0,1482.0,1472.0,1512.0,1512.0,0.0,0.0,0.0,0.0,0.0,0.0,0.0,0.0,0.0,0.0
550911912,8,1475.0,1481.0,1479.0,1472.0,1512.0,1512.0,0.0,0.0,0.0,0.0,0.0,0.0,0.0,0.0,0.0,0.0
550972256,8,1480.0,1478.0,1474.0,1474.0,1512.0,1512.0,0.0,0.0,0.0,0.0,0.0,0.0,0.0,0.0,0.0,0.0
551012296,8,1484.0,1481.0,1472.0,1468.0,1512.0,1512.0,0.0,0.0,0.0,0.0,0.0,0.0,0.0,0.0,0.0,0.0
551072143,8,1486.0,1479.0,1475.0,1475.0,1512.0,1512.0,0.0,0.0,0.0,0.0,0.0,0.0,0.0,0.0,0.0,0.0
551112289,8,1487.0,1481.0,1473.0,1472.0,1512.0,1512.0,0.0,0.0,0.0,0.0,0.0,0.0,0.0,0.0,0.0,0.0
551172555,8,1486.0,1485.0,1475.0,1472.0,1512.0,1512.0,0.0,0.0,0.0,0.0,0.0,0.0,0.0,0.0,0.0,0.0
551232318,8,1489.0,1486.0,1479.0,1472.0,1512.0,1512.0,0.0,0.0,0.0,0.0,0.0,0.0,0.0,0.0,0.0,0.0
551252647,8,1487.0,1483.0,1477.0,1473.0,1512.0,1512.0,0.0,0.0,0.0,0.0,0.0,0.0,0.0,0.0,0.0,0.0
551332643,8,1487.0,1483.0,1480.0,1475.0,1512.0,1512.0,0.0,0.0,0.0,0.0,0.0,0.0,0.0,0.0,0.0,0.0
551372620,8,1486.0,1485.0,1485.0,1477.0,1512.0,1512.0,0.0,0.0,0.0,0.0,0.0,0.0,0.0,0.0,0.0,0.0
551432609,8,1489.0,1488.0,1487.0,1476.0,1512.0,1512.0,0.0,0.0,0.0,0.0,0.0,0.0,0.0,0.0,0.0,0.0
551472543,8,1483.0,1486.0,1486.0,1471.0,1512.0,1512.0,0.0,0.0,0.0,0.0,0.0,0.0,0.0,0.0,0.0,0.0
551532907,8,1486.0,1485.0,1486.0,1475.0,1512.0,1512.0,0.0,0.0,0.0,0.0,0.0,0.0,0.0,0.0,0.0,0.0
551592704,8,1483.0,1491.0,1492.0,1470.0,1512.0,1512.0,0.0,0.0,0.0,0.0,0.0,0.0,0.0,0.0,0.0,0.0
551632679,8,1474.0,1495.0,1497.0,1461.0,1512.0,1512.0,0.0,0.0,0.0,0.0,0.0,0.0,0.0,0.0,0.0,0.0
551693040,8,1474.0,1496.0,1498.0,1462.0,1512.0,1512.0,0.0,0.0,0.0,0.0,0.0,0.0,0.0,0.0,0.0,0.0
551733073,8,1479.0,1501.0,1499.0,1464.0,1512.0,1512.0,0.0,0.0,0.0,0.0,0.0,0.0,0.0,0.0,0.0,0.0
551773314,8,1479.0,1501.0,1505.0,1471.0,1512.0,1512.0,0.0,0.0,0.0,0.0,0.0,0.0,0.0,0.0,0.0,0.0
551853113,8,1484.0,1505.0,1507.0,1474.0,1512.0,1512.0,0.0,0.0,0.0,0.0,0.0,0.0,0.0,0.0,0.0,0.0
551893473,8,1481.0,1504.0,1505.0,1473.0,1512.0,1512.0,0.0,0.0,0.0,0.0,0.0,0.0,0.0,0.0,0.0,0.0
551953080,8,1487.0,1505.0,1501.0,1480.0,1512.0,1512.0,0.0,0.0,0.0,0.0,0.0,0.0,0.0,0.0,0.0,0.0
551993077,8,1486.0,1502.0,1502.0,1480.0,1512.0,1512.0,0.0,0.0,0.0,0.0,0.0,0.0,0.0,0.0,0.0,0.0
552053382,8,1486.0,1502.0,1503.0,1486.0,1512.0,1512.0,0.0,0.0,0.0,0.0,0.0,0.0,0.0,0.0,0.0,0.0
552113138,8,1493.0,1506.0,1503.0,1485.0,1512.0,1512.0,0.0,0.0,0.0,0.0,0.0,0.0,0.0,0.0,0.0,0.0
552153130,8,1490.0,1509.0,1504.0,1487.0,1512.0,1512.0,0.0,0.0,0.0,0.0,0.0,0.0,0.0,0.0,0.0,0.0
