timestamp,vel_pos_innov[0],vel_pos_innov[1],vel_pos_innov[2],vel_pos_innov[3],vel_pos_innov[4],vel_pos_innov[5],mag_innov[0],mag_innov[1],mag_innov[2],heading_innov,airspeed_innov,beta_innov,flow_innov[0],flow_innov[1],hagl_innov,vel_pos_innov_var[0],vel_pos_innov_var[1],vel_pos_innov_var[2],vel_pos_innov_var[3],vel_pos_innov_var[4],vel_pos_innov_var[5],mag_innov_var[0],mag_innov_var[1],mag_innov_var[2],heading_innov_var,airspeed_innov_var,beta_innov_var,flow_innov_var[0],flow_innov_var[1],hagl_innov_var,output_tracking_error[0],output_tracking_error[1],output_tracking_error[2],drag_innov[0],drag_innov[1],drag_innov_var[0],drag_innov_var[1],aux_vel_innov[0],aux_vel_innov[1]
519050071,0.008997318,0.014852825,-0.043550022,-0.01755175,0.017502189,-0.116363525,0.0,0.0,0.0,-0.002732426,0.0,0.0,0.0,0.0,0.0,0.25738737,0.2573863,0.5795448,0.2699292,0.26992843,100.376686,0.0,0.0,0.0,0.090153314,0.0,0.0,0.0,0.0,0.0,0.00013124179,0.00089270977,0.0030703458,0.0,0.0,0.0,0.0,0.0,0.0
519257274,-0.011098252,0.03779111,0.020277735,-0.017340064,0.018570423,0.1318531,0.0,0.0,0.0,-0.00025972724,0.0,0.0,0.0,0.0,0.0,0.25734395,0.25734285,0.57948744,0.2697737,0.26977295,100.377655,0.0,0.0,0.0,0.09015329,0.0,0.0,0.0,0.0,0.0,0.00016700954,0.00075428863,0.0015889803,0.0,0.0,0.0,0.0,0.0,0.0
519457271,-0.034695894,0.04105437,-0.01397418,-0.016785592,0.027316064,-0.1593113,0.0,0.0,0.0,-0.010350525,0.0,0.0,0.0,0.0,0.0,0.25734186,0.25734073,0.5794981,0.2697621,0.26976135,100.3771,0.0,0.0,0.0,0.09015328,0.0,0.0,0.0,0.0,0.0,0.00020069763,0.0012836321,0.0022407116,0.0,0.0,0.0,0.0,0.0,0.0
519664468,0.002636848,0.020635681,0.00014374126,-0.025674164,0.016115606,-0.03578186,0.0,0.0,0.0,0.0068139434,0.0,0.0,0.0,0.0,0.0,0.25730518,0.257304,0.5794442,0.26962292,0.26962218,100.376625,0.0,0.0,0.0,0.090153165,0.0,0.0,0.0,0.0,0.0,0.00018170668,0.00038069388,0.0011373262,0.0,0.0,0.0,0.0,0.0,0.0
519863668,-0.023027178,-0.0016323216,0.028883765,-0.021543711,0.023839474,-0.363657,0.0,0.0,0.0,-0.0041919053,0.0,0.0,0.0,0.0,0.0,0.25732422,0.25732303,0.579438,0.26968595,0.2696852,100.37549,0.0,0.0,0.0,0.090153076,0.0,0.0,0.0,0.0,0.0,0.00020674245,0.0028531249,0.005550423,0.0,0.0,0.0,0.0,0.0,0.0
520063674,0.07243925,0.010464818,-0.0032764776,-0.018516958,0.015062511,-0.11217117,0.0,0.0,0.0,-0.005434096,0.0,0.0,0.0,0.0,0.0,0.25732213,0.25732094,0.57943434,0.26967752,0.26967674,100.375114,0.0,0.0,0.0,0.090152964,0.0,0.0,0.0,0.0,0.0,0.000120919496,0.00039484835,0.003004108,0.0,0.0,0.0,0.0,0.0,0.0
520270878,0.019799702,0.018878382,0.074524045,-0.018004894,0.015511543,-0.26288986,0.0,0.0,0.0,-0.0037235022,0.0,0.0,0.0,0.0,0.0,0.25736597,0.25736475,0.5794792,0.26983002,0.26982924,100.374725,0.0,0.0,0.0,0.09015305,0.0,0.0,0.0,0.0,0.0,0.00013878275,0.0007651556,0.0032536373,0.0,0.0,0.0,0.0,0.0,0.0
520470877,0.028483814,0.048235446,-0.013474375,-0.016978651,0.016174108,0.14618683,0.0,0.0,0.0,0.00954029,0.0,0.0,0.0,0.0,0.0,0.25736386,0.25736263,0.57947487,0.26982355,0.26982278,100.37576,0.0,0.0,0.0,0.090153195,0.0,0.0,0.0,0.0,0.0,0.00013962924,0.0011942511,0.0020449385,0.0,0.0,0.0,0.0,0.0,0.0
520670068,-0.027066253,0.0177862,0.00096745417,-0.02692905,0.01522398,0.48163414,0.0,0.0,0.0,0.005991131,0.0,0.0,0.0,0.0,0.0,0.25732148,0.25732028,0.5794442,0.2696752,0.26967442,100.372505,0.0,0.0,0.0,0.09015319,0.0,0.0,0.0,0.0,0.0,0.00017789935,0.0018419086,0.0034828451,0.0,0.0,0.0,0.0,0.0,0.0
520870068,0.055331662,0.035947084,-0.03564205,-0.024104416,0.016509116,-0.1003952,0.0,0.0,0.0,-0.0058008432,0.0,0.0,0.0,0.0,0.0,0.25732,0.25731882,0.57945955,0.2696693,0.26966846,100.37636,0.0,0.0,0.0,0.09015327,0.0,0.0,0.0,0.0,0.0,0.00012647378,0.0011680829,0.0010808527,0.0,0.0,0.0,0.0,0.0,0.0
521077288,0.022386026,0.026729207,0.004838782,-0.013622999,0.017250061,-0.01244545,0.0,0.0,0.0,0.002717048,0.0,0.0,0.0,0.0,0.0,0.25732437,0.25732324,0.5794549,0.26967877,0.26967794,100.37307,0.0,0.0,0.0,0.090153314,0.0,0.0,0.0,0.0,0.0,0.00011266414,0.001151178,0.0020625764,0.0,0.0,0.0,0.0,0.0,0.0
521277275,-0.006528926,0.016399488,0.011824897,-0.0155623555,0.016491532,-0.30594254,0.0,0.0,0.0,-0.0059950054,0.0,0.0,0.0,0.0,0.0,0.25731814,0.25731704,0.5794473,0.2696621,0.26966128,100.37261,0.0,0.0,0.0,0.09015322,0.0,0.0,0.0,0.0,0.0,0.00010971416,0.0015375688,0.0029857154,0.0,0.0,0.0,0.0,0.0,0.0
521480504,-0.020812117,0.04869234,-0.0035140421,-0.015535027,0.016450882,-0.1391449,0.0,0.0,0.0,-0.0071549416,0.0,0.0,0.0,0.0,0.0,0.25736284,0.25736177,0.57949024,0.2698175,0.2698167,100.37587,0.0,0.0,0.0,0.09015321,0.0,0.0,0.0,0.0,0.0,0.00015194708,0.0013393136,0.0022728913,0.0,0.0,0.0,0.0,0.0,0.0
521688474,0.013077246,0.035558008,0.016034912,-0.024100125,0.025916666,0.32116508,0.0,0.0,0.0,0.005992651,0.0,0.0,0.0,0.0,0.0,0.25734332,0.2573423,0.57944775,0.269736,0.26973516,100.37219,0.0,0.0,0.0,0.09015321,0.0,0.0,0.0,0.0,0.0,0.00017347504,0.0015811356,0.0033879804,0.0,0.0,0.0,0.0,0.0,0.0
521891675,-0.035338752,0.008215471,0.06704461,-0.022345662,0.024211556,0.05280304,0.0,0.0,0.0,0.0015313625,0.0,0.0,0.0,0.0,0.0,0.25734028,0.25733936,0.57944345,0.26972178,0.26972097,100.3722,0.0,0.0,0.0,0.09015312,0.0,0.0,0.0,0.0,0.0,0.00018315592,0.0036882516,0.013578528,0.0,0.0,0.0,0.0,0.0,0.0
522090868,0.00059601665,0.028183017,-0.011346006,-0.01989451,0.022722483,-0.14636993,0.0,0.0,0.0,-0.000677675,0.0,0.0,0.0,0.0,0.0,0.25736853,0.25736767,0.57945144,0.269801,0.26980022,100.37184,0.0,0.0,0.0,0.090153106,0.0,0.0,0.0,0.0,0.0,0.00017206094,0.0011853173,0.0038708695,0.0,0.0,0.0,0.0,0.0,0.0
522290868,-0.037269592,0.0107899755,0.002035553,-0.020037979,0.020605505,-0.06562805,0.0,0.0,0.0,0.0072894692,0.0,0.0,0.0,0.0,0.0,0.25735855,0.25735772,0.57944816,0.26978797,0.26978722,100.37147,0.0,0.0,0.0,0.09015309,0.0,0.0,0.0,0.0,0.0,0.0001702315,0.0010548407,0.002221296,0.0,0.0,0.0,0.0,0.0,0.0
522498068,-0.0005850438,0.016385823,-0.04541783,-0.027403891,0.01978892,-0.2255516,0.0,0.0,0.0,0.0056722164,0.0,0.0,0.0,0.0,0.0,0.25735205,0.25735128,0.5794447,0.26977918,0.26977846,100.37188,0.0,0.0,0.0,0.090153076,0.0,0.0,0.0,0.0,0.0,0.00014591319,0.0011553146,0.0043804883,0.0,0.0,0.0,0.0,0.0,0.0
522698068,-0.019197147,0.0046537514,0.00867968,-0.024825722,0.009939462,-0.18128777,0.0,0.0,0.0,-0.0013531148,0.0,0.0,0.0,0.0,0.0,0.25735137,0.25735065,0.5794615,0.26976892,0.26976824,100.372215,0.0,0.0,0.0,0.09015316,0.0,0.0,0.0,0.0,0.0,0.00012540974,0.0011949961,0.0027416057,0.0,0.0,0.0,0.0,0.0,0.0
522905316,-0.030480685,0.0037029656,0.020148996,-0.02228564,0.01878944,-0.30260658,0.0,0.0,0.0,0.0075331926,0.0,0.0,0.0,0.0,0.0,0.25734428,0.25734365,0.579457,0.26976275,0.2697621,100.37333,0.0,0.0,0.0,0.09015322,0.0,0.0,0.0,0.0,0.0,0.00012904668,0.0012129247,0.0025145942,0.0,0.0,0.0,0.0,0.0,0.0
523105275,-0.01906715,0.036197487,-0.07280975,-0.018803269,0.018265426,-0.08993912,0.0,0.0,0.0,0.0067929626,0.0,0.0,0.0,0.0,0.0,0.2572959,0.2572953,0.5794247,0.26959997,0.26959935,100.372925,0.0,0.0,0.0,0.090153195,0.0,0.0,0.0,0.0,0.0,0.00012045325,0.0015747197,0.004690978,0.0,0.0,0.0,0.0,0.0,0.0
523312474,-0.0054382635,0.0041386886,0.033575635,-0.017124891,0.016565204,-0.34269524,0.0,0.0,0.0,0.0026141703,0.0,0.0,0.0,0.0,0.0,0.2573434,0.25734288,0.5794481,0.26975268,0.2697521,100.37262,0.0,0.0,0.0,0.090153,0.0,0.0,0.0,0.0,0.0,8.475829e-05,0.0011164113,0.0015870775,0.0,0.0,0.0,0.0,0.0,0.0
523511668,0.0010259694,0.018368594,-0.032921042,-0.015961379,0.015750825,-0.16967773,0.0,0.0,0.0,0.00045755506,0.0,0.0,0.0,0.0,0.0,0.25733423,0.25733373,0.57944334,0.26973507,0.2697345,100.37227,0.0,0.0,0.0,0.090152994,0.0,0.0,0.0,0.0,0.0,0.00010018195,0.001646382,0.0047874246,0.0,0.0,0.0,0.0,0.0,0.0
523711690,-0.020993574,0.01588961,0.021500636,-0.023745954,0.0149255395,0.20591927,0.0,0.0,0.0,0.0075910985,0.0,0.0,0.0,0.0,0.0,0.2573358,0.25733536,0.57944125,0.26973405,0.26973355,100.37193,0.0,0.0,0.0,0.090152904,0.0,0.0,0.0,0.0,0.0,0.000122052166,0.00071075297,0.0014036949,0.0,0.0,0.0,0.0,0.0,0.0
523918883,0.016753927,0.005257417,-0.0008131666,-0.021259815,0.013451308,0.24907112,0.0,0.0,0.0,0.0063613057,0.0,0.0,0.0,0.0,0.0,0.25733083,0.25733045,0.5794578,0.2697193,0.26971883,100.37238,0.0,0.0,0.0,0.09015297,0.0,0.0,0.0,0.0,0.0,9.771758e-05,0.0012964885,0.0031274213,0.0,0.0,0.0,0.0,0.0,0.0
524118868,-0.00056925043,6.675674e-05,0.026921574,-0.01891473,0.013688058,-0.25135994,0.0,0.0,0.0,-0.0054804683,0.0,0.0,0.0,0.0,0.0,0.25737676,0.25737637,0.57950056,0.2698629,0.26986244,100.37269,0.0,0.0,0.0,0.090153046,0.0,0.0,0.0,0.0,0.0,6.973845e-05,0.002022288,0.0046156077,0.0,0.0,0.0,0.0,0.0,0.0
524326068,-0.032654874,0.028349034,0.020266455,-0.015325278,0.0136344135,-0.17656136,0.0,0.0,0.0,-0.0060437024,0.0,0.0,0.0,0.0,0.0,0.25732812,0.25732782,0.57946926,0.26970893,0.2697085,100.3731,0.0,0.0,0.0,0.09015312,0.0,0.0,0.0,0.0,0.0,9.235857e-05,0.0018993962,0.0059822877,0.0,0.0,0.0,0.0,0.0,0.0
524526068,-0.027219577,-0.0038580755,-0.014930576,-0.01371339,0.0029544234,-0.005628586,0.0,0.0,0.0,0.009231299,0.0,0.0,0.0,0.0,0.0,0.25736362,0.25736335,0.57950926,0.2698413,0.26984093,100.37415,0.0,0.0,0.0,0.0901531,0.0,0.0,0.0,0.0,0.0,6.951295e-05,0.0019816675,0.0043766014,0.0,0.0,0.0,0.0,0.0,0.0
524725278,0.018803975,-0.001340983,0.03771204,-0.011020929,0.012747556,-0.21243286,0.0,0.0,0.0,0.0068973303,0.0,0.0,0.0,0.0,0.0,0.25732434,0.25732404,0.57945466,0.2696901,0.26968974,100.37377,0.0,0.0,0.0,0.090153106,0.0,0.0,0.0,0.0,0.0,6.608961e-05,0.0017451253,0.0033974992,0.0,0.0,0.0,0.0,0.0,0.0
524933271,0.0071995878,0.012043303,-0.0070246635,-0.019553304,0.012962818,-0.12756157,0.0,0.0,0.0,0.005568415,0.0,0.0,0.0,0.0,0.0,0.2573592,0.25735894,0.5794947,0.269826,0.26982567,100.37336,0.0,0.0,0.0,0.09015316,0.0,0.0,0.0,0.0,0.0,6.725533e-05,0.0013953464,0.0030132984,0.0,0.0,0.0,0.0,0.0,0.0
525136468,-0.020666175,-0.0032424172,-0.0071674758,-0.018743753,0.0028276443,-0.2444191,0.0,0.0,0.0,0.007918358,0.0,0.0,0.0,0.0,0.0,0.25736004,0.25735977,0.57950866,0.26982188,0.2698216,100.374695,0.0,0.0,0.0,0.09015333,0.0,0.0,0.0,0.0,0.0,9.366693e-05,0.0020171972,0.005737771,0.0,0.0,0.0,0.0,0.0,0.0
525336498,0.017714888,0.003817783,-0.0015550388,-0.01508227,0.003873974,-0.03722191,0.0,0.0,0.0,0.0029027462,0.0,0.0,0.0,0.0,0.0,0.25733924,0.25733894,0.5794608,0.26972672,0.26972646,100.3737,0.0,0.0,0.0,0.09015323,0.0,0.0,0.0,0.0,0.0,0.00010131445,0.0018513073,0.0038699931,0.0,0.0,0.0,0.0,0.0,0.0
525535668,0.009499269,-0.0030406713,0.012951658,-0.013148963,0.0047313273,0.007396698,0.0,0.0,0.0,-0.0055688024,0.0,0.0,0.0,0.0,0.0,0.25733626,0.257336,0.5794575,0.26973805,0.2697378,100.37339,0.0,0.0,0.0,0.09015313,0.0,0.0,0.0,0.0,0.0,5.2742347e-05,0.0020538487,0.0039608325,0.0,0.0,0.0,0.0,0.0,0.0
525742868,0.0015878584,0.008006138,-0.0010390915,-0.011727303,0.0050154626,-0.07582092,0.0,0.0,0.0,-0.004732996,0.0,0.0,0.0,0.0,0.0,0.25733662,0.25733626,0.5794511,0.26972342,0.26972318,100.37373,0.0,0.0,0.0,0.0901532,0.0,0.0,0.0,0.0,0.0,3.6596666e-05,0.0016488209,0.0034611798,0.0,0.0,0.0,0.0,0.0,0.0
525942874,-0.0013049142,0.0105889905,0.035176195,-0.009980768,0.0053841174,0.010391235,0.0,0.0,0.0,0.021076858,0.0,0.0,0.0,0.0,0.0,0.257337,0.25733662,0.57944596,0.26972377,0.26972356,100.374084,0.0,0.0,0.0,0.09015318,0.0,0.0,0.0,0.0,0.0,0.00010455222,0.001402791,0.0027830924,0.0,0.0,0.0,0.0,0.0,0.0
526146074,-0.012846889,-0.0018109167,0.010522667,-0.019147277,0.0060266852,0.54938126,0.0,0.0,0.0,0.019827843,0.0,0.0,0.0,0.0,0.0,0.25737375,0.25737336,0.57948685,0.2698562,0.26985598,100.374504,0.0,0.0,0.0,0.09015327,0.0,0.0,0.0,0.0,0.0,0.00035051117,0.0013805714,0.004344371,-0.60840803,0.28758118,2.5184796,2.5100653,0.0,0.0
526354073,-0.0072843283,-0.0085328845,0.066756144,-0.01563096,0.007450849,0.25131607,0.0,0.0,0.0,0.03069055,0.0,0.0,0.0,0.0,0.0,0.25734848,0.2573481,0.57946134,0.26976055,0.26976034,100.375206,0.0,0.0,0.0,0.09015335,0.0,0.0,0.0,0.0,0.0,0.00051476015,0.0027297996,0.008323762,-0.38767645,0.72015065,2.511379,2.521247,0.0,0.0
526553271,-0.020832734,0.014107974,0.08004862,-0.013345808,0.009699106,0.21995163,0.0,0.0,0.0,0.060030192,0.0,0.0,0.0,0.0,0.0,0.2573486,0.2573482,0.57945573,0.2697556,0.2697554,100.37482,0.0,0.0,0.0,0.09015334,0.0,0.0,0.0,0.0,0.0,0.0009573845,0.0047670994,0.01992359,-0.051717345,0.7219251,2.5095112,2.5206692,0.0,0.0
526753273,-0.031112801,-0.0144305155,0.13237621,-0.007588029,0.005262941,0.6647301,0.0,0.0,0.0,0.081267536,0.0,0.0,0.0,0.0,0.0,0.25737908,0.2573786,0.579469,0.2697384,0.2697382,100.37514,0.0,0.0,0.0,0.09015334,0.0,0.0,0.0,0.0,0.0,0.0014576715,0.0072702654,0.030705765,0.078383856,0.5455995,2.509299,2.5152175,0.0,0.0
526960468,-0.04270728,-0.14668274,0.24420947,-0.013625562,0.0033108294,0.5378723,0.0,0.0,0.0,0.07753074,0.0,0.0,0.0,0.0,0.0,0.25770372,0.2577021,0.5794403,0.26969638,0.26969618,100.37481,0.0,0.0,0.0,0.09015334,0.0,0.0,0.0,0.0,0.0,0.0018454943,0.017600724,0.05141385,0.7034231,-0.11597089,2.519,2.5089896,0.0,0.0
527159668,-0.04807908,0.061241306,0.25114882,-0.012996584,0.0023352206,-0.34125328,0.0,0.0,0.0,0.06954467,0.0,0.0,0.0,0.0,0.0,0.25794065,0.25793928,0.579487,0.26993525,0.269935,100.37448,0.0,0.0,0.0,0.09015323,0.0,0.0,0.0,0.0,0.0,0.0018833246,0.011002552,0.032111164,-0.29348707,0.5630602,2.5086763,2.5150197,0.0,0.0
527367680,-0.044732958,0.038707435,0.06085968,-0.013246059,-0.0021122396,-0.41620827,0.0,0.0,0.0,0.047417343,0.0,0.0,0.0,0.0,0.0,0.2582747,0.258274,0.579478,0.2699191,0.2699188,100.37486,0.0,0.0,0.0,0.09015313,0.0,0.0,0.0,0.0,0.0,0.0017441795,0.009982815,0.023802124,0.5415823,0.5641415,2.5137644,2.5147562,0.0,0.0
527567668,-0.057425395,0.06962161,-0.05526626,-0.02311033,0.0028229952,-0.5665779,0.0,0.0,0.0,0.055411994,0.0,0.0,0.0,0.0,0.0,0.25812042,0.2581206,0.5794256,0.26982287,0.26982263,100.37096,0.0,0.0,0.0,0.09015307,0.0,0.0,0.0,0.0,0.0,0.0013967004,0.0052321176,0.010998514,-0.48104534,0.24604897,2.5116172,2.5083718,0.0,0.0
527770874,-0.022099793,-0.059433945,-0.028921485,-0.017098665,-0.0067620575,-1.0611248,0.0,0.0,0.0,0.04879856,0.0,0.0,0.0,0.0,0.0,0.25808105,0.25808045,0.5794778,0.2700985,0.27009833,100.37423,0.0,0.0,0.0,0.09015303,0.0,0.0,0.0,0.0,0.0,0.0011642245,0.007167573,0.024248341,-1.6764461,-0.4358651,2.5383894,2.510671,0.0,0.0
527970068,-0.09183115,0.03243307,-0.06752586,-0.027396142,-0.014415771,0.34103394,0.0,0.0,0.0,-0.014674127,0.0,0.0,0.0,0.0,0.0,0.2575583,0.25755152,0.5794937,0.27008083,0.2700807,100.37568,0.0,0.0,0.0,0.0964916,0.0,0.0,0.0,0.0,0.0,0.0006043441,0.00695395,0.022940222,1.0913807,-0.3148387,2.5238225,2.507823,0.0,0.0
528178068,-0.048454046,0.020622179,0.05833149,-0.032218337,-0.0155881345,0.08854294,0.0,0.0,0.0,0.017406821,0.0,0.0,0.0,0.0,0.0,0.25915098,0.25915194,0.5794939,0.26994044,0.26994023,100.37594,0.0,0.0,0.0,0.094116375,0.0,0.0,0.0,0.0,0.0,0.0020256117,0.0057231677,0.019199232,0.86537266,1.1311672,2.5178847,2.5258615,0.0,0.0
528377268,0.0943184,-0.059039064,-0.015465975,-0.016842246,-0.007541001,-0.16220474,0.0,0.0,0.0,-0.0016925037,0.0,0.0,0.0,0.0,0.0,0.26296043,0.26298103,0.57952493,0.26985925,0.26985946,100.37632,0.0,0.0,0.0,0.09291592,0.0,0.0,0.0,0.0,0.0,0.0016543599,0.005900459,0.021121517,-0.992442,-1.222287,2.519791,2.5272608,0.0,0.0
528577276,-0.09707358,0.07254332,-0.02354145,-0.024255931,-0.010415077,-0.24502945,0.0,0.0,0.0,-0.007411152,0.0,0.0,0.0,0.0,0.0,0.26794147,0.26799572,0.5795429,0.269976,0.26997787,100.37295,0.0,0.0,0.0,0.09231572,0.0,0.0,0.0,0.0,0.0,0.0030770379,0.009518562,0.020174848,-1.4688908,-0.29746717,2.5275183,2.5071633,0.0,0.0
528784504,-0.09752444,0.109424405,0.021358848,-0.03298366,-0.0036998987,0.34007263,0.0,0.0,0.0,-0.0054146647,0.0,0.0,0.0,0.0,0.0,0.27247453,0.2725501,0.5795163,0.2702223,0.27022693,100.37325,0.0,0.0,0.0,0.091920495,0.0,0.0,0.0,0.0,0.0,0.0031052562,0.011747597,0.018495345,0.74365795,1.2175208,2.5135577,2.5258696,0.0,0.0
528983677,0.035968818,0.05457728,-0.009749174,-0.02949965,-0.007950187,-0.33966255,0.0,0.0,0.0,0.004752785,0.0,0.0,0.0,0.0,0.0,0.2765984,0.2766819,0.5796036,0.27109668,0.2711052,100.3765,0.0,0.0,0.0,0.0916712,0.0,0.0,0.0,0.0,0.0,0.001563203,0.0069102813,0.01514894,-0.72372836,0.24262738,2.512959,2.506869,0.0,0.0
529191683,0.004926257,0.010509532,-0.06454563,-0.020062327,-0.008161634,-0.116760254,0.0,0.0,0.0,0.0069642365,0.0,0.0,0.0,0.0,0.0,0.27913737,0.27921954,0.5796663,0.27217183,0.2721839,100.37679,0.0,0.0,0.0,0.091432095,0.0,0.0,0.0,0.0,0.0,0.001569615,0.011326832,0.012444678,0.24104445,0.6471356,2.5058506,2.5132775,0.0,0.0
529390868,-0.023946747,0.007134661,0.022902012,-0.022982657,-0.0007467866,-0.5569267,0.0,0.0,0.0,-0.025828838,0.0,0.0,0.0,0.0,0.0,0.2793151,0.27938858,0.5796463,0.2727299,0.27274337,100.37417,0.0,0.0,0.0,0.09128881,0.0,0.0,0.0,0.0,0.0,0.0015417503,0.008116574,0.007930682,0.9554855,0.5085157,2.5163503,2.5102515,0.0,0.0
529598895,-0.00058465917,-0.13064261,-0.008826971,-0.023867786,-0.009101957,-0.24106789,0.0,0.0,0.0,-0.013250411,0.0,0.0,0.0,0.0,0.0,0.27881774,0.2788747,0.5796446,0.27344033,0.2734547,100.374374,0.0,0.0,0.0,0.09114204,0.0,0.0,0.0,0.0,0.0,0.0018103273,0.010499313,0.012839281,0.42719144,0.7524032,2.5071535,2.5147393,0.0,0.0
529798109,-0.024526194,0.011157092,0.006568432,-0.019027114,0.0037297606,-0.4628067,0.0,0.0,0.0,-0.0018722415,0.0,0.0,0.0,0.0,0.0,0.27767223,0.27770188,0.57963353,0.2740041,0.2740173,100.37467,0.0,0.0,0.0,0.09104936,0.0,0.0,0.0,0.0,0.0,0.00066733785,0.007100017,0.012539024,-1.479543,-1.4652505,2.5234132,2.5277095,0.0,0.0
529998081,-0.18362534,0.00053440034,-0.06494057,-0.020590961,-0.005221367,-0.2914505,0.0,0.0,0.0,0.017523348,0.0,0.0,0.0,0.0,0.0,0.27618933,0.27641708,0.57957697,0.2744255,0.274436,100.37414,0.0,0.0,0.0,0.0909491,0.0,0.0,0.0,0.0,0.0,0.00086680776,0.01723338,0.01615976,-1.7765281,-1.2488986,2.5257635,2.5228012,0.0,0.0
530201271,-0.111964345,-0.05404532,0.034729123,-0.0155290365,-0.008954048,0.3679123,0.003949523,-0.001697138,0.00055649877,0.022616148,0.0,0.0,0.0,0.0,0.0,0.27473408,0.2757924,0.5795807,0.2749867,0.27500018,100.37513,0.0034818407,0.0034220242,0.0035074144,0.09090877,0.0,0.0,0.0,0.0,0.0,0.0012611811,0.023419607,0.022268247,-0.73855454,0.57042104,2.5096273,2.510373,0.0,0.0
530408468,-0.07857537,-0.23006952,0.08618486,-0.04742837,-0.02182746,0.97076035,0.0043228865,0.010545805,-0.0018384159,0.022616148,0.0,0.0,0.0,0.0,0.0,0.27269298,0.2748246,0.579518,0.2746547,0.27468154,100.37426,0.0027371086,0.0027253553,0.0027362052,0.09090877,0.0,0.0,0.0,0.0,0.0,0.0019629404,0.038517598,0.0368942,0.02641248,-0.31746525,2.5046477,2.505818,0.0,0.0
530608468,0.12951279,-0.072687745,-0.16907847,-0.03335619,-0.027928233,-0.080638885,-0.005120516,0.007837653,-0.0009574294,0.022616148,0.0,0.0,0.0,0.0,0.0,0.27112052,0.27328676,0.57953787,0.27471277,0.27476743,100.37448,0.0027211553,0.0026439494,0.0027014508,0.09090877,0.0,0.0,0.0,0.0,0.0,0.0025937266,0.029671302,0.032926854,-0.5729082,0.089545935,2.5079854,2.5056772,0.0,0.0
530816468,0.07280612,0.1355331,-0.0953908,-0.022584915,-0.011316299,0.26951218,-0.0027513802,-0.006800309,0.0063268244,0.022616148,0.0,0.0,0.0,0.0,0.0,0.26936987,0.27065575,0.57950085,0.2746962,0.27477318,100.37478,0.0026820987,0.0026080122,0.0026471333,0.09090877,0.0,0.0,0.0,0.0,0.0,0.0009951564,0.016059702,0.023811897,-0.19126455,-0.04373561,2.5046809,2.5055258,0.0,0.0
531015705,0.18945444,0.1757001,-0.059230804,0.011792898,0.015706778,0.46215248,-0.0032420307,0.0015192777,0.0021010637,0.022616148,0.0,0.0,0.0,0.0,0.0,0.26787102,0.26837388,0.5794787,0.27488816,0.27497903,100.375725,0.00263728,0.0025917187,0.0026113337,0.09090877,0.0,0.0,0.0,0.0,0.0,0.0013305407,0.036434047,0.04275765,-0.09452784,0.7357486,2.5044508,2.5119016,0.0,0.0
531218868,0.15781832,0.17962235,-0.009038329,0.016660452,0.02035904,0.18300247,-5.1528215e-05,0.0040593445,0.0023005009,0.022616148,0.0,0.0,0.0,0.0,0.0,0.26663616,0.26651505,0.5794566,0.27466694,0.27475226,100.375946,0.0025739886,0.0025653364,0.002570873,0.09090877,0.0,0.0,0.0,0.0,0.0,0.0019837616,0.047001828,0.05476013,-0.5413465,0.23910917,2.5072234,2.505268,0.0,0.0
531418868,0.1209631,-0.023109704,0.013307691,0.035032034,0.010074139,-0.26194382,-0.003949344,0.0016887039,-0.0009161234,0.022616148,0.0,0.0,0.0,0.0,0.0,0.2656311,0.26530427,0.5794868,0.2745724,0.2746397,100.37572,0.0025544467,0.002563127,0.0025589957,0.09090877,0.0,0.0,0.0,0.0,0.0,0.0016520432,0.039194703,0.050796635,-0.11060093,0.44560328,2.504566,2.5069644,0.0,0.0
531626068,0.14023674,-0.05788963,0.06837976,0.037456036,0.0048326254,0.4414196,0.0002449453,-0.0037274733,-0.0028241575,0.022616148,0.0,0.0,0.0,0.0,0.0,0.26443613,0.2643088,0.5794889,0.2743408,0.27438337,100.37667,0.0025453854,0.002578419,0.0025595329,0.09090877,0.0,0.0,0.0,0.0,0.0,0.00092549186,0.027712936,0.041350633,0.14883588,-0.9338552,2.5044663,2.513513,0.0,0.0
531826076,0.10219228,-0.031564057,-0.12204683,0.037358284,-0.0046106577,-0.9431381,0.0015394241,0.007161339,-0.0013774335,0.022616148,0.0,0.0,0.0,0.0,0.0,0.26337257,0.26349702,0.57949734,0.27404633,0.27406654,100.37753,0.0025414266,0.0025770313,0.0025611925,0.09090877,0.0,0.0,0.0,0.0,0.0,0.0006811894,0.02320154,0.04099041,0.30495194,0.1921364,2.5043838,2.504576,0.0,0.0
532033317,0.13074851,-0.016043425,-0.09601545,0.04302025,0.001871705,0.11863327,0.0022694618,-0.004857205,-0.0021024942,0.022616148,0.0,0.0,0.0,0.0,0.0,0.2626838,0.26286995,0.57949424,0.27379245,0.2737965,100.37691,0.0025382326,0.002541947,0.002539695,0.09090877,0.0,0.0,0.0,0.0,0.0,0.00047101718,0.021745598,0.038570758,-0.52789795,-0.3745015,2.5067854,2.5050323,0.0,0.0
532232484,0.098926544,0.1583724,0.048629045,0.050014973,0.02147007,-0.4834404,0.0067095608,-0.0072260275,0.0037195385,0.022616148,0.0,0.0,0.0,0.0,0.0,0.26203397,0.26247877,0.57954574,0.27372685,0.27372405,100.377106,0.0025386382,0.0025365257,0.0025358747,0.09090877,0.0,0.0,0.0,0.0,0.0,0.0013508708,0.018603189,0.029708337,0.7178453,1.2575635,2.5090313,2.518723,0.0,0.0
532432468,0.1637246,0.14484984,0.03999412,0.036496162,0.017479658,-0.11727905,-0.00059846044,-0.0029049218,0.0036773682,0.022616148,0.0,0.0,0.0,0.0,0.0,0.26115528,0.26205134,0.5794668,0.27304116,0.27304602,100.37653,0.0025446399,0.0025347807,0.0025407178,0.09090877,0.0,0.0,0.0,0.0,0.0,0.0018612223,0.018320758,0.030870955,-0.5595411,0.97931725,2.506679,2.5143025,0.0,0.0
532639668,0.09477565,0.18066204,0.049146533,0.040822506,0.03551948,-0.14974213,-0.0035635605,-0.0015453324,0.0017842948,0.022616148,0.0,0.0,0.0,0.0,0.0,0.2606,0.26225471,0.57949656,0.27298754,0.27302957,100.37749,0.0025563773,0.0025318207,0.0025545578,0.09090877,0.0,0.0,0.0,0.0,0.0,0.0023484216,0.020186992,0.031363256,0.18041593,-0.42009115,2.5037084,2.5053596,0.0,0.0
532839671,0.13106075,0.2394979,-0.067059755,0.050935745,0.05061388,-0.11964989,0.008171722,0.015680492,-0.0057394505,0.022616148,0.0,0.0,0.0,0.0,0.0,0.26022565,0.26316127,0.57948315,0.27271092,0.27283245,100.37686,0.0025632777,0.0025292167,0.0025649844,0.09090877,0.0,0.0,0.0,0.0,0.0,0.0027957624,0.023731299,0.034239504,-0.5715309,0.03613618,2.5059123,2.5044866,0.0,0.0
533042868,0.0010445714,0.24671963,-0.18556166,0.04597187,0.06356883,-0.38300323,0.0049305633,-0.0010192618,0.0019181371,0.022616148,0.0,0.0,0.0,0.0,0.0,0.25986975,0.2638191,0.57940084,0.2722571,0.2724949,100.377785,0.0025311694,0.0025265524,0.0025297257,0.09090877,0.0,0.0,0.0,0.0,0.0,0.0043669697,0.029472405,0.038901184,0.37984458,0.54146254,2.5041142,2.5075676,0.0,0.0
533242875,-0.014028907,0.16602755,0.05072689,0.03909731,0.06852782,0.046649933,0.002963081,-0.009478748,-0.000998795,0.022616148,0.0,0.0,0.0,0.0,0.0,0.2596856,0.26383802,0.579482,0.2722708,0.27269843,100.37821,0.0025224318,0.0025241745,0.0025210686,0.09090877,0.0,0.0,0.0,0.0,0.0,0.003956463,0.023704559,0.032699864,-1.1505752,-0.52336097,2.5137184,2.5064855,0.0,0.0
533450079,-0.066153824,0.044992924,0.08589184,0.027250767,0.07125735,-0.16957092,0.0070173442,0.002275154,-0.0027579963,0.022616148,0.0,0.0,0.0,0.0,0.0,0.25932086,0.2625326,0.57946235,0.27186108,0.2724093,100.37911,0.0025287196,0.002522474,0.0025291315,0.09090877,0.0,0.0,0.0,0.0,0.0,0.0032611717,0.015462603,0.02911649,0.33984378,0.13250974,2.5037818,2.5042064,0.0,0.0
533650068,-0.22833183,0.06108795,0.032825828,0.004266262,0.05502796,0.1293335,0.012248725,-0.0038503334,-0.0023833215,0.022616148,0.0,0.0,0.0,0.0,0.0,0.2589105,0.26087034,0.5794999,0.27181444,0.2724638,100.379196,0.002542081,0.0025210208,0.0025453488,0.09090877,0.0,0.0,0.0,0.0,0.0,0.0026451861,0.015105285,0.030534353,0.27135634,0.86112016,2.5036118,2.5110438,0.0,0.0
533857275,-0.26616764,0.018841188,-0.04669857,-0.020843983,0.046374917,0.48452568,0.002580911,-0.009475023,0.0070812106,0.022616148,0.0,0.0,0.0,0.0,0.0,0.25845492,0.2592218,0.5794646,0.27158374,0.2722229,100.378586,0.0025543831,0.0025196401,0.0025596006,0.09090877,0.0,0.0,0.0,0.0,0.0,0.0012127409,0.019139571,0.03493763,0.0020165425,-0.35483724,2.5033348,2.504057,0.0,0.0
534056468,-0.083470404,-0.032701284,0.058712482,-0.045039654,0.030832052,0.560091,0.01020354,0.0015798137,-0.0034253001,0.022616148,0.0,0.0,0.0,0.0,0.0,0.2580596,0.2582008,0.5794332,0.2713514,0.2718899,100.379395,0.0025266549,0.0025186185,0.0025269424,0.09090877,0.0,0.0,0.0,0.0,0.0,0.0007388059,0.02339733,0.04020452,-0.06447758,-0.30249232,2.5035186,2.5040061,0.0,0.0
534264468,-0.09571898,-0.0074974597,-0.13981533,-0.048687935,0.024302483,0.0006790161,0.0055865645,0.0045612603,-0.0015606582,0.022616148,0.0,0.0,0.0,0.0,0.0,0.25783846,0.25788838,0.5794754,0.27129337,0.27170393,100.380196,0.002516738,0.0025175726,0.0025155437,0.09090877,0.0,0.0,0.0,0.0,0.0,0.0007569037,0.02308326,0.038364407,-0.49141008,-0.3150465,2.505292,2.5039635,0.0,0.0
534463714,-0.02596414,0.06008689,-0.22959322,-0.042022705,0.017959118,-0.25670433,0.0056669414,0.008047953,-0.0011820793,0.022616148,0.0,0.0,0.0,0.0,0.0,0.25758377,0.25763598,0.57942873,0.27088678,0.2711912,100.378845,0.0025195088,0.0025167651,0.0025187049,0.09090877,0.0,0.0,0.0,0.0,0.0,0.00069034816,0.01673304,0.035154402,0.010883688,-0.0443837,2.503446,2.503927,0.0,0.0
534663691,0.049185872,0.036647856,-0.1547649,-0.02769661,0.024193525,0.19128036,0.00577347,0.0065528452,-0.0006130338,0.022616148,0.0,0.0,0.0,0.0,0.0,0.2574388,0.2575095,0.5794517,0.27068257,0.2709189,100.37965,0.002520361,0.0025159838,0.002519814,0.09090877,0.0,0.0,0.0,0.0,0.0,0.000556516,0.010362861,0.025285155,-0.2415352,0.095499516,2.5033796,2.5038981,0.0,0.0
534870916,0.07242763,0.07655968,-0.1867944,-0.014837742,0.02774036,0.06492424,0.0035230368,0.008763634,0.0014361441,0.022616148,0.0,0.0,0.0,0.0,0.0,0.25736442,0.25751626,0.579496,0.27047104,0.27065918,100.38051,0.0025189968,0.0025152182,0.0025186867,0.09090877,0.0,0.0,0.0,0.0,0.0,0.00046930218,0.0118774595,0.033650715,-1.0257503,-0.19085085,2.5104733,2.5038607,0.0,0.0
535070868,0.15225142,0.044828065,-0.12480199,0.004635334,0.03450799,0.3209896,-0.005982235,-0.0030240119,-0.0021041334,0.022616148,0.0,0.0,0.0,0.0,0.0,0.25734207,0.25755492,0.57949966,0.27028722,0.27046412,100.38052,0.002517233,0.0025146625,0.0025170457,0.09090877,0.0,0.0,0.0,0.0,0.0,0.00038604255,0.010300911,0.02238257,-0.20749646,0.10214345,2.5033157,2.5038311,0.0,0.0
535274068,0.12945224,0.11186027,0.15783882,0.008980751,0.049876213,0.6430588,-0.0055539757,-0.0022943094,-0.0011624098,0.022616148,0.0,0.0,0.0,0.0,0.0,0.25723484,0.25758842,0.579525,0.2702042,0.27038804,100.38126,0.0025146687,0.002514127,0.0025141586,0.09090877,0.0,0.0,0.0,0.0,0.0,0.0004514104,0.010310779,0.031666037,-0.77911484,-0.45888147,2.5080662,2.5049098,0.0,0.0
535482068,-0.064769596,0.059463985,0.11380336,0.011007309,0.040140867,1.1818848,-0.00404568,-0.005025521,0.0014055967,0.022616148,0.0,0.0,0.0,0.0,0.0,0.2571647,0.25758854,0.5795015,0.26994565,0.27014083,100.378006,0.002512965,0.0025135048,0.0025120785,0.09090877,0.0,0.0,0.0,0.0,0.0,0.00035745424,0.013641261,0.04784545,-0.81330746,0.23577328,2.508446,2.5037558,0.0,0.0
535681272,-0.023598075,0.022697374,0.21533515,0.005742073,0.04651189,1.1244144,-0.00982216,-0.007754609,0.0028927326,0.034457058,0.0,0.0,0.0,0.0,0.0,0.2572668,0.25764146,0.5795075,0.26986408,0.2700724,100.381004,0.002512506,0.002513199,0.002511613,0.09066644,0.0,0.0,0.0,0.0,0.0,0.00016680932,0.016320584,0.053901464,0.39608973,0.4157021,2.5035417,2.5050163,0.0,0.0
535888483,-0.0056451857,0.013738424,0.18160832,0.0017676353,0.03911686,-0.18762207,-0.00982216,-0.007754609,0.0028927326,0.024383545,0.0,0.0,0.0,0.0,0.0,0.25747922,0.257758,0.57953304,0.26980177,0.270005,100.37805,0.002512506,0.002513199,0.002511613,0.09062168,0.0,0.0,0.0,0.0,0.0,0.0020525127,0.017698856,0.057272945,-0.8997123,-0.08376178,2.5091598,2.503698,0.0,0.0
536088470,-0.12416586,0.06512599,0.12798429,-0.006694317,0.042589545,-1.2479935,-0.00982216,-0.007754609,0.0028927326,0.023531795,0.0,0.0,0.0,0.0,0.0,0.25776953,0.25794283,0.57953584,0.26976648,0.26995394,100.37805,0.002512506,0.002513199,0.002511613,0.09058797,0.0,0.0,0.0,0.0,0.0,0.0025595082,0.014671181,0.04144186,-1.0337664,0.62197804,2.5103424,2.5072224,0.0,0.0
536287674,-0.12248176,-0.047960833,0.14326775,-0.019582748,0.035931945,-0.67375183,-0.00982216,-0.007754609,0.0028927326,0.037282676,0.0,0.0,0.0,0.0,0.0,0.25809008,0.25819415,0.57955587,0.26975146,0.26991582,100.37812,0.002512506,0.002513199,0.002511613,0.090558186,0.0,0.0,0.0,0.0,0.0,0.002619444,0.014368041,0.0323536,-0.36320204,0.2128385,2.5038445,2.503634,0.0,0.0
536495668,-0.07149911,-0.09943655,0.16536283,-0.030489445,0.025851965,-0.37796593,-0.00982216,-0.007754609,0.0028927326,0.03254065,0.0,0.0,0.0,0.0,0.0,0.25850993,0.2585621,0.57960194,0.26991525,0.2700531,100.37815,0.002512506,0.002513199,0.002511613,0.09053171,0.0,0.0,0.0,0.0,0.0,0.0023289286,0.013897022,0.022260668,-0.10122033,0.36767754,2.5031404,2.5043368,0.0,0.0
536694874,-0.10399279,-0.0017123967,-0.17742682,-0.038775444,0.021940589,-0.3273716,-0.00982216,-0.007754609,0.0028927326,-0.03140223,0.0,0.0,0.0,0.0,0.0,0.25856233,0.25859228,0.5795485,0.26981354,0.26992196,100.37752,0.002512506,0.002513199,0.002511613,0.090510674,0.0,0.0,0.0,0.0,0.0,0.0006485494,0.013587597,0.025456442,-1.3644335,-0.90104455,2.5131373,2.5093184,0.0,0.0
536902868,-0.094080225,0.038381323,-0.25018084,-0.052431583,0.017272234,-0.6264534,-0.00982216,-0.007754609,0.0028927326,-0.03732106,0.0,0.0,0.0,0.0,0.0,0.25820786,0.2582256,0.5795824,0.27000266,0.27008417,100.378265,0.002512506,0.002513199,0.002511613,0.09048907,0.0,0.0,0.0,0.0,0.0,0.0019570158,0.018897811,0.053851698,-0.0136361495,0.5982308,2.5030515,2.506664,0.0,0.0
537102068,-0.16638783,-0.072489426,-0.24691868,-0.059551716,0.010342598,-0.34711075,0.0015813708,0.015360922,-0.009751171,-0.03732106,0.0,0.0,0.0,0.0,0.0,0.257816,0.25783178,0.57958657,0.27000836,0.27005526,100.378365,0.0027024245,0.002664617,0.0027020457,0.09048907,0.0,0.0,0.0,0.0,0.0,0.003904759,0.022374667,0.064142846,-0.7458203,-0.4510382,2.507143,2.5043468,0.0,0.0
537305302,-0.17226416,-0.004627168,-0.13349897,-0.069314,0.00400424,-1.0997581,0.003371507,-0.003278464,0.0038690567,-0.03732106,0.0,0.0,0.0,0.0,0.0,0.25759676,0.25762293,0.5795914,0.26998028,0.27000368,100.378365,0.002615726,0.0026190584,0.002622746,0.09048907,0.0,0.0,0.0,0.0,0.0,0.003086546,0.01959993,0.051303733,-0.8602871,0.5768208,2.50812,2.5064173,0.0,0.0
537505271,-0.13979754,0.12652698,-0.1911143,-0.06470108,0.009969711,0.31049347,-0.0070722103,-0.005607143,0.007286966,-0.03732106,0.0,0.0,0.0,0.0,0.0,0.2574481,0.25751218,0.5795607,0.2698603,0.26987,100.378716,0.0025830495,0.0025955287,0.0025881364,0.09048907,0.0,0.0,0.0,0.0,0.0,0.000585126,0.017364506,0.048972495,-1.1156689,-0.5783639,2.510409,2.5052345,0.0,0.0
537704468,-0.08056937,0.06170842,0.00781402,-0.06428194,0.017995238,0.6059532,-0.011100046,-0.0056392252,0.0046960413,-0.03732106,0.0,0.0,0.0,0.0,0.0,0.2575878,0.25769606,0.5795504,0.26983228,0.2698363,100.378784,0.002566648,0.002577528,0.0025687793,0.09048907,0.0,0.0,0.0,0.0,0.0,0.0020243921,0.010627785,0.022401597,1.4501845,0.14759558,2.5132658,2.503255,0.0,0.0
537912488,-0.064696245,0.08650218,0.040237144,-0.06889343,0.028181791,0.37060356,-0.010998718,0.0018251687,0.0043326616,-0.03732106,0.0,0.0,0.0,0.0,0.0,0.25798884,0.25814456,0.57953745,0.26979998,0.26980525,100.378784,0.0025555822,0.002563587,0.002556377,0.09048907,0.0,0.0,0.0,0.0,0.0,0.0017418984,0.00874616,0.016046483,-1.420418,0.82398003,2.5129979,2.508612,0.0,0.0
538111668,-0.08222233,0.0716373,0.005610347,-0.06177044,0.035395265,-0.24002075,-0.010336839,-0.0054938644,0.0016461611,-0.03732106,0.0,0.0,0.0,0.0,0.0,0.25852114,0.25872028,0.57954687,0.2698225,0.26983482,100.378876,0.0025475654,0.0025534653,0.00254778,0.09048907,0.0,0.0,0.0,0.0,0.0,0.0014817344,0.009616552,0.019904872,0.19367173,0.38137048,2.502999,2.5042837,0.0,0.0
538319668,-0.08894036,0.095703036,0.014457375,-0.06453276,0.03851068,-0.22509003,-0.00052627176,-0.0028364807,0.002449602,-0.03732106,0.0,0.0,0.0,0.0,0.0,0.25920847,0.25945383,0.5795799,0.27001575,0.27004066,100.37815,0.0025407383,0.0025450068,0.0025407881,0.09048907,0.0,0.0,0.0,0.0,0.0,0.0012363498,0.010742038,0.019096589,-1.1298721,0.16085908,2.5101867,2.503144,0.0,0.0
538522868,-0.11042595,0.0901088,0.018547527,-0.06438398,0.048854947,-0.15323639,-0.0011278763,-0.0011632144,-0.00039198995,-0.03732106,0.0,0.0,0.0,0.0,0.0,0.25968093,0.25994998,0.5795191,0.2699609,0.2699992,100.37854,0.0025360212,0.0025392585,0.0025360982,0.09048907,0.0,0.0,0.0,0.0,0.0,0.0012472115,0.011277998,0.017384622,0.30683166,1.0938529,2.502922,2.5108793,0.0,0.0
538726068,-0.11742459,0.120346546,-0.010957756,-0.070783615,0.049746513,-0.31957817,-0.008702055,0.0035359114,-0.0011142492,-0.03732106,0.0,0.0,0.0,0.0,0.0,0.2602437,0.26053166,0.5795353,0.27016973,0.27022493,100.37935,0.002532656,0.002535206,0.0025328,0.09048907,0.0,0.0,0.0,0.0,0.0,0.0014633986,0.013296578,0.018514855,0.6060045,0.7004953,2.5052524,2.5071547,0.0,0.0
538926074,-0.10817933,0.116441555,0.00731072,-0.07288027,0.059479,0.13481903,-0.0031895116,0.0021048784,-0.0011326373,-0.03732106,0.0,0.0,0.0,0.0,0.0,0.26072407,0.26102203,0.5795294,0.2704062,0.27047834,100.378914,0.0025295028,0.0025314202,0.0025297052,0.09048907,0.0,0.0,0.0,0.0,0.0,0.0015604665,0.013927914,0.020801013,-0.16605298,0.23970142,2.5028892,2.5030644,0.0,0.0
539133298,-0.09615123,0.09460539,0.007903576,-0.078573704,0.062844634,0.3387642,-0.002463743,0.003169313,-0.0030514002,-0.03732106,0.0,0.0,0.0,0.0,0.0,0.26106837,0.2613634,0.5795398,0.27061862,0.27070543,100.380516,0.0025269296,0.0025283438,0.0025271473,0.09048907,0.0,0.0,0.0,0.0,0.0,0.001592073,0.013724877,0.02229499,0.8529089,-0.5836079,2.507286,2.5047126,0.0,0.0
539333293,-0.11096585,0.11758962,-0.005794758,-0.081784725,0.07006657,0.16771698,-0.007730305,0.0018613487,-0.0026496053,-0.03732106,0.0,0.0,0.0,0.0,0.0,0.26128256,0.26155844,0.5795475,0.27082026,0.27091843,100.37975,0.0025245745,0.002525565,0.0025247529,0.09048907,0.0,0.0,0.0,0.0,0.0,0.0016679367,0.01385549,0.021822983,0.17444268,0.9212053,2.5028217,2.509002,0.0,0.0
539532468,-0.124081634,0.105494075,-0.025200669,-0.08043957,0.0703274,-0.002817154,-0.0021521524,-0.005358577,-0.00022631884,-0.03732106,0.0,0.0,0.0,0.0,0.0,0.2613491,0.2616011,0.579533,0.27099937,0.2711052,100.379814,0.0025228458,0.0025235726,0.0025229584,0.09048907,0.0,0.0,0.0,0.0,0.0,0.0016973114,0.013390811,0.02008462,-1.0234736,0.42361817,2.5086904,2.5044532,0.0,0.0
539740468,-0.12792474,0.1038196,0.1250883,-0.075716496,0.063979864,0.3704872,-0.010969892,-0.0052984804,0.00018811226,-0.03732106,0.0,0.0,0.0,0.0,0.0,0.26141548,0.26164106,0.57952046,0.27116242,0.27127236,100.379814,0.0025213684,0.0025219584,0.002521411,0.09048907,0.0,0.0,0.0,0.0,0.0,0.0017890673,0.013456102,0.027059533,-0.7385703,-0.66918385,2.5061808,2.5053043,0.0,0.0
539939668,-0.0076240376,0.13091576,0.26490384,-0.061415195,0.07093978,-0.7810631,-0.007988751,-0.0037378073,0.0030860603,-0.03732106,0.0,0.0,0.0,0.0,0.0,0.26153862,0.26174158,0.57948554,0.27114147,0.27124926,100.37981,0.0025202362,0.0025208055,0.0025202238,0.09048907,0.0,0.0,0.0,0.0,0.0,0.0014876305,0.012271447,0.030768337,0.058013327,-0.3434231,2.5027306,2.5029044,0.0,0.0
540147686,-0.07534362,0.1358171,0.09608281,-0.05978632,0.07410312,-0.6527958,0.0025131926,-0.008903697,0.00334844,-0.03732106,0.0,0.0,0.0,0.0,0.0,0.2617363,0.26190856,0.5795234,0.27148208,0.27158946,100.379875,0.0025191228,0.0025197174,0.0025190255,0.09048907,0.0,0.0,0.0,0.0,0.0,0.0015254285,0.011242428,0.021577906,-1.0528425,-1.3239694,2.5086296,2.510819,0.0,0.0
540346878,-0.16936076,0.1080955,-0.0630213,-0.06752539,0.06962669,-0.70243645,-0.0068456084,-0.00034186244,0.0012020171,-0.03732106,0.0,0.0,0.0,0.0,0.0,0.2614536,0.26160023,0.5795301,0.27160546,0.27170816,100.380615,0.0025181454,0.0025187188,0.0025179568,0.09048907,0.0,0.0,0.0,0.0,0.0,0.0013579947,0.007095877,0.009191224,1.522986,1.276191,2.512175,2.5114431,0.0,0.0
540546868,-0.03154537,-0.006265059,0.07707882,-0.0645957,0.055740356,0.3045349,0.00093485415,-0.0006235242,0.0013293624,-0.03732106,0.0,0.0,0.0,0.0,0.0,0.26114824,0.26127064,0.5795354,0.27166995,0.2717664,100.38138,0.0025172795,0.002517805,0.0025170161,0.09048907,0.0,0.0,0.0,0.0,0.0,0.0011194567,0.0026616566,0.0033807075,-0.41735467,-0.29903832,2.5033507,2.5027535,0.0,0.0
540754074,-0.014539108,0.017806713,0.03117621,-0.06898546,0.06119132,0.28737068,0.0036924183,-0.00031596422,-0.0013663471,-0.03732106,0.0,0.0,0.0,0.0,0.0,0.26092288,0.26101658,0.5795675,0.27190697,0.27199754,100.381355,0.0025163712,0.002516828,0.0025160918,0.09048907,0.0,0.0,0.0,0.0,0.0,0.0010183735,0.00029787855,0.00452709,-0.42967802,0.15031135,2.5034204,2.5027182,0.0,0.0
540953276,-0.060548782,0.0917394,-0.0003465414,-0.061192513,0.05746925,0.19290543,-0.0040883347,-0.0016512722,-0.0013851225,-0.03732106,0.0,0.0,0.0,0.0,0.0,0.26052982,0.2605997,0.5795029,0.271702,0.27178216,100.38068,0.0025156331,0.0025160452,0.0025153614,0.09048907,0.0,0.0,0.0,0.0,0.0,0.00089870254,0.0022280635,0.0069721667,-1.9019598,-0.11983207,2.5147078,2.5026922,0.0,0.0
541161292,-0.054536037,0.0852696,0.03750944,-0.05055952,0.05992365,-0.120895386,-0.001033172,0.00078460574,-0.0017166436,-0.03732106,0.0,0.0,0.0,0.0,0.0,0.26025027,0.2603026,0.57951033,0.2716765,0.2717472,100.38065,0.002514869,0.0025152059,0.0025145572,0.09048907,0.0,0.0,0.0,0.0,0.0,0.0008655169,0.0042251567,0.0063063893,1.6012219,0.6773893,2.5120296,2.5060627,0.0,0.0
541360477,-0.09022445,0.07393293,0.024246097,-0.047803402,0.04889393,0.37179184,9.392947e-05,0.00017951429,0.0011520982,-0.03732106,0.0,0.0,0.0,0.0,0.0,0.2597775,0.25981742,0.57948476,0.27150735,0.27156347,100.38145,0.0025143514,0.0025146082,0.0025139872,0.09048907,0.0,0.0,0.0,0.0,0.0,0.0009020368,0.0056313523,0.01591529,-1.7298157,0.87854564,2.5129306,2.507652,0.0,0.0
541567725,-0.0026476234,0.0067178756,0.052508235,-0.039096355,0.048588157,0.09295845,0.0011962205,-0.0030599684,0.00077307224,-0.03732106,0.0,0.0,0.0,0.0,0.0,0.25955176,0.2595864,0.579497,0.27162665,0.27167517,100.380714,0.0025137402,0.0025139393,0.0025133276,0.09048907,0.0,0.0,0.0,0.0,0.0,0.00075717305,0.0063443086,0.013635831,-1.1649504,-0.19266292,2.5086336,2.5026302,0.0,0.0
541767710,-0.06842563,-0.000892736,0.00043225288,-0.049347878,0.05184889,0.7776661,-0.0019966066,0.0031756312,-0.0005777478,-0.03732106,0.0,0.0,0.0,0.0,0.0,0.2592542,0.25928277,0.5795018,0.2715171,0.27155834,100.3807,0.002513257,0.0025134129,0.0025128073,0.09048907,0.0,0.0,0.0,0.0,0.0,0.0006640238,0.004045779,0.008296244,1.1699694,0.72047734,2.5083528,2.5063088,0.0,0.0
541974868,-0.067336805,0.04971556,0.050911546,-0.045310497,0.048350096,-0.48991966,-5.8032572e-05,-0.00036995113,-0.0028984547,-0.03732106,0.0,0.0,0.0,0.0,0.0,0.25900728,0.25903302,0.5795087,0.2714146,0.2714498,100.38151,0.0025128163,0.0025129402,0.0025123295,0.09048907,0.0,0.0,0.0,0.0,0.0,0.0006609492,0.003606001,0.00538882,-0.07126961,1.4552354,2.5023558,2.5118968,0.0,0.0
542174881,-0.06876199,0.029023174,-0.00055360794,-0.03674507,0.045582533,-0.27773857,-0.00019802898,-0.0005054176,-0.0013254285,-0.03732106,0.0,0.0,0.0,0.0,0.0,0.25881025,0.25883207,0.57953835,0.2714587,0.27148905,100.380745,0.0025124152,0.002512493,0.0025118878,0.09048907,0.0,0.0,0.0,0.0,0.0,0.00055236445,0.005396907,0.007967869,0.00016154442,-0.25054878,2.5023406,2.5025146,0.0,0.0
542378068,-0.050839305,0.0907822,0.02803886,-0.038841724,0.050521374,-0.2734413,0.00334993,-0.001473248,-0.00097191334,-0.03732106,0.0,0.0,0.0,0.0,0.0,0.25851852,0.25853714,0.5794954,0.27115947,0.27118522,100.38153,0.0025120364,0.0025120769,0.0025114769,0.09048907,0.0,0.0,0.0,0.0,0.0,0.0005396847,0.004854716,0.0072776857,0.31424314,-0.034969494,2.502318,2.5024984,0.0,0.0
542578087,-0.05120571,0.037630536,0.05081165,-0.034950733,0.044637203,0.60214615,0.00030293316,-0.0011468828,0.0018967688,0.01597035,0.0,0.0,0.0,0.0,0.0,0.25836006,0.25837576,0.57948923,0.2711151,0.27113736,100.37821,0.0025116825,0.002511702,0.0025110915,0.09046608,0.0,0.0,0.0,0.0,0.0,0.0004411128,0.0065262485,0.010849483,1.1677967,0.727057,2.5079694,2.506135,0.0,0.0
542785279,-0.02990812,0.015603155,0.005188942,-0.03728199,0.046119213,0.24499321,0.00030293316,-0.0011468828,0.0018967688,-0.0012552738,0.0,0.0,0.0,0.0,0.0,0.25816873,0.25818062,0.5794499,0.27083942,0.27085823,100.37825,0.0025116825,0.002511702,0.0025110915,0.09044913,0.0,0.0,0.0,0.0,0.0,0.000475757,0.00557166,0.009061204,1.5706173,1.1282005,2.5106368,2.5090547,0.0,0.0
542985275,-0.07303127,0.075864606,0.11682713,-0.035856247,0.043290854,0.10656738,0.00030293316,-0.0011468828,0.0018967688,0.011241674,0.0,0.0,0.0,0.0,0.0,0.25810412,0.2581122,0.57948273,0.27088577,0.2709019,100.38118,0.0025116825,0.002511702,0.0025110915,0.09043355,0.0,0.0,0.0,0.0,0.0,0.000721845,0.006765164,0.013810384,0.5808308,0.015696451,2.503855,2.502397,0.0,0.0
543192468,-0.061476097,0.08245593,-0.016731024,-0.026456356,0.046046734,-0.90854263,0.00030293316,-0.0011468828,0.0018967688,0.005111158,0.0,0.0,0.0,0.0,0.0,0.2580311,0.25803572,0.5794701,0.27078164,0.27079514,100.38054,0.0025116825,0.002511702,0.0025110915,0.090417266,0.0,0.0,0.0,0.0,0.0,0.0009179756,0.004886374,0.007570602,-1.088286,1.3068143,2.5073555,2.510045,0.0,0.0
543392468,0.0396031,-0.02257181,0.07345939,-0.026951313,0.041000366,-0.5634346,0.00030293316,-0.0011468828,0.0018967688,-0.009218991,0.0,0.0,0.0,0.0,0.0,0.25793976,0.2579445,0.5794554,0.27065614,0.27066734,100.37763,0.0025116825,0.002511702,0.0025110915,0.09040397,0.0,0.0,0.0,0.0,0.0,0.00062418473,0.0076580774,0.010796532,0.25272116,1.1790361,2.5022006,2.509069,0.0,0.0
543591668,-0.015423089,0.052285478,-0.028780222,-0.03004551,0.043939233,0.56614876,0.00030293316,-0.0011468828,0.0018967688,0.011013508,0.0,0.0,0.0,0.0,0.0,0.25787655,0.25788116,0.57944304,0.27055532,0.2705646,100.376945,0.0025116825,0.002511702,0.0025110915,0.09039161,0.0,0.0,0.0,0.0,0.0,0.0008276476,0.0074126287,0.014917196,0.5298142,0.7414263,2.5034015,2.5059383,0.0,0.0
543790884,-0.028815031,0.0799593,0.0020546913,-0.024994373,0.037703276,-0.4687462,0.00030293316,-0.0011468828,0.0018967688,-0.039841235,0.0,0.0,0.0,0.0,0.0,0.2578066,0.25781062,0.5794523,0.27046296,0.27047053,100.38,0.0025116825,0.002511702,0.0025110915,0.09038022,0.0,0.0,0.0,0.0,0.0,0.00031164888,0.0067306664,0.01619123,-1.0851315,-0.2813181,2.5071256,2.5022979,0.0,0.0
543998880,-0.052353166,0.017902039,-0.021610498,-0.024852276,0.045481563,-0.21351624,0.00030293316,-0.0011468828,0.0018967688,0.024748087,0.0,0.0,0.0,0.0,0.0,0.25768405,0.2576886,0.57943946,0.27037105,0.27037713,100.37712,0.0025116825,0.002511702,0.0025110915,0.09036971,0.0,0.0,0.0,0.0,0.0,0.00035876877,0.0073529393,0.020405771,0.7387667,-0.33082375,2.5046694,2.502281,0.0,0.0
544202068,0.009195931,-0.008996986,0.10772586,-0.030740261,0.04510498,-0.010046005,0.00030293316,-0.0011468828,0.0018967688,0.0067417026,0.0,0.0,0.0,0.0,0.0,0.25775513,0.25776038,0.5794741,0.27044475,0.2704496,100.377235,0.0025116825,0.002511702,0.0025110915,0.09035972,0.0,0.0,0.0,0.0,0.0,0.00052716443,0.0069685155,0.009841304,-1.008794,-0.1946817,2.5065084,2.5022655,0.0,0.0
544402068,-0.03332478,0.04583448,0.11401129,-0.026958942,0.042135,-0.48154068,0.00030293316,-0.0011468828,0.0018967688,0.011271656,0.0,0.0,0.0,0.0,0.0,0.25778306,0.2577867,0.5794441,0.27027407,0.2702779,100.377625,0.0025116825,0.002511702,0.0025110915,0.09035141,0.0,0.0,0.0,0.0,0.0,0.001001131,0.0068066916,0.0102491975,0.11716452,-0.49402693,2.5020976,2.5026362,0.0,0.0
544609271,-0.010529589,0.026808217,0.022261381,-0.019587517,0.035709977,-0.5345459,0.00030293316,-0.0011468828,0.0018967688,0.0008071065,0.0,0.0,0.0,0.0,0.0,0.25782192,0.2578256,0.5794537,0.2702335,0.27023646,100.37772,0.0025116825,0.002511702,0.0025110915,0.09034196,0.0,0.0,0.0,0.0,0.0,0.00063111505,0.006082977,0.010041103,-0.095961116,0.6104103,2.502089,2.5047913,0.0,0.0
544808468,-0.036647752,0.035240732,-0.049225807,-0.017352581,0.027287602,-0.22068024,0.00030293316,-0.0011468828,0.0018967688,0.032649517,0.0,0.0,0.0,0.0,0.0,0.25780913,0.2578134,0.5794405,0.27018756,0.27018988,100.37849,0.0025116825,0.002511702,0.0025110915,0.09033239,0.0,0.0,0.0,0.0,0.0,0.00029704647,0.006238519,0.017431067,-0.8956878,-0.35964793,2.505675,2.5022128,0.0,0.0
545016468,-0.041388076,0.009460699,0.07102895,-0.026360989,0.032504916,-0.25686646,0.00030293316,-0.0011468828,0.0018967688,-0.00796169,0.0,0.0,0.0,0.0,0.0,0.25784445,0.25785032,0.579428,0.27014935,0.27015132,100.378525,0.0025116825,0.002511702,0.0025110915,0.090324454,0.0,0.0,0.0,0.0,0.0,0.00034524384,0.0064607137,0.0140576335,-0.22198781,-0.47521132,2.5020623,2.5024424,0.0,0.0
545215682,-0.02747291,0.019538455,-0.02540946,-0.024232864,0.03135252,0.10984802,0.00030293316,-0.0011468828,0.0018967688,-0.0062344074,0.0,0.0,0.0,0.0,0.0,0.25786564,0.2578733,0.5794628,0.2702834,0.27028537,100.37791,0.0025116825,0.002511702,0.0025110915,0.09031785,0.0,0.0,0.0,0.0,0.0,0.00041972066,0.0065491023,0.015725326,-0.62342024,1.1781366,2.503917,2.508404,0.0,0.0
545415674,-0.036445994,0.0071292,-0.028185368,-0.02043724,0.022308588,-1.5811787,0.00030293316,-0.0011468828,0.0018967688,0.010859191,0.0,0.0,0.0,0.0,0.0,0.2577942,0.2578022,0.57942426,0.27009103,0.2700931,100.37796,0.0025116825,0.002511702,0.0025110915,0.09031072,0.0,0.0,0.0,0.0,0.0,0.0006157161,0.0070362543,0.022786764,-1.1540121,-0.26842365,2.5071247,2.502159,0.0,0.0
545622868,-0.044748716,0.01652366,-0.024175406,-0.020108223,0.025246978,-0.6994915,0.00030293316,-0.0011468828,0.0018967688,0.031697273,0.0,0.0,0.0,0.0,0.0,0.25775558,0.25776744,0.57938653,0.2699241,0.26992655,100.37881,0.0025116825,0.002511702,0.0025110915,0.09030442,0.0,0.0,0.0,0.0,0.0,0.00032536674,0.006711208,0.02088415,-1.5594274,0.048298255,2.5094864,2.502144,0.0,0.0
545822868,-0.12802519,-0.09823036,0.045280457,-0.028241634,0.014144897,0.07254791,0.00030293316,-0.0011468828,0.0018967688,-0.01171416,0.0,0.0,0.0,0.0,0.0,0.25781417,0.25783005,0.579412,0.2700536,0.27005753,100.378105,0.0025116825,0.002511702,0.0025110915,0.09029793,0.0,0.0,0.0,0.0,0.0,0.00049854943,0.0061087995,0.017416706,-0.7392498,0.27129468,2.5043905,2.5024436,0.0,0.0
546026068,-0.057556152,-0.14276701,0.06475687,-0.034608364,-0.01147759,-0.12955856,0.00030293316,-0.0011468828,0.0018967688,0.015988767,0.0,0.0,0.0,0.0,0.0,0.257901,0.25787532,0.5793918,0.27004084,0.2700472,100.37821,0.0025116825,0.002511702,0.0025110915,0.09029132,0.0,0.0,0.0,0.0,0.0,0.00051736366,0.011028518,0.021066742,-0.7660182,0.07549648,2.5042436,2.5021138,0.0,0.0
546233272,-0.071519196,-0.16688287,-0.062099695,-0.041122913,-0.021441221,0.36601257,0.00695841,0.0037813038,-0.00073873997,0.015988767,0.0,0.0,0.0,0.0,0.0,0.2580935,0.2579817,0.57935053,0.27008352,0.27009642,100.378624,0.0025843054,0.002614865,0.0026328359,0.09029132,0.0,0.0,0.0,0.0,0.0,0.0007071183,0.016830778,0.029106742,0.62514734,0.98202986,2.5033548,2.5069075,0.0,0.0
546433287,0.06979537,-0.091444135,-0.18183494,-0.032928944,-0.04199624,-0.23657036,3.1530857e-05,-0.0036520958,-0.0047590435,0.015988767,0.0,0.0,0.0,0.0,0.0,0.2581755,0.25797692,0.57931864,0.27004045,0.27005455,100.378654,0.002566511,0.0025866283,0.0025983185,0.09029132,0.0,0.0,0.0,0.0,0.0,0.0013178284,0.020039853,0.03506515,-0.8384074,-0.8386833,2.5047812,2.504545,0.0,0.0
546640468,0.05961275,-0.06517434,-0.0064308643,-0.023423195,-0.042000055,0.41481018,-0.008054435,-0.0011497289,-0.00033590198,0.015988767,0.0,0.0,0.0,0.0,0.0,0.2582634,0.25802577,0.57931376,0.27003974,0.27004912,100.37879,0.0025548637,0.0025676463,0.002575589,0.09029132,0.0,0.0,0.0,0.0,0.0,0.00053106656,0.017710852,0.031098437,-0.5763506,0.361468,2.5033092,2.5029562,0.0,0.0
546840468,0.07461715,-0.0015723705,0.052204132,-0.007698059,-0.0422585,-0.21794128,0.0028646737,0.0030303001,0.0023210347,0.015988767,0.0,0.0,0.0,0.0,0.0,0.25830576,0.2581205,0.579312,0.27004975,0.2700522,100.37815,0.0025468967,0.0025556062,0.0025611252,0.09029132,0.0,0.0,0.0,0.0,0.0,0.0003859451,0.014147977,0.024411703,-0.09628413,-0.45506722,2.5019314,2.5021088,0.0,0.0
547039674,0.11229646,0.026714802,-0.056555033,0.010477543,-0.03705597,-0.6204262,0.0004843697,0.009245932,-0.0008863807,0.015988767,0.0,0.0,0.0,0.0,0.0,0.25817844,0.2580509,0.5793287,0.27005088,0.2700473,100.37757,0.0025413595,0.0025472706,0.0025514758,0.09029132,0.0,0.0,0.0,0.0,0.0,0.00063520105,0.014181443,0.024494963,-0.6299395,-1.2003127,2.5035298,2.5066705,0.0,0.0
547247673,0.09561598,0.04173875,0.086088896,0.030612946,-0.0051002502,-0.47177505,0.001292184,-0.0047160387,0.0010759532,0.015988767,0.0,0.0,0.0,0.0,0.0,0.25805956,0.25800303,0.57936645,0.27020085,0.27019382,100.37839,0.0025373378,0.002541114,0.0025445437,0.09029132,0.0,0.0,0.0,0.0,0.0,0.00061967864,0.013611376,0.027565109,0.97223276,0.2106136,2.505658,2.502023,0.0,0.0
547446874,0.13329971,0.106877565,0.13929796,0.021214485,-0.032378674,-0.17486572,-0.007913716,0.003675595,-0.0003642738,0.015988767,0.0,0.0,0.0,0.0,0.0,0.25785026,0.257856,0.5792827,0.2698936,0.2698882,100.37856,0.0025343618,0.002536372,0.002539333,0.09029132,0.0,0.0,0.0,0.0,0.0,0.00043783887,0.014779823,0.032727167,-0.101010665,0.38965112,2.5018706,2.5030315,0.0,0.0
547650074,0.11099863,0.1264782,-0.09685373,0.03565502,0.0024046898,-0.17913055,0.0046344064,0.0060882717,0.0021432042,0.015988767,0.0,0.0,0.0,0.0,0.0,0.25776818,0.25781438,0.5793133,0.27005038,0.27005228,100.378624,0.002531556,0.0025326323,0.0025351292,0.09029132,0.0,0.0,0.0,0.0,0.0,0.0007692943,0.013768522,0.024813915,-1.3124563,-1.3051893,2.5071802,2.5071778,0.0,0.0
547850068,0.10144448,0.09652448,-0.04583907,0.052901268,0.012392998,-0.55332947,0.0055872947,0.00188905,-0.0011100769,0.015988767,0.0,0.0,0.0,0.0,0.0,0.25760308,0.25764567,0.5793133,0.2700257,0.27003604,100.37907,0.0025292588,0.0025299494,0.00253207,0.09029132,0.0,0.0,0.0,0.0,0.0,0.00083218067,0.014132072,0.025647242,0.13837795,0.4598088,2.501815,2.5033598,0.0,0.0
548057268,0.11729497,0.124053955,-0.012941837,0.06286812,0.03135395,-0.67829895,0.0035494529,0.0011205375,-0.0012181997,0.015988767,0.0,0.0,0.0,0.0,0.0,0.25756454,0.2575856,0.5793045,0.27005124,0.27007046,100.37918,0.0025266947,0.002527357,0.0025290183,0.09029132,0.0,0.0,0.0,0.0,0.0,0.0006315667,0.015063334,0.026954385,-0.4783206,0.7226822,2.5025678,2.504905,0.0,0.0
548257289,0.06777674,0.13490689,0.05277276,0.06884909,0.06285524,-0.24498177,0.0020947605,-0.005480781,-0.0017033517,0.015988767,0.0,0.0,0.0,0.0,0.0,0.257615,0.25759527,0.57933414,0.27014223,0.27016863,100.379234,0.0025245454,0.0025251817,0.0025264935,0.09029132,0.0,0.0,0.0,0.0,0.0,0.0005718702,0.01486859,0.026758809,-0.7044996,-1.3175058,2.5038006,2.5070825,0.0,0.0
548456478,0.044150054,0.13107741,0.08747482,0.060372353,0.058487415,-0.39164543,-0.0026941076,-0.0016427785,-0.0011589825,0.015988767,0.0,0.0,0.0,0.0,0.0,0.25765523,0.25758007,0.57929844,0.26995015,0.2699796,100.378654,0.0025227678,0.002523353,0.0025244078,0.09029132,0.0,0.0,0.0,0.0,0.0,0.00050137326,0.01284917,0.02453882,1.0036286,-0.073502645,2.5054016,2.5019343,0.0,0.0
548656467,0.013003826,0.104852974,0.0181911,0.05110407,0.0685606,-0.33010864,0.0016814992,0.0009045899,0.003161192,0.015988767,0.0,0.0,0.0,0.0,0.0,0.25778228,0.25763747,0.5792904,0.2699183,0.26994687,100.378746,0.0025213237,0.0025218031,0.002522676,0.09029132,0.0,0.0,0.0,0.0,0.0,0.0005146304,0.01112165,0.022095392,0.19453023,1.7274419,2.5017815,2.5105336,0.0,0.0
548863668,0.017010212,0.097528994,-0.047525644,0.039340973,0.07034731,-0.50759125,0.0015358031,0.0051111877,-0.0003131926,0.015988767,0.0,0.0,0.0,0.0,0.0,0.25785345,0.25762883,0.579276,0.2698149,0.26983094,100.37886,0.0025199824,0.0025204732,0.00252116,0.09029132,0.0,0.0,0.0,0.0,0.0,0.0006370507,0.014884808,0.029323021,-1.2150625,-0.31130224,2.506468,2.501897,0.0,0.0
549062880,-0.0010296702,0.07595891,-0.018589497,0.0406518,0.06800413,-0.121686935,-0.011282466,-0.0011719763,0.002170682,0.015988767,0.0,0.0,0.0,0.0,0.0,0.2578881,0.25764954,0.57929677,0.2698963,0.26990482,100.37828,0.002518529,0.0025193319,0.0025197512,0.09029132,0.0,0.0,0.0,0.0,0.0,0.0003379836,0.007204806,0.016985651,-1.0067203,0.25670254,2.5053463,2.5020213,0.0,0.0
549270868,-0.068790495,0.021119893,-0.046238422,0.023245811,0.07062006,-0.98145485,0.0035444722,-0.000809893,-0.0010622442,0.015988767,0.0,0.0,0.0,0.0,0.0,0.25794578,0.25771403,0.57931346,0.26997408,0.26995593,100.37912,0.002517407,0.0025183065,0.0025185533,0.09029132,0.0,0.0,0.0,0.0,0.0,0.00036101698,0.008856246,0.018364439,-0.25782937,-1.0818667,2.5017657,2.505514,0.0,0.0
549470068,-0.03441155,-0.0029571056,-0.1103909,0.012388229,0.055062294,-0.61037445,0.0036935061,0.002600357,-0.0016357899,-0.025059998,0.0,0.0,0.0,0.0,0.0,0.25770873,0.25753754,0.5792826,0.2698355,0.26980287,100.378525,0.002516799,0.0025173745,0.0025176401,0.09025789,0.0,0.0,0.0,0.0,0.0,0.00061244686,0.00890196,0.023687596,0.13068736,0.64753044,2.501743,2.5041864,0.0,0.0
549678068,-0.039469182,-0.027099848,-0.015286446,0.0017881393,0.05535221,-0.14658165,0.0036935061,0.002600357,-0.0016357899,0.03557235,0.0,0.0,0.0,0.0,0.0,0.25751117,0.257417,0.57932,0.26996776,0.2699255,100.37935,0.002516799,0.0025173745,0.0025176401,0.0902536,0.0,0.0,0.0,0.0,0.0,0.00026684263,0.007872658,0.01714751,-1.125949,-0.42654222,2.5058804,2.5018458,0.0,0.0
549877278,-0.067338526,-0.04890251,0.121385574,-0.00037384033,0.049340725,0.16171837,0.0036935061,0.002600357,-0.0016357899,0.0186494,0.0,0.0,0.0,0.0,0.0,0.257499,0.25745508,0.5793321,0.26995265,0.26990923,100.37952,0.002516799,0.0025173745,0.0025176401,0.09024942,0.0,0.0,0.0,0.0,0.0,0.0007632225,0.008867002,0.018953511,-0.42014736,-0.20513509,2.5021865,2.5018382,0.0,0.0
550077282,-0.046732962,-0.022325993,0.07653999,-0.0010948181,0.035582066,-0.059091568,0.0036935061,0.002600357,-0.0016357899,0.037294507,0.0,0.0,0.0,0.0,0.0,0.25751603,0.25749642,0.57932234,0.2699198,0.26988062,100.378876,0.002516799,0.0025173745,0.0025176401,0.09024563,0.0,0.0,0.0,0.0,0.0,0.000852364,0.0104074795,0.026202824,-0.46213195,0.4706823,2.5023878,2.5031652,0.0,0.0
550280474,-0.017506719,-0.0037311316,0.23825836,-0.003645897,0.024833202,-0.25597,0.0036935061,0.002600357,-0.0016357899,0.036335588,0.0,0.0,0.0,0.0,0.0,0.2576671,0.25765434,0.57931817,0.26991552,0.26988256,100.37834,0.002516799,0.0025173745,0.0025176401,0.09024211,0.0,0.0,0.0,0.0,0.0,0.0014826859,0.014049288,0.037992433,-0.38245586,0.071364656,2.5019698,2.50182,0.0,0.0
550488473,0.040929317,0.043105483,0.17678356,0.009208679,0.03370285,-0.20468521,0.0036935061,0.002600357,-0.0016357899,0.06138313,0.0,0.0,0.0,0.0,0.0,0.2579133,0.25789762,0.579324,0.27000034,0.26997334,100.37522,0.002516799,0.0025173745,0.0025176401,0.090238295,0.0,0.0,0.0,0.0,0.0,0.001986244,0.015202153,0.048302718,-0.055553824,0.42091373,2.501713,2.5028758,0.0,0.0
550687678,-0.025902629,-0.002336979,0.17905092,0.0017814636,0.029827118,-0.9221649,0.0036935061,0.002600357,-0.0016357899,0.054344296,0.0,0.0,0.0,0.0,0.0,0.2581434,0.25812334,0.5793226,0.270042,0.27001962,100.374725,0.002516799,0.0025173745,0.0025176401,0.09023509,0.0,0.0,0.0,0.0,0.0,0.0018939816,0.01272928,0.028596153,-0.18152146,-0.018215977,2.5017085,2.5018084,0.0,0.0
550894898,-0.003965497,-0.008471489,0.1926508,-0.0025577545,0.007698059,-0.8375511,0.0036935061,0.002600357,-0.0016357899,0.008660495,0.0,0.0,0.0,0.0,0.0,0.25826216,0.2582383,0.579273,0.2699204,0.26990095,100.374176,0.002516799,0.0025173745,0.0025176401,0.09023174,0.0,0.0,0.0,0.0,0.0,0.0014927001,0.011898339,0.033086598,0.14536588,0.19964767,2.501703,2.5018017,0.0,0.0
551094880,-0.0011930466,0.045446634,-0.067050934,-0.007929802,0.0105371475,-0.8755188,0.0036935061,0.002600357,-0.0016357899,0.016215742,0.0,0.0,0.0,0.0,0.0,0.25823998,0.25821635,0.57929206,0.26997778,0.26995987,100.37507,0.002516799,0.0025173745,0.0025176401,0.090228796,0.0,0.0,0.0,0.0,0.0,0.0008218412,0.0031478514,0.010003576,-0.41577122,0.22223839,2.502117,2.5017953,0.0,0.0
551302068,-0.010971785,-0.03118372,0.028831005,-0.0077905655,0.0058116913,-1.1687851,0.0036935061,0.002600357,-0.0016357899,0.02089107,0.0,0.0,0.0,0.0,0.0,0.25814325,0.25812092,0.5792892,0.27002308,0.2700065,100.374565,0.002516799,0.0025173745,0.0025176401,0.09022612,0.0,0.0,0.0,0.0,0.0,0.00067244004,0.00486019,0.012261733,-0.17190951,0.38985234,2.501692,2.502641,0.0,0.0
551502081,0.005243063,-0.0348413,0.03480482,-0.00032138824,0.016798973,-1.050848,0.0036935061,0.002600357,-0.0016357899,0.040535808,0.0,0.0,0.0,0.0,0.0,0.2580929,0.2580705,0.5793513,0.27019176,0.27017653,100.375435,0.002516799,0.0025173745,0.0025176401,0.09022353,0.0,0.0,0.0,0.0,0.0,0.0007263195,0.005119043,0.013934812,-0.81857413,0.1660598,2.5041301,2.5017765,0.0,0.0
551701278,-0.007703662,0.009437203,-0.01934433,0.0003528595,0.01780796,-1.3829403,0.0036935061,0.002600357,-0.0016357899,0.013343334,0.0,0.0,0.0,0.0,0.0,0.25801843,0.25799605,0.57934713,0.27021185,0.27019793,100.37567,0.002516799,0.0025173745,0.0025176401,0.09022107,0.0,0.0,0.0,0.0,0.0,0.00067076087,0.006048829,0.024665507,-0.01983365,0.8918672,2.5016754,2.5053058,0.0,0.0
551901277,-0.022513866,0.020716786,-0.03176117,-0.008008003,0.010853767,-0.44550323,0.0036935061,0.002600357,-0.0016357899,0.00987047,0.0,0.0,0.0,0.0,0.0,0.2579421,0.25792047,0.5793403,0.27019447,0.27018154,100.37509,0.002516799,0.0025173745,0.0025176401,0.09021864,0.0,0.0,0.0,0.0,0.0,0.00058897847,0.006759768,0.02909727,-0.7888904,-0.101235196,2.5039542,2.5017667,0.0,0.0
552104470,-0.044600844,0.010676146,-0.04697752,-0.005425453,0.007987976,0.2621193,0.0036935061,0.002600357,-0.0016357899,0.037865758,0.0,0.0,0.0,0.0,0.0,0.25791118,0.25788826,0.5793365,0.27020073,0.27018836,100.37494,0.002516799,0.0025173745,0.0025176401,0.09021679,0.0,0.0,0.0,0.0,0.0,0.00064526295,0.0064245276,0.025805688,0.24815479,-0.49760944,2.5016487,2.5020394,0.0,0.0
552311668,-0.11853373,-0.071365714,0.07292223,-0.008562088,0.010667801,-0.29576492,0.0036935061,0.002600357,-0.0016357899,-0.0007289648,0.0,0.0,0.0,0.0,0.0,0.2579252,0.25789672,0.5793323,0.27024662,0.27023488,100.375206,0.002516799,0.0025173745,0.0025176401,0.09021449,0.0,0.0,0.0,0.0,0.0,0.0006150085,0.0055154674,0.01994756,0.24926972,0.20905125,2.501587,2.5017474,0.0,0.0
552511668,-0.110485435,-0.17731881,0.052657127,-0.023462296,-0.004055023,-0.4552803,-0.0026620477,0.00024548173,0.00087466836,0.021630704,0.0,0.0,0.0,0.0,0.0,0.25798696,0.25792232,0.5793252,0.2702238,0.2702132,100.37465,0.0025652035,0.0026005462,0.0026197948,0.090212524,0.0,0.0,0.0,0.0,0.0,0.0007054166,0.010799398,0.019945161,-0.22068393,-0.21132746,2.5014837,2.501741,0.0,0.0
552718868,-0.025610685,-0.2215507,-0.010500431,-0.026667595,-0.026200294,-0.727932,-0.005837649,-0.001242131,-0.00033324957,0.021630704,0.0,0.0,0.0,0.0,0.0,0.25813106,0.2579719,0.5792789,0.27019817,0.27019382,100.37563,0.0025549328,0.002575976,0.0025851412,0.090212524,0.0,0.0,0.0,0.0,0.0,0.00097591634,0.015546676,0.027590806,-0.2454556,-0.18976337,2.5013776,2.5017357,0.0,0.0
552918874,-0.05206442,-0.28623867,-0.012633324,-0.05535412,-0.08811188,0.74762726,-0.002331376,-0.0063097626,-5.3346157e-05,0.021630704,0.0,0.0,0.0,0.0,0.0,0.2584132,0.2580642,0.5791978,0.27002025,0.27001527,100.37505,0.0025474038,0.0025610917,0.0025661832,0.090212524,0.0,0.0,0.0,0.0,0.0,0.0012233428,0.022951625,0.039329063,-0.11185737,-0.034340277,2.501302,2.5017314,0.0,0.0
