timestamp,heartbeat_time,data_rate,rate_multiplier,rate_rx,rate_tx,rate_txerr,remote_system_id,remote_component_id,remote_type,remote_system_status,type,mode,flow_control,forwarding,mavlink_v2,ftp,streams
518565404,518558308,1200.0,0.34361058,0.97327745,1.2993551,0.0,42,190,6,0,0,0,0,1,1,1,36
518656415,518650245,1200.0,0.34361058,0.97327745,1.2993551,0.0,10,250,6,0,0,0,0,1,1,1,36
519007948,519005300,1200.0,0.34361058,0.80295026,1.3034526,0.0,218,0,6,4,0,0,0,1,1,1,36
519342324,0,5000.0,1.0,0.0,2.1646922,0.0,0,0,0,0,0,1,0,0,1,0,15
519594326,519592280,1200.0,0.34361058,0.80295026,1.3034526,0.0,42,190,6,0,0,0,0,1,1,1,36
519668352,519660362,1200.0,0.34361058,0.80295026,1.3034526,0.0,10,250,6,0,0,0,0,1,1,1,36
520099532,520094282,1200.0,0.34361058,1.0159805,1.493561,0.0,218,0,6,4,0,0,0,1,1,1,36
520344594,0,5000.0,1.0,0.0,2.2439039,0.0,0,0,0,0,0,1,0,0,1,0,15
520592909,520586243,1200.0,0.34361058,1.0159805,1.493561,0.0,42,190,6,0,0,0,0,1,1,1,36
520653509,520649306,1200.0,0.34361058,1.0159805,1.493561,0.0,10,250,6,0,0,0,0,1,1,1,36
521108793,521108402,1200.0,0.34361058,0.8312004,1.1664746,0.0,218,0,6,4,0,0,0,1,1,1,36
521346512,0,5000.0,1.0,0.0,2.2436986,0.0,0,0,0,0,0,1,0,0,1,0,15
521563746,521563028,1200.0,0.34361058,0.8312004,1.1664746,0.0,42,190,6,0,0,0,0,1,1,1,36
521656365,521650362,1200.0,0.34361058,0.8312004,1.1664746,0.0,10,250,6,0,0,0,0,1,1,1,36
522152579,522150330,1200.0,0.34361058,0.92248243,1.3192599,0.0,218,0,6,4,0,0,0,1,1,1,36
522348846,0,5000.0,1.0,0.0,2.3704648,0.0,0,0,0,0,0,1,0,0,1,0,15
522567487,522559011,1200.0,0.34361058,0.92248243,1.3192599,0.0,42,190,6,0,0,0,0,1,1,1,36
522660058,522649308,1200.0,0.34361058,0.92248243,1.3192599,0.0,10,250,6,0,0,0,0,1,1,1,36
523189461,523183235,1200.0,0.34361058,0.9560618,1.4281421,0.0,218,0,6,4,0,0,0,1,1,1,36
523350292,0,5000.0,1.0,0.0,2.5383294,0.0,0,0,0,0,0,1,0,0,1,0,15
523586633,523586139,1200.0,0.34361058,0.9560618,1.4281421,0.0,42,190,6,0,0,0,0,1,1,1,36
523657959,523649597,1200.0,0.34361058,0.9560618,1.4281421,0.0,10,250,6,0,0,0,0,1,1,1,36
524269458,524269303,1200.0,0.34361058,0.8713285,1.4475617,0.0,218,0,6,4,0,0,0,1,1,1,36
524351734,0,5000.0,1.0,0.0,2.6024373,0.0,0,0,0,0,0,1,0,0,1,0,15
524569531,524564388,1200.0,0.34361058,0.8713285,1.4475617,0.0,42,190,6,0,0,0,0,1,1,1,36
524652355,524648293,1200.0,0.34361058,0.8713285,1.4475617,0.0,10,250,6,0,0,0,0,1,1,1,36
525282316,525281886,1200.0,0.34361058,0.8868109,1.3386574,0.0,218,0,6,4,0,0,0,1,1,1,36
525354491,0,5000.0,1.0,0.0,2.534834,0.0,0,0,0,0,0,1,0,0,1,0,15
525575489,525575260,1200.0,0.34361058,0.8868109,1.3386574,0.0,42,190,6,0,0,0,0,1,1,1,36
525655411,525654254,1200.0,0.34361058,0.8868109,1.3386574,0.0,10,250,6,0,0,0,0,1,1,1,36
526334963,526328406,1200.0,0.34361058,0.8888439,1.5207564,0.0,218,0,6,4,0,0,0,1,1,1,36
526356399,0,5000.0,1.0,0.0,2.5201838,0.0,0,0,0,0,0,1,0,0,1,0,15
526651399,526651244,1200.0,0.34361058,0.8888439,1.5207564,0.0,10,250,6,0,0,0,0,1,1,1,36
527356696,0,5000.0,1.0,0.0,2.521251,0.0,0,0,0,0,0,1,0,0,1,0,15
527447331,527444568,1200.0,0.34361058,0.904946,1.2016497,0.0,218,0,6,4,0,0,0,1,1,1,36
527634537,527630447,1200.0,0.34361058,0.904946,1.2016497,0.0,42,190,6,0,0,0,0,1,1,1,36
527654536,527649369,1200.0,0.34361058,0.904946,1.2016497,0.0,10,250,6,0,0,0,0,1,1,1,36
528359456,0,5000.0,1.0,0.0,2.6092808,0.0,0,0,0,0,0,1,0,0,1,0,15
528471079,528458975,1200.0,0.34361058,0.867565,1.4126633,0.0,218,0,6,4,0,0,0,1,1,1,36
528636401,528631233,1200.0,0.34361058,0.867565,1.4126633,0.0,42,190,6,0,0,0,0,1,1,1,36
528656415,528648254,1200.0,0.34361058,0.867565,1.4126633,0.0,10,250,6,0,0,0,0,1,1,1,36
529360512,0,5000.0,1.0,0.0,2.5612824,0.0,0,0,0,0,0,1,0,0,1,0,15
529485730,529478335,1200.0,0.34361058,0.79045546,1.3097837,0.0,218,0,6,4,0,0,0,1,1,1,36
529643941,529642304,1200.0,0.34361058,0.79045546,1.3097837,0.0,10,250,6,0,0,0,0,1,1,1,36
530367067,0,5000.0,1.0,0.0,2.6315084,0.0,0,0,0,0,0,1,0,0,1,0,15
530518471,530517897,1200.0,0.34361058,0.9650802,1.7203604,0.0,218,0,6,4,0,0,0,1,1,1,36
530620021,530615280,1200.0,0.34361058,0.9650802,1.7203604,0.0,42,190,6,0,0,0,0,1,1,1,36
530650800,530648269,1200.0,0.34361058,0.9650802,1.7203604,0.0,10,250,6,0,0,0,0,1,1,1,36
531368319,0,5000.0,1.0,0.0,2.5595975,0.0,0,0,0,0,0,1,0,0,1,0,15
531607868,531601528,1200.0,0.34361058,0.8315074,1.1309699,0.0,218,0,6,4,0,0,0,1,1,1,36
531659931,531655297,1200.0,0.34361058,0.8315074,1.1309699,0.0,42,190,6,0,0,0,0,1,1,1,36
531669574,531660299,1200.0,0.34361058,0.8315074,1.1309699,0.0,10,250,6,0,0,0,0,1,1,1,36
532368360,0,5000.0,1.0,0.0,2.5658946,0.0,0,0,0,0,0,1,0,0,1,0,15
532629536,532620661,1200.0,0.34361058,0.9455089,1.4906492,0.0,218,0,6,4,0,0,0,1,1,1,36
532669513,532661431,1200.0,0.34361058,0.9455089,1.4906492,0.0,10,250,6,0,0,0,0,1,1,1,36
533371516,0,5000.0,1.0,0.0,2.5559409,0.0,0,0,0,0,0,1,0,0,1,0,15
533639920,533629302,1200.0,0.34361058,0.8518723,1.2465699,0.0,42,190,6,0,0,0,0,1,1,1,36
533661512,533651532,1200.0,0.34361058,0.8518723,1.2465699,0.0,10,250,6,0,0,0,0,1,1,1,36
533723061,533716609,1200.0,0.34361058,0.8518723,1.2465699,0.0,218,0,6,4,0,0,0,1,1,1,36
534373654,0,5000.0,1.0,0.0,2.6024463,0.0,0,0,0,0,0,1,0,0,1,0,15
534647537,534642249,1200.0,0.34361058,0.9548074,1.3413247,0.0,42,190,6,0,0,0,0,1,1,1,36
534658248,534652650,1200.0,0.34361058,0.9548074,1.3413247,0.0,10,250,6,0,0,0,0,1,1,1,36
534770363,534766246,1200.0,0.34361058,0.9548074,1.3413247,0.0,218,0,6,4,0,0,0,1,1,1,36
535375786,0,5000.0,1.0,0.0,2.5379646,0.0,0,0,0,0,0,1,0,0,1,0,15
535643042,535638755,1200.0,0.34361058,0.8819763,1.8420649,0.0,42,190,6,0,0,0,0,1,1,1,36
535672521,535670177,1200.0,0.34361058,0.8819763,1.8420649,0.0,10,250,6,0,0,0,0,1,1,1,36
535796540,535788331,1200.0,0.34361058,0.8819763,1.8420649,0.0,218,0,6,4,0,0,0,1,1,1,36
536378356,0,5000.0,1.0,0.0,2.5802372,0.0,0,0,0,0,0,1,0,0,1,0,15
536653468,536650237,1200.0,0.34361058,0.88942915,1.3534791,0.0,10,250,6,0,0,0,0,1,1,1,36
536822698,536813374,1200.0,0.34361058,0.88942915,1.3534791,0.0,218,0,6,4,0,0,0,1,1,1,36
537381134,0,5000.0,1.0,0.0,2.5147674,0.0,0,0,0,0,0,1,0,0,1,0,15
537647459,537640358,1200.0,0.34361058,0.8682263,1.268564,0.0,42,190,6,0,0,0,0,1,1,1,36
537661649,537651247,1200.0,0.34361058,0.8682263,1.268564,0.0,10,250,6,0,0,0,0,1,1,1,36
537909995,537900350,1200.0,0.34361058,0.8682263,1.268564,0.0,218,0,6,4,0,0,0,1,1,1,36
538381379,0,5000.0,1.0,0.0,2.6083453,0.0,0,0,0,0,0,1,0,0,1,0,15
538646330,538644567,1200.0,0.34361058,0.7858334,1.3991425,0.0,42,190,6,0,0,0,0,1,1,1,36
538656566,538654388,1200.0,0.34361058,0.7858334,1.3991425,0.0,10,250,6,0,0,0,0,1,1,1,36
538939997,538939146,1200.0,0.34361058,0.84719276,1.2241638,0.0,218,0,6,4,0,0,0,1,1,1,36
539384828,0,5000.0,1.0,0.0,2.55561,0.0,0,0,0,0,0,1,0,0,1,0,15
539668334,539667243,1200.0,0.34361058,0.84719276,1.2241638,0.0,42,190,6,0,0,0,0,1,1,1,36
539978472,539970245,1200.0,0.34361058,0.8920225,1.4254481,0.0,218,0,6,4,0,0,0,1,1,1,36
540386503,0,5000.0,1.0,0.0,2.6034906,0.0,0,0,0,0,0,1,0,0,1,0,15
540661740,540655066,1200.0,0.34361058,0.8920225,1.4254481,0.0,42,190,6,0,0,0,0,1,1,1,36
541011546,541008247,1200.0,0.34361058,0.904178,1.4650478,0.0,218,0,6,4,0,0,0,1,1,1,36
541387609,0,5000.0,1.0,0.0,2.5400941,0.0,0,0,0,0,0,1,0,0,1,0,15
541646797,541641460,1200.0,0.34361058,0.904178,1.4650478,0.0,42,190,6,0,0,0,0,1,1,1,36
541657589,541651284,1200.0,0.34361058,0.904178,1.4650478,0.0,10,250,6,0,0,0,0,1,1,1,36
542098662,542098363,1200.0,0.34361058,0.86047924,1.3606886,0.0,218,0,6,4,0,0,0,1,1,1,36
542389593,0,5000.0,1.0,0.0,2.5609114,0.0,0,0,0,0,0,1,0,0,1,0,15
542660003,542652119,1200.0,0.34361058,0.86047924,1.3606886,0.0,10,250,6,0,0,0,0,1,1,1,36
542669480,542664292,1200.0,0.34361058,0.86047924,1.3606886,0.0,42,190,6,0,0,0,0,1,1,1,36
543133391,543124271,1200.0,0.34361058,0.91295284,1.3251257,0.0,218,0,6,4,0,0,0,1,1,1,36
543391270,0,5000.0,1.0,0.0,2.559531,0.0,0,0,0,0,0,1,0,0,1,0,15
543661568,543655460,1200.0,0.34361058,0.91295284,1.3251257,0.0,10,250,6,0,0,0,0,1,1,1,36
543671330,543668816,1200.0,0.34361058,0.91295284,1.3251257,0.0,42,190,6,0,0,0,0,1,1,1,36
544191223,544181295,1200.0,0.34361058,0.85474527,1.4245754,0.0,218,0,6,4,0,0,0,1,1,1,36
544391769,0,5000.0,1.0,0.0,2.5857303,0.0,0,0,0,0,0,1,0,0,1,0,15
544656811,544654155,1200.0,0.34361058,0.85474527,1.4245754,0.0,10,250,6,0,0,0,0,1,1,1,36
544688392,544680296,1200.0,0.34361058,0.85474527,1.4245754,0.0,42,190,6,0,0,0,0,1,1,1,36
545219330,545212640,1200.0,0.34361058,0.99527615,1.2797834,0.0,218,0,6,4,0,0,0,1,1,1,36
545393344,0,5000.0,1.0,0.0,2.5389833,0.0,0,0,0,0,0,1,0,0,1,0,15
545656768,545649592,1200.0,0.34361058,0.99527615,1.2797834,0.0,10,250,6,0,0,0,0,1,1,1,36
545666430,545659786,1200.0,0.34361058,0.99527615,1.2797834,0.0,42,190,6,0,0,0,0,1,1,1,36
546304612,546298790,1200.0,0.34361058,0.84156764,1.5823069,0.0,218,0,6,4,0,0,0,1,1,1,36
546396292,0,5000.0,1.0,0.0,2.5389833,0.0,0,0,0,0,0,1,0,0,1,0,15
546730653,546730327,1200.0,0.34361058,0.84156764,1.5823069,0.0,42,190,6,0,0,0,0,1,1,1,36
547331893,547326266,1200.0,0.34361058,0.8955683,1.261392,0.0,218,0,6,4,0,0,0,1,1,1,36
547396313,0,5000.0,1.0,0.0,2.6196976,0.0,0,0,0,0,0,1,0,0,1,0,15
547653547,547646251,1200.0,0.34361058,0.8955683,1.261392,0.0,10,250,6,0,0,0,0,1,1,1,36
547684002,547679759,1200.0,0.34361058,0.8955683,1.261392,0.0,42,190,6,0,0,0,0,1,1,1,36
548358381,548352410,1200.0,0.34361058,0.86862236,1.4058228,0.0,218,0,6,4,0,0,0,1,1,1,36
548398774,0,5000.0,1.0,0.0,2.583429,0.0,0,0,0,0,0,1,0,0,1,0,15
548659063,548655248,1200.0,0.34361058,0.86862236,1.4058228,0.0,10,250,6,0,0,0,0,1,1,1,36
548670387,548667757,1200.0,0.34361058,0.86862236,1.4058228,0.0,42,190,6,0,0,0,0,1,1,1,36
549400646,0,5000.0,1.0,0.0,2.5391777,0.0,0,0,0,0,0,1,0,0,1,0,15
549461487,549460304,1200.0,0.34361058,0.8652488,1.3216329,0.0,218,0,6,4,0,0,0,1,1,1,36
549657382,549655775,1200.0,0.34361058,0.8652488,1.3216329,0.0,10,250,6,0,0,0,0,1,1,1,36
549707798,549705300,1200.0,0.34361058,0.8652488,1.3216329,0.0,42,190,6,0,0,0,0,1,1,1,36
550402261,0,5000.0,1.0,0.0,2.5196843,0.0,0,0,0,0,0,1,0,0,1,0,15
550492031,550486243,1200.0,0.34361058,0.9752497,1.4957818,0.0,218,0,6,4,0,0,0,1,1,1,36
550655600,550651250,1200.0,0.34361058,0.9752497,1.4957818,0.0,10,250,6,0,0,0,0,1,1,1,36
550697906,550691260,1200.0,0.34361058,0.9752497,1.4957818,0.0,42,190,6,0,0,0,0,1,1,1,36
551403010,0,5000.0,1.0,0.0,2.6001651,0.0,0,0,0,0,0,1,0,0,1,0,15
551520669,551515030,1200.0,0.34361058,0.8673052,1.2374481,0.0,218,0,6,4,0,0,0,1,1,1,36
551663773,551660257,1200.0,0.34361058,0.8673052,1.2374481,0.0,10,250,6,0,0,0,0,1,1,1,36
551716533,551711531,1200.0,0.34361058,0.8673052,1.2374481,0.0,42,190,6,0,0,0,0,1,1,1,36
552404766,0,5000.0,1.0,0.0,2.5634205,0.0,0,0,0,0,0,1,0,0,1,0,15
552613493,552604545,1200.0,0.34361058,0.88105893,1.4750761,0.0,218,0,6,4,0,0,0,1,1,1,36
552669644,552664918,1200.0,0.34361058,0.88105893,1.4750761,0.0,10,250,6,0,0,0,0,1,1,1,36
552716276,552710255,1200.0,0.34361058,0.88105893,1.4750761,0.0,42,190,6,0,0,0,0,1,1,1,36
553406533,0,5000.0,1.0,0.0,2.562341,0.0,0,0,0,0,0,1,0,0,1,0,15
553640394,553638377,1200.0,0.34361058,0.9938033,1.4020256,0.0,218,0,6,4,0,0,0,1,1,1,36
553694408,553686518,1200.0,0.34361058,0.9938033,1.4020256,0.0,10,250,6,0,0,0,0,1,1,1,36
553718564,553711248,1200.0,0.34361058,0.9938033,1.4020256,0.0,42,190,6,0,0,0,0,1,1,1,36
554409168,0,5000.0,1.0,0.0,2.511269,0.0,0,0,0,0,0,1,0,0,1,0,15
554665639,554657514,1200.0,0.34361058,0.8332081,1.2641437,0.0,10,250,6,0,0,0,0,1,1,1,36
554697421,554690315,1200.0,0.34361058,0.8332081,1.2641437,0.0,42,190,6,0,0,0,0,1,1,1,36
554730285,554720560,1200.0,0.34361058,0.8332081,1.2641437,0.0,218,0,6,4,0,0,0,1,1,1,36
555410910,0,5000.0,1.0,0.0,2.6284163,0.0,0,0,0,0,0,1,0,0,1,0,15
555652057,555644346,1200.0,0.34361058,0.9468384,1.5925901,0.0,10,250,6,0,0,0,0,1,1,1,36
555701937,555694316,1200.0,0.34361058,0.9468384,1.5925901,0.0,42,190,6,0,0,0,0,1,1,1,36
555754204,555748069,1200.0,0.34361058,0.9468384,1.5925901,0.0,218,0,6,4,0,0,0,1,1,1,36
556411830,0,5000.0,1.0,0.0,2.5153544,0.0,0,0,0,0,0,1,0,0,1,0,15
556665667,556661428,1200.0,0.34361058,0.8207637,1.2869256,0.0,10,250,6,0,0,0,0,1,1,1,36
556697623,556691594,1200.0,0.34361058,0.8207637,1.2869256,0.0,42,190,6,0,0,0,0,1,1,1,36
556785456,556784312,1200.0,0.34361058,0.8207637,1.2869256,0.0,218,0,6,4,0,0,0,1,1,1,36
557412274,0,5000.0,1.0,0.0,2.590653,0.0,0,0,0,0,0,1,0,0,1,0,15
557657547,557651246,1200.0,0.34361058,0.90675396,1.2932392,0.0,10,250,6,0,0,0,0,1,1,1,36
557721977,557714285,1200.0,0.34361058,0.90675396,1.2932392,0.0,42,190,6,0,0,0,0,1,1,1,36
557858147,557851356,1200.0,0.34361058,0.90675396,1.2932392,0.0,218,0,6,4,0,0,0,1,1,1,36
558412331,0,5000.0,1.0,0.0,2.5190952,0.0,0,0,0,0,0,1,0,0,1,0,15
558667997,558659566,1200.0,0.34361058,0.89850485,1.3178071,0.0,10,250,6,0,0,0,0,1,1,1,36
558700704,558700245,1200.0,0.34361058,0.89850485,1.3178071,0.0,42,190,6,0,0,0,0,1,1,1,36
558868850,558868582,1200.0,0.34361058,0.89850485,1.3178071,0.0,218,0,6,4,0,0,0,1,1,1,36
559413060,0,5000.0,1.0,0.0,2.6053088,0.0,0,0,0,0,0,1,0,0,1,0,15
559657551,559652600,1200.0,0.34361058,0.93460834,1.6408012,0.0,10,250,6,0,0,0,0,1,1,1,36
559717593,559711249,1200.0,0.34361058,0.93460834,1.6408012,0.0,42,190,6,0,0,0,0,1,1,1,36
559917441,559913400,1200.0,0.34361058,0.93460834,1.6408012,0.0,218,0,6,4,0,0,0,1,1,1,36
560415171,0,5000.0,1.0,0.0,2.5571315,0.0,0,0,0,0,0,1,0,0,1,0,15
560656477,560654130,1200.0,0.34361058,0.88464975,1.2343489,0.0,10,250,6,0,0,0,0,1,1,1,36
560719010,560715445,1200.0,0.34361058,0.88464975,1.2343489,0.0,42,190,6,0,0,0,0,1,1,1,36
560995221,560994962,1200.0,0.34361058,0.88464975,1.2343489,0.0,218,0,6,4,0,0,0,1,1,1,36
561417485,0,5000.0,1.0,0.0,2.5607607,0.0,0,0,0,0,0,1,0,0,1,0,15
561652100,561645487,1200.0,0.34361058,0.84150374,1.5272844,0.0,10,250,6,0,0,0,0,1,1,1,36
561736882,561730307,1200.0,0.34361058,0.84150374,1.5272844,0.0,42,190,6,0,0,0,0,1,1,1,36
562027520,562021417,1200.0,0.34361058,0.84150374,1.5272844,0.0,218,0,6,4,0,0,0,1,1,1,36
562419441,0,5000.0,1.0,0.0,2.5605662,0.0,0,0,0,0,0,1,0,0,1,0,15
562658788,562650295,1200.0,0.34361058,0.89631426,1.4398984,0.0,10,250,6,0,0,0,0,1,1,1,36
562730481,562724400,1200.0,0.34361058,0.89631426,1.4398984,0.0,42,190,6,0,0,0,0,1,1,1,36
563075424,563066641,1200.0,0.34361058,0.7703937,1.3082722,0.0,218,0,6,4,0,0,0,1,1,1,36
563420044,0,5000.0,1.0,0.0,2.5619009,0.0,0,0,0,0,0,1,0,0,1,0,15
563657382,563653332,1200.0,0.34361058,0.7703937,1.3082722,0.0,10,250,6,0,0,0,0,1,1,1,36
563749387,563741241,1200.0,0.34361058,0.7703937,1.3082722,0.0,42,190,6,0,0,0,0,1,1,1,36
564116733,564107933,1200.0,0.34361058,0.8702863,1.4628004,0.0,218,0,6,4,0,0,0,1,1,1,36
564422462,0,5000.0,1.0,0.0,2.5814755,0.0,0,0,0,0,0,1,0,0,1,0,15
564659434,564651269,1200.0,0.34361058,0.8702863,1.4628004,0.0,10,250,6,0,0,0,0,1,1,1,36
564740849,564731266,1200.0,0.34361058,0.8702863,1.4628004,0.0,42,190,6,0,0,0,0,1,1,1,36
565216521,565216208,1200.0,0.34361058,0.92083234,1.4677328,0.0,218,0,6,4,0,0,0,1,1,1,36
565423309,0,5000.0,1.0,0.0,2.5588284,0.0,0,0,0,0,0,1,0,0,1,0,15
565649588,565644301,1200.0,0.34361058,0.92083234,1.4677328,0.0,10,250,6,0,0,0,0,1,1,1,36
565734492,565731314,1200.0,0.34361058,0.92083234,1.4677328,0.0,42,190,6,0,0,0,0,1,1,1,36
566255443,566250684,1200.0,0.34361058,0.92919916,1.275528,0.0,218,0,6,4,0,0,0,1,1,1,36
566425357,0,5000.0,1.0,0.0,2.5826893,0.0,0,0,0,0,0,1,0,0,1,0,15
566651586,566651281,1200.0,0.34361058,0.92919916,1.275528,0.0,10,250,6,0,0,0,0,1,1,1,36
566756049,566750251,1200.0,0.34361058,0.92919916,1.275528,0.0,42,190,6,0,0,0,0,1,1,1,36
567284302,567276268,1200.0,0.34361058,0.82529104,1.4287726,0.0,218,0,6,4,0,0,0,1,1,1,36
567431934,0,5000.0,1.0,0.0,2.5411448,0.0,0,0,0,0,0,1,0,0,1,0,15
567656375,567648363,1200.0,0.34361058,0.82529104,1.4287726,0.0,10,250,6,0,0,0,0,1,1,1,36
567755155,567748506,1200.0,0.34361058,0.82529104,1.4287726,0.0,42,190,6,0,0,0,0,1,1,1,36
568321676,568314735,1200.0,0.34361058,0.93307585,1.2908046,0.0,218,0,6,4,0,0,0,1,1,1,36
568434408,0,5000.0,1.0,0.0,2.583636,0.0,0,0,0,0,0,1,0,0,1,0,15
568657161,568646293,1200.0,0.34361058,0.93307585,1.2908046,0.0,10,250,6,0,0,0,0,1,1,1,36
568746371,568744926,1200.0,0.34361058,0.93307585,1.2908046,0.0,42,190,6,0,0,0,0,1,1,1,36
569427256,569419447,1200.0,0.34361058,0.8797648,1.3096951,0.0,218,0,6,4,0,0,0,1,1,1,36
569436062,0,5000.0,1.0,0.0,2.5362477,0.0,0,0,0,0,0,1,0,0,1,0,15
569650659,569648338,1200.0,0.34361058,0.8797648,1.3096951,0.0,10,250,6,0,0,0,0,1,1,1,36
569725928,569724416,1200.0,0.34361058,0.8797648,1.3096951,0.0,42,190,6,0,0,0,0,1,1,1,36
570430778,570430468,1200.0,0.34361058,0.90665245,1.5685582,0.0,218,0,6,4,0,0,0,1,1,1,36
570436323,0,5000.0,1.0,0.0,2.4982905,0.0,0,0,0,0,0,1,0,0,1,0,15
570648598,570644283,1200.0,0.34361058,0.90665245,1.5685582,0.0,10,250,6,0,0,0,0,1,1,1,36
570764293,570757335,1200.0,0.34361058,0.90665245,1.5685582,0.0,42,190,6,0,0,0,0,1,1,1,36
571438677,0,5000.0,1.0,0.0,2.582936,0.0,0,0,0,0,0,1,0,0,1,0,15
571458489,571455248,1200.0,0.34361058,0.9010975,1.3835435,0.0,218,0,6,4,0,0,0,1,1,1,36
571655472,571650270,1200.0,0.34361058,0.9010975,1.3835435,0.0,10,250,6,0,0,0,0,1,1,1,36
571761587,571759293,1200.0,0.34361058,0.9010975,1.3835435,0.0,42,190,6,0,0,0,0,1,1,1,36
572440065,0,5000.0,1.0,0.0,2.579249,0.0,0,0,0,0,0,1,0,0,1,0,15
572548409,572545301,1200.0,0.34361058,0.86073774,1.3292406,0.0,218,0,6,4,0,0,0,1,1,1,36
572653468,572649570,1200.0,0.34361058,0.86073774,1.3292406,0.0,10,250,6,0,0,0,0,1,1,1,36
572742803,572742348,1200.0,0.34361058,0.86073774,1.3292406,0.0,42,190,6,0,0,0,0,1,1,1,36
573441478,0,5000.0,1.0,0.0,2.5562181,0.0,0,0,0,0,0,1,0,0,1,0,15
573590416,573585471,1200.0,0.34361058,0.91594595,1.3769187,0.0,218,0,6,4,0,0,0,1,1,1,36
573651556,573651253,1200.0,0.34361058,0.91594595,1.3769187,0.0,10,250,6,0,0,0,0,1,1,1,36
573752386,573750253,1200.0,0.34361058,0.91594595,1.3769187,0.0,42,190,6,0,0,0,0,1,1,1,36
574443540,0,5000.0,1.0,0.0,2.5537379,0.0,0,0,0,0,0,1,0,0,1,0,15
574608776,574608264,1200.0,0.34361058,0.91881907,1.1930786,0.0,218,0,6,4,0,0,0,1,1,1,36
574663046,574659713,1200.0,0.34361058,0.91881907,1.1930786,0.0,10,250,6,0,0,0,0,1,1,1,36
574768338,574764319,1200.0,0.34361058,0.91881907,1.1930786,0.0,42,190,6,0,0,0,0,1,1,1,36
575444603,0,5000.0,1.0,0.0,2.5791845,0.0,0,0,0,0,0,1,0,0,1,0,15
575653521,575650275,1200.0,0.34361058,0.84615976,1.7668054,0.0,10,250,6,0,0,0,0,1,1,1,36
575708882,575707839,1200.0,0.34361058,0.84615976,1.7668054,0.0,218,0,6,4,0,0,0,1,1,1,36
575758415,575750638,1200.0,0.34361058,0.84615976,1.7668054,0.0,42,190,6,0,0,0,0,1,1,1,36
576446277,0,5000.0,1.0,0.0,2.5561378,0.0,0,0,0,0,0,1,0,0,1,0,15
576655330,576650216,1200.0,0.34361058,0.90930593,1.3286798,0.0,10,250,6,0,0,0,0,1,1,1,36
576755821,576751700,1200.0,0.34361058,0.90930593,1.3286798,0.0,218,0,6,4,0,0,0,1,1,1,36
576810325,576804020,1200.0,0.34361058,0.90930593,1.3286798,0.0,42,190,6,0,0,0,0,1,1,1,36
577449056,0,5000.0,1.0,0.0,2.5665777,0.0,0,0,0,0,0,1,0,0,1,0,15
577655522,577649308,1200.0,0.34361058,0.92937905,1.3995239,0.0,10,250,6,0,0,0,0,1,1,1,36
577775106,577772588,1200.0,0.34361058,0.92937905,1.3995239,0.0,42,190,6,0,0,0,0,1,1,1,36
577784585,577777288,1200.0,0.34361058,0.92937905,1.3995239,0.0,218,0,6,4,0,0,0,1,1,1,36
578451460,0,5000.0,1.0,0.0,2.5845344,0.0,0,0,0,0,0,1,0,0,1,0,15
578667589,578667099,1200.0,0.34361058,0.86761266,1.35084,0.0,10,250,6,0,0,0,0,1,1,1,36
578772714,578771275,1200.0,0.34361058,0.86761266,1.35084,0.0,42,190,6,0,0,0,0,1,1,1,36
578803334,578796606,1200.0,0.34361058,0.86761266,1.35084,0.0,218,0,6,4,0,0,0,1,1,1,36
579452031,0,5000.0,1.0,0.0,2.5588443,0.0,0,0,0,0,0,1,0,0,1,0,15
579659064,579650995,1200.0,0.34361058,0.8699183,1.3237886,0.0,10,250,6,0,0,0,0,1,1,1,36
579783304,579780346,1200.0,0.34361058,0.8699183,1.3237886,0.0,42,190,6,0,0,0,0,1,1,1,36
579900081,579891058,1200.0,0.34361058,0.8699183,1.3237886,0.0,218,0,6,4,0,0,0,1,1,1,36
580453454,0,5000.0,1.0,0.0,2.6236951,0.0,0,0,0,0,0,1,0,0,1,0,15
580657971,580652552,1200.0,0.34361058,0.93765247,1.3406352,0.0,10,250,6,0,0,0,0,1,1,1,36
580795840,580794314,1200.0,0.34361058,0.93765247,1.3406352,0.0,42,190,6,0,0,0,0,1,1,1,36
580941523,580936298,1200.0,0.34361058,0.93765247,1.3406352,0.0,218,0,6,4,0,0,0,1,1,1,36
581455031,0,5000.0,1.0,0.0,2.5160484,0.0,0,0,0,0,0,1,0,0,1,0,15
581660473,581655019,1200.0,0.34361058,0.87271273,1.4967922,0.0,10,250,6,0,0,0,0,1,1,1,36
581798470,581796254,1200.0,0.34361058,0.87271273,1.4967922,0.0,42,190,6,0,0,0,0,1,1,1,36
581958238,581956307,1200.0,0.34361058,0.87271273,1.4967922,0.0,218,0,6,4,0,0,0,1,1,1,36
582456727,0,5000.0,1.0,0.0,2.605418,0.0,0,0,0,0,0,1,0,0,1,0,15
582656854,582653332,1200.0,0.34361058,0.84445053,1.3479493,0.0,10,250,6,0,0,0,0,1,1,1,36
582773396,582769515,1200.0,0.34361058,0.84445053,1.3479493,0.0,42,190,6,0,0,0,0,1,1,1,36
582999962,582997298,1200.0,0.34361058,0.84445053,1.3479493,0.0,218,0,6,4,0,0,0,1,1,1,36
583459904,0,5000.0,1.0,0.0,2.5370147,0.0,0,0,0,0,0,1,0,0,1,0,15
583661684,583653474,1200.0,0.34361058,0.9922833,1.3543727,0.0,10,250,6,0,0,0,0,1,1,1,36
583811923,583804367,1200.0,0.34361058,0.9922833,1.3543727,0.0,42,190,6,0,0,0,0,1,1,1,36
584095449,584092608,1200.0,0.34361058,0.9922833,1.3543727,0.0,218,0,6,4,0,0,0,1,1,1,36
584461436,0,5000.0,1.0,0.0,2.5686996,0.0,0,0,0,0,0,1,0,0,1,0,15
584653516,584649320,1200.0,0.34361058,0.89247465,1.4867952,0.0,10,250,6,0,0,0,0,1,1,1,36
584824617,584820293,1200.0,0.34361058,0.89247465,1.4867952,0.0,42,190,6,0,0,0,0,1,1,1,36
585103577,585099250,1200.0,0.34361058,0.89247465,1.4867952,0.0,218,0,6,4,0,0,0,1,1,1,36
585462272,0,5000.0,1.0,0.0,2.559179,0.0,0,0,0,0,0,1,0,0,1,0,15
585653673,585653376,1200.0,0.34361058,0.9216077,1.3794322,0.0,10,250,6,0,0,0,0,1,1,1,36
585819455,585818283,1200.0,0.34361058,0.9216077,1.3794322,0.0,42,190,6,0,0,0,0,1,1,1,36
586149597,586142252,1200.0,0.34361058,0.9216077,1.3794322,0.0,218,0,6,4,0,0,0,1,1,1,36
586463287,0,5000.0,1.0,0.0,2.5805936,0.0,0,0,0,0,0,1,0,0,1,0,15
586654373,586654342,1200.0,0.34361058,0.8209729,1.2823957,0.0,10,250,6,0,0,0,0,1,1,1,36
586813146,586808401,1200.0,0.34361058,0.8209729,1.2823957,0.0,42,190,6,0,0,0,0,1,1,1,36
587221641,587220248,1200.0,0.34361058,0.73372734,1.2463449,0.0,218,0,6,4,0,0,0,1,1,1,36
587469750,0,5000.0,1.0,0.0,2.53705,0.0,0,0,0,0,0,1,0,0,1,0,15
587652464,587651963,1200.0,0.34361058,0.73372734,1.2463449,0.0,10,250,6,0,0,0,0,1,1,1,36
587826303,587826087,1200.0,0.34361058,0.73372734,1.2463449,0.0,42,190,6,0,0,0,0,1,1,1,36
588245574,588245414,1200.0,0.34361058,0.93886966,1.5864004,0.0,218,0,6,4,0,0,0,1,1,1,36
588474766,0,5000.0,1.0,0.0,2.560409,0.0,0,0,0,0,0,1,0,0,1,0,15
588651536,588651422,1200.0,0.34361058,0.93886966,1.5864004,0.0,10,250,6,0,0,0,0,1,1,1,36
588824415,588815252,1200.0,0.34361058,0.93886966,1.5864004,0.0,42,190,6,0,0,0,0,1,1,1,36
589297172,589286284,1200.0,0.34361058,0.85999477,1.1503052,0.0,218,0,6,4,0,0,0,1,1,1,36
589476548,0,5000.0,1.0,0.0,2.560593,0.0,0,0,0,0,0,1,0,0,1,0,15
589666786,589656535,1200.0,0.34361058,0.85999477,1.1503052,0.0,10,250,6,0,0,0,0,1,1,1,36
589839836,589833383,1200.0,0.34361058,0.85999477,1.1503052,0.0,42,190,6,0,0,0,0,1,1,1,36
590332917,590332340,1200.0,0.34361058,0.9557218,1.9144428,0.0,218,0,6,4,0,0,0,1,1,1,36
590478395,0,5000.0,1.0,0.0,2.6816258,0.0,0,0,0,0,0,1,0,0,1,0,15
590669424,590661454,1200.0,0.34361058,0.9557218,1.9144428,0.0,10,250,6,0,0,0,0,1,1,1,36
590825627,590815252,1200.0,0.34361058,0.9557218,1.9144428,0.0,42,190,6,0,0,0,0,1,1,1,36
591435037,591421333,1200.0,0.34361058,0.86811244,1.1362936,0.0,218,0,6,4,0,0,0,1,1,1,36
591480127,0,5000.0,1.0,0.0,2.5394883,0.0,0,0,0,0,0,1,0,0,1,0,15
591656644,591652264,1200.0,0.34361058,0.86811244,1.1362936,0.0,10,250,6,0,0,0,0,1,1,1,36
591824360,591820295,1200.0,0.34361058,0.86811244,1.1362936,0.0,42,190,6,0,0,0,0,1,1,1,36
592442385,592440247,1200.0,0.34361058,0.8975469,1.4354806,0.0,218,0,6,4,0,0,0,1,1,1,36
592481430,0,5000.0,1.0,0.0,2.5621507,0.0,0,0,0,0,0,1,0,0,1,0,15
592654206,592653131,1200.0,0.34361058,0.8975469,1.4354806,0.0,10,250,6,0,0,0,0,1,1,1,36
592848798,592841916,1200.0,0.34361058,0.8975469,1.4354806,0.0,42,190,6,0,0,0,0,1,1,1,36
593482976,0,5000.0,1.0,0.0,2.5368147,0.0,0,0,0,0,0,1,0,0,1,0,15
593541206,593536260,1200.0,0.34361058,0.8876816,1.3837969,0.0,218,0,6,4,0,0,0,1,1,1,36
593655542,593655301,1200.0,0.34361058,0.8876816,1.3837969,0.0,10,250,6,0,0,0,0,1,1,1,36
593827548,593826903,1200.0,0.34361058,0.8876816,1.3837969,0.0,42,190,6,0,0,0,0,1,1,1,36
594485527,0,5000.0,1.0,0.0,2.494315,0.0,0,0,0,0,0,1,0,0,1,0,15
594578076,594571730,1200.0,0.34361058,0.8833772,1.4369869,0.0,218,0,6,4,0,0,0,1,1,1,36
594670334,594662266,1200.0,0.34361058,0.8833772,1.4369869,0.0,10,250,6,0,0,0,0,1,1,1,36
594874010,594864339,1200.0,0.34361058,0.8833772,1.4369869,0.0,42,190,6,0,0,0,0,1,1,1,36
595487698,0,5000.0,1.0,0.0,2.560759,0.0,0,0,0,0,0,1,0,0,1,0,15
595591132,595583254,1200.0,0.34361058,0.96141845,1.3497796,0.0,218,0,6,4,0,0,0,1,1,1,36
595654404,595651483,1200.0,0.34361058,0.96141845,1.3497796,0.0,10,250,6,0,0,0,0,1,1,1,36
595841729,595830314,1200.0,0.34361058,0.96141845,1.3497796,0.0,42,190,6,0,0,0,0,1,1,1,36
596489018,0,5000.0,1.0,0.0,2.5753253,0.0,0,0,0,0,0,1,0,0,1,0,15
596621382,596617540,1200.0,0.34361058,0.7822433,1.4419186,0.0,218,0,6,4,0,0,0,1,1,1,36
596676512,596663840,1200.0,0.34361058,0.7822433,1.4419186,0.0,10,250,6,0,0,0,0,1,1,1,36
596867566,596860307,1200.0,0.34361058,0.7822433,1.4419186,0.0,42,190,6,0,0,0,0,1,1,1,36
597490328,0,5000.0,1.0,0.0,2.5374603,0.0,0,0,0,0,0,1,0,0,1,0,15
597671463,597671250,1200.0,0.34361058,0.95120114,1.2586501,0.0,10,250,6,0,0,0,0,1,1,1,36
597724696,597719301,1200.0,0.34361058,0.95120114,1.2586501,0.0,218,0,6,4,0,0,0,1,1,1,36
597861432,597859339,1200.0,0.34361058,0.95120114,1.2586501,0.0,42,190,6,0,0,0,0,1,1,1,36
598492302,0,5000.0,1.0,0.0,2.5808716,0.0,0,0,0,0,0,1,0,0,1,0,15
598644517,598644326,1200.0,0.34361058,0.8716256,1.403901,0.0,10,250,6,0,0,0,0,1,1,1,36
598723731,598722767,1200.0,0.34361058,0.8716256,1.403901,0.0,218,0,6,4,0,0,0,1,1,1,36
598836606,598832334,1200.0,0.34361058,0.8716256,1.403901,0.0,42,190,6,0,0,0,0,1,1,1,36
599494947,0,5000.0,1.0,0.0,2.556468,0.0,0,0,0,0,0,1,0,0,1,0,15
599657718,599651250,1200.0,0.34361058,0.9852771,1.540669,0.0,10,250,6,0,0,0,0,1,1,1,36
599784357,599774465,1200.0,0.34361058,0.9852771,1.540669,0.0,218,0,6,4,0,0,0,1,1,1,36
599846334,599841509,1200.0,0.34361058,0.9852771,1.540669,0.0,42,190,6,0,0,0,0,1,1,1,36
600500707,0,5000.0,1.0,0.0,2.584444,0.0,0,0,0,0,0,1,0,0,1,0,15
600663857,600663508,1200.0,0.34361058,0.8013076,1.3048725,0.0,10,250,6,0,0,0,0,1,1,1,36
600847827,600839300,1200.0,0.34361058,0.8013076,1.3048725,0.0,218,0,6,4,0,0,0,1,1,1,36
600898481,600893412,1200.0,0.34361058,0.8013076,1.3048725,0.0,42,190,6,0,0,0,0,1,1,1,36
601501605,0,5000.0,1.0,0.0,2.5717587,0.0,0,0,0,0,0,1,0,0,1,0,15
601670362,601665361,1200.0,0.34361058,0.9347332,1.4604583,0.0,10,250,6,0,0,0,0,1,1,1,36
601904374,601901289,1200.0,0.34361058,0.9347332,1.4604583,0.0,218,0,6,4,0,0,0,1,1,1,36
602502398,0,5000.0,1.0,0.0,2.5411563,0.0,0,0,0,0,0,1,0,0,1,0,15
602653489,602651725,1200.0,0.34361058,0.83864236,1.2544817,0.0,10,250,6,0,0,0,0,1,1,1,36
602907602,602899261,1200.0,0.34361058,0.83864236,1.2544817,0.0,42,190,6,0,0,0,0,1,1,1,36
602981016,602972673,1200.0,0.34361058,0.83864236,1.2544817,0.0,218,0,6,4,0,0,0,1,1,1,36
603507740,0,5000.0,1.0,0.0,2.5610611,0.0,0,0,0,0,0,1,0,0,1,0,15
603655933,603652549,1200.0,0.34361058,0.8964071,1.2270818,0.0,10,250,6,0,0,0,0,1,1,1,36
603870981,603870383,1200.0,0.34361058,0.8964071,1.2270818,0.0,42,190,6,0,0,0,0,1,1,1,36
604040340,604032335,1200.0,0.34361058,0.8964071,1.2270818,0.0,218,0,6,4,0,0,0,1,1,1,36
604510363,0,5000.0,1.0,0.0,2.535046,0.0,0,0,0,0,0,1,0,0,1,0,15
604653702,604652520,1200.0,0.34361058,0.94263464,1.5209564,0.0,10,250,6,0,0,0,0,1,1,1,36
604875947,604874703,1200.0,0.34361058,0.94263464,1.5209564,0.0,42,190,6,0,0,0,0,1,1,1,36
605080894,605076011,1200.0,0.34361058,0.94263464,1.5209564,0.0,218,0,6,4,0,0,0,1,1,1,36
605511981,0,5000.0,1.0,0.0,2.5728645,0.0,0,0,0,0,0,1,0,0,1,0,15
605664374,605662278,1200.0,0.34361058,0.9092291,1.534262,0.0,10,250,6,0,0,0,0,1,1,1,36
605899609,605896325,1200.0,0.34361058,0.9092291,1.534262,0.0,42,190,6,0,0,0,0,1,1,1,36
606108413,606107958,1200.0,0.34361058,0.9092291,1.534262,0.0,218,0,6,4,0,0,0,1,1,1,36
606513810,0,5000.0,1.0,0.0,2.5828876,0.0,0,0,0,0,0,1,0,0,1,0,15
606654800,606650280,1200.0,0.34361058,0.9108592,1.273212,0.0,10,250,6,0,0,0,0,1,1,1,36
606892136,606883428,1200.0,0.34361058,0.9108592,1.273212,0.0,42,190,6,0,0,0,0,1,1,1,36
607145571,607141299,1200.0,0.34361058,0.9108592,1.273212,0.0,218,0,6,4,0,0,0,1,1,1,36
607514478,0,5000.0,1.0,0.0,2.533654,0.0,0,0,0,0,0,1,0,0,1,0,15
607663705,607660310,1200.0,0.34361058,0.8374732,1.3861281,0.0,10,250,6,0,0,0,0,1,1,1,36
607917631,607907259,1200.0,0.34361058,0.8374732,1.3861281,0.0,42,190,6,0,0,0,0,1,1,1,36
608173565,608172642,1200.0,0.34361058,0.8374732,1.3861281,0.0,218,0,6,4,0,0,0,1,1,1,36
608516282,0,5000.0,1.0,0.0,2.5817838,0.0,0,0,0,0,0,1,0,0,1,0,15
608661390,608655715,1200.0,0.34361058,0.9292444,1.3223863,0.0,10,250,6,0,0,0,0,1,1,1,36
608902517,608894295,1200.0,0.34361058,0.9292444,1.3223863,0.0,42,190,6,0,0,0,0,1,1,1,36
609255019,609254017,1200.0,0.34361058,0.9292444,1.3223863,0.0,218,0,6,4,0,0,0,1,1,1,36
609516401,0,5000.0,1.0,0.0,2.5408998,0.0,0,0,0,0,0,1,0,0,1,0,15
609653536,609646293,1200.0,0.34361058,0.7417634,1.2029946,0.0,10,250,6,0,0,0,0,1,1,1,36
609889596,609887367,1200.0,0.34361058,0.7417634,1.2029946,0.0,42,190,6,0,0,0,0,1,1,1,36
610304363,610300391,1200.0,0.34361058,0.9071907,1.564431,0.0,218,0,6,4,0,0,0,1,1,1,36
610516597,0,5000.0,1.0,0.0,2.6400907,0.0,0,0,0,0,0,1,0,0,1,0,15
610668028,610660281,1200.0,0.34361058,0.9071907,1.564431,0.0,10,250,6,0,0,0,0,1,1,1,36
610920571,610918651,1200.0,0.34361058,0.9071907,1.564431,0.0,42,190,6,0,0,0,0,1,1,1,36
611321928,611314323,1200.0,0.34361058,0.85839635,1.4862974,0.0,218,0,6,4,0,0,0,1,1,1,36
611517635,0,5000.0,1.0,0.0,2.5778692,0.0,0,0,0,0,0,1,0,0,1,0,15
611659914,611652028,1200.0,0.34361058,0.85839635,1.4862974,0.0,10,250,6,0,0,0,0,1,1,1,36
611932589,611928003,1200.0,0.34361058,0.85839635,1.4862974,0.0,42,190,6,0,0,0,0,1,1,1,36
612415071,612406632,1200.0,0.34361058,0.8312173,1.1759892,0.0,218,0,6,4,0,0,0,1,1,1,36
612519316,0,5000.0,1.0,0.0,2.594333,0.0,0,0,0,0,0,1,0,0,1,0,15
612659985,612651255,1200.0,0.34361058,0.8312173,1.1759892,0.0,10,250,6,0,0,0,0,1,1,1,36
612918442,612917916,1200.0,0.34361058,0.8312173,1.1759892,0.0,42,190,6,0,0,0,0,1,1,1,36
613440426,613433045,1200.0,0.34361058,0.9936724,1.4999202,0.0,218,0,6,4,0,0,0,1,1,1,36
613520726,0,5000.0,1.0,0.0,2.521193,0.0,0,0,0,0,0,1,0,0,1,0,15
613652332,613649419,1200.0,0.34361058,0.9936724,1.4999202,0.0,10,250,6,0,0,0,0,1,1,1,36
613929470,613929312,1200.0,0.34361058,0.9936724,1.4999202,0.0,42,190,6,0,0,0,0,1,1,1,36
614464356,614455269,1200.0,0.34361058,0.90859705,1.4190003,0.0,218,0,6,4,0,0,0,1,1,1,36
614522351,0,5000.0,1.0,0.0,2.5825887,0.0,0,0,0,0,0,1,0,0,1,0,15
614674892,614665349,1200.0,0.34361058,0.90859705,1.4190003,0.0,10,250,6,0,0,0,0,1,1,1,36
614927511,614927259,1200.0,0.34361058,0.90859705,1.4190003,0.0,42,190,6,0,0,0,0,1,1,1,36
615525316,0,5000.0,1.0,0.0,2.5798504,0.0,0,0,0,0,0,1,0,0,1,0,15
615561559,615553337,1200.0,0.34361058,0.9104414,1.2656628,0.0,218,0,6,4,0,0,0,1,1,1,36
615654778,615654323,1200.0,0.34361058,0.9104414,1.2656628,0.0,10,250,6,0,0,0,0,1,1,1,36
615956131,615955928,1200.0,0.34361058,0.9104414,1.2656628,0.0,42,190,6,0,0,0,0,1,1,1,36
616527603,0,5000.0,1.0,0.0,2.4784803,0.0,0,0,0,0,0,1,0,0,1,0,15
616581708,616575246,1200.0,0.34361058,0.823194,1.3456825,0.0,218,0,6,4,0,0,0,1,1,1,36
616666512,616659597,1200.0,0.34361058,0.823194,1.3456825,0.0,10,250,6,0,0,0,0,1,1,1,36
616954158,616946326,1200.0,0.34361058,0.823194,1.3456825,0.0,42,190,6,0,0,0,0,1,1,1,36
617531095,0,5000.0,1.0,0.0,2.5612824,0.0,0,0,0,0,0,1,0,0,1,0,15
617624566,617622530,1200.0,0.34361058,0.973454,1.7833439,0.0,218,0,6,4,0,0,0,1,1,1,36
617692818,617683002,1200.0,0.34361058,0.973454,1.7833439,0.0,10,250,6,0,0,0,0,1,1,1,36
617954306,617947162,1200.0,0.34361058,0.973454,1.7833439,0.0,42,190,6,0,0,0,0,1,1,1,36
618533375,0,5000.0,1.0,0.0,2.5419292,0.0,0,0,0,0,0,1,0,0,1,0,15
618658367,618658253,1200.0,0.34361058,0.8207005,1.1994854,0.0,10,250,6,0,0,0,0,1,1,1,36
618721659,618713190,1200.0,0.34361058,0.8207005,1.1994854,0.0,218,0,6,4,0,0,0,1,1,1,36
618951710,618951124,1200.0,0.34361058,0.8207005,1.1994854,0.0,42,190,6,0,0,0,0,1,1,1,36
619536326,0,5000.0,1.0,0.0,2.5804453,0.0,0,0,0,0,0,1,0,0,1,0,15
619662382,619660068,1200.0,0.34361058,0.98050153,1.6531017,0.0,10,250,6,0,0,0,0,1,1,1,36
619742691,619735273,1200.0,0.34361058,0.98050153,1.6531017,0.0,218,0,6,4,0,0,0,1,1,1,36
619958415,619958259,1200.0,0.34361058,0.98050153,1.6531017,0.0,42,190,6,0,0,0,0,1,1,1,36
620537415,0,5000.0,1.0,0.0,2.5605307,0.0,0,0,0,0,0,1,0,0,1,0,15
620660349,620653322,1200.0,0.34361058,0.81449074,1.1378914,0.0,10,250,6,0,0,0,0,1,1,1,36
620779247,620774487,1200.0,0.34361058,0.81449074,1.1378914,0.0,218,0,6,4,0,0,0,1,1,1,36
620934436,620933256,1200.0,0.34361058,0.81449074,1.1378914,0.0,42,190,6,0,0,0,0,1,1,1,36
621539150,0,5000.0,1.0,0.0,2.5587652,0.0,0,0,0,0,0,1,0,0,1,0,15
621659192,621655250,1200.0,0.34361058,0.8322318,1.3507532,0.0,10,250,6,0,0,0,0,1,1,1,36
621845951,621845560,1200.0,0.34361058,0.8322318,1.3507532,0.0,218,0,6,4,0,0,0,1,1,1,36
621948868,621942243,1200.0,0.34361058,0.8322318,1.3507532,0.0,42,190,6,0,0,0,0,1,1,1,36
622539429,0,5000.0,1.0,0.0,2.5212147,0.0,0,0,0,0,0,1,0,0,1,0,15
622659164,622654290,1200.0,0.34361058,0.9985061,1.470907,0.0,10,250,6,0,0,0,0,1,1,1,36
622901459,622891258,1200.0,0.34361058,0.9985061,1.470907,0.0,218,0,6,4,0,0,0,1,1,1,36
623018909,623012295,1200.0,0.34361058,0.9985061,1.470907,0.0,42,190,6,0,0,0,0,1,1,1,36
623540318,0,5000.0,1.0,0.0,2.6205585,0.0,0,0,0,0,0,1,0,0,1,0,15
623661567,623656397,1200.0,0.34361058,0.84101266,1.4635416,0.0,10,250,6,0,0,0,0,1,1,1,36
623901426,623900345,1200.0,0.34361058,0.84101266,1.4635416,0.0,218,0,6,4,0,0,0,1,1,1,36
624011035,624001506,1200.0,0.34361058,0.84101266,1.4635416,0.0,42,190,6,0,0,0,0,1,1,1,36
624540525,0,5000.0,1.0,0.0,2.5571523,0.0,0,0,0,0,0,1,0,0,1,0,15
624654122,624653892,1200.0,0.34361058,0.91138905,1.1743472,0.0,10,250,6,0,0,0,0,1,1,1,36
625006902,625000979,1200.0,0.34361058,0.91138905,1.1743472,0.0,218,0,6,4,0,0,0,1,1,1,36
625052839,625045606,1200.0,0.34361058,0.91138905,1.1743472,0.0,42,190,6,0,0,0,0,1,1,1,36
625541560,0,5000.0,1.0,0.0,2.5598452,0.0,0,0,0,0,0,1,0,0,1,0,15
625661824,625657294,1200.0,0.34361058,0.9764572,1.6853372,0.0,10,250,6,0,0,0,0,1,1,1,36
626008545,626003025,1200.0,0.34361058,0.9764572,1.6853372,0.0,42,190,6,0,0,0,0,1,1,1,36
626051500,626044327,1200.0,0.34361058,0.9764572,1.6853372,0.0,218,0,6,4,0,0,0,1,1,1,36
626546844,0,5000.0,1.0,0.0,2.5838864,0.0,0,0,0,0,0,1,0,0,1,0,15
626650110,626646357,1200.0,0.34361058,0.8344758,1.1175839,0.0,10,250,6,0,0,0,0,1,1,1,36
626995937,626992266,1200.0,0.34361058,0.8344758,1.1175839,0.0,42,190,6,0,0,0,0,1,1,1,36
627076937,627076270,1200.0,0.34361058,0.8344758,1.1175839,0.0,218,0,6,4,0,0,0,1,1,1,36
627549714,0,5000.0,1.0,0.0,2.5675273,0.0,0,0,0,0,0,1,0,0,1,0,15
627655881,627655594,1200.0,0.34361058,0.9306263,1.5695047,0.0,10,250,6,0,0,0,0,1,1,1,36
628003220,628002627,1200.0,0.34361058,0.9306263,1.5695047,0.0,42,190,6,0,0,0,0,1,1,1,36
628117621,628107174,1200.0,0.34361058,0.9306263,1.5695047,0.0,218,0,6,4,0,0,0,1,1,1,36
628551432,0,5000.0,1.0,0.0,2.586524,0.0,0,0,0,0,0,1,0,0,1,0,15
628654330,628651911,1200.0,0.34361058,0.85849255,1.292205,0.0,10,250,6,0,0,0,0,1,1,1,36
629015958,629013548,1200.0,0.34361058,0.85849255,1.292205,0.0,42,190,6,0,0,0,0,1,1,1,36
629179502,629173301,1200.0,0.34361058,0.85849255,1.292205,0.0,218,0,6,4,0,0,0,1,1,1,36
629555000,0,5000.0,1.0,0.0,2.598835,0.0,0,0,0,0,0,1,0,0,1,0,15
629654759,629651556,1200.0,0.34361058,0.95062894,1.4836175,0.0,10,250,6,0,0,0,0,1,1,1,36
630013050,630012822,1200.0,0.34361058,0.95062894,1.4836175,0.0,42,190,6,0,0,0,0,1,1,1,36
630229415,630228826,1200.0,0.34361058,0.95062894,1.4836175,0.0,218,0,6,4,0,0,0,1,1,1,36
630556390,0,5000.0,1.0,0.0,2.5843406,0.0,0,0,0,0,0,1,0,0,1,0,15
630663904,630659147,1200.0,0.34361058,0.7923922,1.345478,0.0,10,250,6,0,0,0,0,1,1,1,36
631043563,631035928,1200.0,0.34361058,0.7923922,1.345478,0.0,42,190,6,0,0,0,0,1,1,1,36
631301593,631295479,1200.0,0.34361058,0.7923922,1.345478,0.0,218,0,6,4,0,0,0,1,1,1,36
631558300,0,5000.0,1.0,0.0,2.5620322,0.0,0,0,0,0,0,1,0,0,1,0,15
631656596,631654250,1200.0,0.34361058,0.9078334,1.3332866,0.0,10,250,6,0,0,0,0,1,1,1,36
632020040,632011988,1200.0,0.34361058,0.9078334,1.3332866,0.0,42,190,6,0,0,0,0,1,1,1,36
632310673,632304890,1200.0,0.34361058,0.9078334,1.3332866,0.0,218,0,6,4,0,0,0,1,1,1,36
632559743,0,5000.0,1.0,0.0,2.6018577,0.0,0,0,0,0,0,1,0,0,1,0,15
632660681,632660410,1200.0,0.34361058,0.8982654,1.235614,0.0,10,250,6,0,0,0,0,1,1,1,36
633027463,633022620,1200.0,0.34361058,0.8982654,1.235614,0.0,42,190,6,0,0,0,0,1,1,1,36
633381637,633379255,1200.0,0.34361058,0.8982654,1.235614,0.0,218,0,6,4,0,0,0,1,1,1,36
633561502,0,5000.0,1.0,0.0,2.5582006,0.0,0,0,0,0,0,1,0,0,1,0,15
633657422,633651267,1200.0,0.34361058,0.8694202,1.4463718,0.0,10,250,6,0,0,0,0,1,1,1,36
634011525,634011455,1200.0,0.34361058,0.8694202,1.4463718,0.0,42,190,6,0,0,0,0,1,1,1,36
634444246,634438142,1200.0,0.34361058,0.77919036,1.444499,0.0,218,0,6,4,0,0,0,1,1,1,36
634563170,0,5000.0,1.0,0.0,2.557402,0.0,0,0,0,0,0,1,0,0,1,0,15
634656628,634654374,1200.0,0.34361058,0.77919036,1.444499,0.0,10,250,6,0,0,0,0,1,1,1,36
635035456,635035069,1200.0,0.34361058,0.77919036,1.444499,0.0,42,190,6,0,0,0,0,1,1,1,36
635470386,635468037,1200.0,0.34361058,0.8963505,1.3177543,0.0,218,0,6,4,0,0,0,1,1,1,36
635564544,0,5000.0,1.0,0.0,2.582374,0.0,0,0,0,0,0,1,0,0,1,0,15
635664859,635657688,1200.0,0.34361058,0.8963505,1.3177543,0.0,10,250,6,0,0,0,0,1,1,1,36
636043598,636043256,1200.0,0.34361058,0.8963505,1.3177543,0.0,42,190,6,0,0,0,0,1,1,1,36
636522308,636516255,1200.0,0.34361058,0.86457103,1.4770168,0.0,218,0,6,4,0,0,0,1,1,1,36
636565541,0,5000.0,1.0,0.0,2.5642638,0.0,0,0,0,0,0,1,0,0,1,0,15
636661605,636659296,1200.0,0.34361058,0.86457103,1.4770168,0.0,10,250,6,0,0,0,0,1,1,1,36
637037360,637036920,1200.0,0.34361058,0.86457103,1.4770168,0.0,42,190,6,0,0,0,0,1,1,1,36
637567952,637564067,1200.0,0.34361058,0.93019456,1.2256681,0.0,218,0,6,4,0,0,0,1,1,1,36
637568222,0,5000.0,1.0,0.0,2.561144,0.0,0,0,0,0,0,1,0,0,1,0,15
637671549,637665443,1200.0,0.34361058,0.93019456,1.2256681,0.0,10,250,6,0,0,0,0,1,1,1,36
638027484,638020508,1200.0,0.34361058,0.93019456,1.2256681,0.0,42,190,6,0,0,0,0,1,1,1,36
638570286,0,5000.0,1.0,0.0,2.4599702,0.0,0,0,0,0,0,1,0,0,1,0,15
638606335,638602010,1200.0,0.34361058,0.9076111,1.3847269,0.0,218,0,6,4,0,0,0,1,1,1,36
638661445,638650359,1200.0,0.34361058,0.9076111,1.3847269,0.0,10,250,6,0,0,0,0,1,1,1,36
639063461,639053385,1200.0,0.34361058,0.9076111,1.3847269,0.0,42,190,6,0,0,0,0,1,1,1,36
639571734,0,5000.0,1.0,0.0,2.558992,0.0,0,0,0,0,0,1,0,0,1,0,15
639656634,639654279,1200.0,0.34361058,0.8713456,1.3589793,0.0,10,250,6,0,0,0,0,1,1,1,36
639690912,639688632,1200.0,0.34361058,0.8713456,1.3589793,0.0,218,0,6,4,0,0,0,1,1,1,36
640046397,640037457,1200.0,0.34361058,0.8713456,1.3589793,0.0,42,190,6,0,0,0,0,1,1,1,36
640572325,0,5000.0,1.0,0.0,2.6025658,0.0,0,0,0,0,0,1,0,0,1,0,15
640661619,640659835,1200.0,0.34361058,0.89811885,1.6765544,0.0,10,250,6,0,0,0,0,1,1,1,36
640745468,640738377,1200.0,0.34361058,0.89811885,1.6765544,0.0,218,0,6,4,0,0,0,1,1,1,36
641049385,641045293,1200.0,0.34361058,0.89811885,1.6765544,0.0,42,190,6,0,0,0,0,1,1,1,36
641572348,0,5000.0,1.0,0.0,2.5420678,0.0,0,0,0,0,0,1,0,0,1,0,15
641652334,641651248,1200.0,0.34361058,0.95321846,1.1925201,0.0,10,250,6,0,0,0,0,1,1,1,36
641754330,641751274,1200.0,0.34361058,0.95321846,1.1925201,0.0,218,0,6,4,0,0,0,1,1,1,36
642058641,642058338,1200.0,0.34361058,0.95321846,1.1925201,0.0,42,190,6,0,0,0,0,1,1,1,36
642573284,0,5000.0,1.0,0.0,2.5796316,0.0,0,0,0,0,0,1,0,0,1,0,15
642659504,642655042,1200.0,0.34361058,0.86338,1.4074686,0.0,10,250,6,0,0,0,0,1,1,1,36
642848609,642848347,1200.0,0.34361058,0.86338,1.4074686,0.0,218,0,6,4,0,0,0,1,1,1,36
643062932,643052242,1200.0,0.34361058,0.86338,1.4074686,0.0,42,190,6,0,0,0,0,1,1,1,36
643573588,0,5000.0,1.0,0.0,2.5408478,0.0,0,0,0,0,0,1,0,0,1,0,15
643669526,643662267,1200.0,0.34361058,0.9047385,1.3346142,0.0,10,250,6,0,0,0,0,1,1,1,36
643889486,643883844,1200.0,0.34361058,0.9047385,1.3346142,0.0,218,0,6,4,0,0,0,1,1,1,36
644076600,644073404,1200.0,0.34361058,0.9047385,1.3346142,0.0,42,190,6,0,0,0,0,1,1,1,36
644575051,0,5000.0,1.0,0.0,2.5824425,0.0,0,0,0,0,0,1,0,0,1,0,15
644668370,644663972,1200.0,0.34361058,0.908931,1.3817738,0.0,10,250,6,0,0,0,0,1,1,1,36
644930501,644928299,1200.0,0.34361058,0.908931,1.3817738,0.0,218,0,6,4,0,0,0,1,1,1,36
645058645,645051297,1200.0,0.34361058,0.908931,1.3817738,0.0,42,190,6,0,0,0,0,1,1,1,36
645576679,0,5000.0,1.0,0.0,2.5626466,0.0,0,0,0,0,0,1,0,0,1,0,15
645660649,645651732,1200.0,0.34361058,0.8781026,1.7234254,0.0,10,250,6,0,0,0,0,1,1,1,36
645945597,645938815,1200.0,0.34361058,0.8781026,1.7234254,0.0,218,0,6,4,0,0,0,1,1,1,36
646075098,646072864,1200.0,0.34361058,0.8781026,1.7234254,0.0,42,190,6,0,0,0,0,1,1,1,36
646577943,0,5000.0,1.0,0.0,2.5826457,0.0,0,0,0,0,0,1,0,0,1,0,15
646663592,646658131,1200.0,0.34361058,0.8951344,1.3806648,0.0,10,250,6,0,0,0,0,1,1,1,36
647062635,647057607,1200.0,0.34361058,0.8951344,1.3806648,0.0,218,0,6,4,0,0,0,1,1,1,36
647116850,647109882,1200.0,0.34361058,0.8951344,1.3806648,0.0,42,190,6,0,0,0,0,1,1,1,36
647578975,0,5000.0,1.0,0.0,2.5406752,0.0,0,0,0,0,0,1,0,0,1,0,15
647669555,647663463,1200.0,0.34361058,1.3819836,1.5212765,0.0,10,250,6,0,0,0,0,1,1,1,36
648059300,648058526,1200.0,0.34361058,1.3819836,1.5212765,0.0,218,0,6,4,0,0,0,1,1,1,36
648126639,648118131,1200.0,0.34361058,1.3819836,1.5212765,0.0,42,190,6,0,0,0,0,1,1,1,36
648581344,0,5000.0,1.0,0.0,2.8329854,0.0,0,0,0,0,0,1,0,0,1,0,15
648666485,648663237,1200.0,0.34361058,1.4651525,1.7589799,0.0,10,250,6,0,0,0,0,1,1,1,36
649084533,649081356,1200.0,0.34361058,1.4651525,1.7589799,0.0,42,190,6,0,0,0,0,1,1,1,36
649124844,649116680,1200.0,0.34361058,1.4651525,1.7589799,0.0,218,0,6,4,0,0,0,1,1,1,36
649582198,0,5000.0,1.0,0.0,2.913854,0.0,0,0,0,0,0,1,0,0,1,0,15
649654529,649654264,1200.0,0.34361058,1.711427,1.714419,0.0,10,250,6,0,0,0,0,1,1,1,36
650082391,650077480,1200.0,0.34361058,1.711427,1.714419,0.0,42,190,6,0,0,0,0,1,1,1,36
650199337,650191988,1200.0,0.34361058,1.711427,1.714419,0.0,218,0,6,4,0,0,0,1,1,1,36
650582648,0,5000.0,1.0,0.0,2.9142456,0.0,0,0,0,0,0,1,0,0,1,0,15
650668369,650661349,1200.0,0.34361058,1.6818169,1.7711697,0.0,10,250,6,0,0,0,0,1,1,1,36
651121574,651118987,1200.0,0.34361058,1.6818169,1.7711697,0.0,42,190,6,0,0,0,0,1,1,1,36
651224619,651216265,1200.0,0.34361058,1.6818169,1.7711697,0.0,218,0,6,4,0,0,0,1,1,1,36
651586359,0,5000.0,1.0,0.0,2.9303343,0.0,0,0,0,0,0,1,0,0,1,0,15
651668398,651658154,1200.0,0.34361058,1.4446988,1.6681881,0.0,10,250,6,0,0,0,0,1,1,1,36
652117873,652109391,1200.0,0.34361058,1.4446988,1.6681881,0.0,42,190,6,0,0,0,0,1,1,1,36
652250379,652246494,1200.0,0.34361058,1.4446988,1.6681881,0.0,218,0,6,4,0,0,0,1,1,1,36
652588589,0,5000.0,1.0,0.0,2.8526487,0.0,0,0,0,0,0,1,0,0,1,0,15
652649527,652645497,1200.0,0.34361058,0.9313378,1.480947,0.0,10,250,6,0,0,0,0,1,1,1,36
653123125,653120295,1200.0,0.34361058,0.9313378,1.480947,0.0,42,190,6,0,0,0,0,1,1,1,36
653290457,653288270,1200.0,0.34361058,0.9313378,1.480947,0.0,218,0,6,4,0,0,0,1,1,1,36
653589459,0,5000.0,1.0,0.0,2.5602875,0.0,0,0,0,0,0,1,0,0,1,0,15
653654393,653651275,1200.0,0.34361058,0.87399817,1.3099973,0.0,10,250,6,0,0,0,0,1,1,1,36
654128928,654121365,1200.0,0.34361058,0.87399817,1.3099973,0.0,42,190,6,0,0,0,0,1,1,1,36
654411599,654403336,1200.0,0.34361058,0.87399817,1.3099973,0.0,218,0,6,4,0,0,0,1,1,1,36
654590270,0,5000.0,1.0,0.0,2.585826,0.0,0,0,0,0,0,1,0,0,1,0,15
654652516,654646168,1200.0,0.34361058,0.891496,1.539403,0.0,10,250,6,0,0,0,0,1,1,1,36
655172059,655171471,1200.0,0.34361058,0.891496,1.539403,0.0,42,190,6,0,0,0,0,1,1,1,36
655443532,655442996,1200.0,0.34361058,0.891496,1.539403,0.0,218,0,6,4,0,0,0,1,1,1,36
655592801,0,5000.0,1.0,0.0,2.578601,0.0,0,0,0,0,0,1,0,0,1,0,15
655650645,655650335,1200.0,0.34361058,0.91709733,1.1403906,0.0,10,250,6,0,0,0,0,1,1,1,36
656183463,656183126,1200.0,0.34361058,0.91709733,1.1403906,0.0,42,190,6,0,0,0,0,1,1,1,36
656451323,656443249,1200.0,0.34361058,0.91709733,1.1403906,0.0,218,0,6,4,0,0,0,1,1,1,36
656596375,0,5000.0,1.0,0.0,2.5793083,0.0,0,0,0,0,0,1,0,0,1,0,15
656653902,656653629,1200.0,0.34361058,0.8835385,1.613375,0.0,10,250,6,0,0,0,0,1,1,1,36
657181997,657171287,1200.0,0.34361058,0.8835385,1.613375,0.0,42,190,6,0,0,0,0,1,1,1,36
657508107,657506465,1200.0,0.34361058,0.8835385,1.613375,0.0,218,0,6,4,0,0,0,1,1,1,36
657600794,0,5000.0,1.0,0.0,2.5384789,0.0,0,0,0,0,0,1,0,0,1,0,15
657655416,657645338,1200.0,0.34361058,0.84358734,1.215321,0.0,10,250,6,0,0,0,0,1,1,1,36
658195192,658188368,1200.0,0.34361058,0.84358734,1.215321,0.0,42,190,6,0,0,0,0,1,1,1,36
658538405,658536255,1200.0,0.34361058,0.84358734,1.215321,0.0,218,0,6,4,0,0,0,1,1,1,36
658604385,0,5000.0,1.0,0.0,2.5842657,0.0,0,0,0,0,0,1,0,0,1,0,15
658646400,658646261,1200.0,0.34361058,0.7619176,1.3016092,0.0,10,250,6,0,0,0,0,1,1,1,36
659174397,659166331,1200.0,0.34361058,0.7619176,1.3016092,0.0,42,190,6,0,0,0,0,1,1,1,36
659579873,659579460,1200.0,0.34361058,0.92271215,1.5143976,0.0,218,0,6,4,0,0,0,1,1,1,36
659609676,0,5000.0,1.0,0.0,2.5360663,0.0,0,0,0,0,0,1,0,0,1,0,15
659668526,659663969,1200.0,0.34361058,0.92271215,1.5143976,0.0,10,250,6,0,0,0,0,1,1,1,36
660197509,660187293,1200.0,0.34361058,0.92271215,1.5143976,0.0,42,190,6,0,0,0,0,1,1,1,36
660612074,0,5000.0,1.0,0.0,2.564528,0.0,0,0,0,0,0,1,0,0,1,0,15
660658421,660653480,1200.0,0.34361058,0.8265151,1.3216304,0.0,10,250,6,0,0,0,0,1,1,1,36
660668405,660666288,1200.0,0.34361058,0.8265151,1.3216304,0.0,218,0,6,4,0,0,0,1,1,1,36
661224104,661223591,1200.0,0.34361058,0.8265151,1.3216304,0.0,42,190,6,0,0,0,0,1,1,1,36
661613614,0,5000.0,1.0,0.0,2.4940963,0.0,0,0,0,0,0,1,0,0,1,0,15
661661980,661656293,1200.0,0.34361058,1.5462047,1.5751711,0.0,10,250,6,0,0,0,0,1,1,1,36
661703569,661700252,1200.0,0.34361058,1.5462047,1.5751711,0.0,218,0,6,4,0,0,0,1,1,1,36
662196866,662196521,1200.0,0.34361058,1.5462047,1.5751711,0.0,42,190,6,0,0,0,0,1,1,1,36
662615616,0,5000.0,1.0,0.0,2.9202054,0.0,0,0,0,0,0,1,0,0,1,0,15
662656700,662653310,1200.0,0.34361058,1.5638353,1.7759988,0.0,10,250,6,0,0,0,0,1,1,1,36
662739859,662735577,1200.0,0.34361058,1.5638353,1.7759988,0.0,218,0,6,4,0,0,0,1,1,1,36
663202529,663196339,1200.0,0.34361058,1.5638353,1.7759988,0.0,42,190,6,0,0,0,0,1,1,1,36
663618317,0,5000.0,1.0,0.0,2.89381,0.0,0,0,0,0,0,1,0,0,1,0,15
663652348,663651267,1200.0,0.34361058,1.4320483,1.7287434,0.0,10,250,6,0,0,0,0,1,1,1,36
663829420,663827254,1200.0,0.34361058,1.4320483,1.7287434,0.0,218,0,6,4,0,0,0,1,1,1,36
664228380,664222340,1200.0,0.34361058,1.4320483,1.7287434,0.0,42,190,6,0,0,0,0,1,1,1,36
664620277,0,5000.0,1.0,0.0,2.859328,0.0,0,0,0,0,0,1,0,0,1,0,15
664700526,664695235,1200.0,0.34361058,1.7108365,1.777635,0.0,10,250,6,0,0,0,0,1,1,1,36
664879729,664872822,1200.0,0.34361058,1.7108365,1.777635,0.0,218,0,6,4,0,0,0,1,1,1,36
665215541,665212258,1200.0,0.34361058,1.7108365,1.777635,0.0,42,190,6,0,0,0,0,1,1,1,36
665620889,0,5000.0,1.0,0.0,2.9147158,0.0,0,0,0,0,0,1,0,0,1,0,15
665653634,665653332,1200.0,0.34361058,1.5533671,1.8215315,0.0,10,250,6,0,0,0,0,1,1,1,36
665886487,665886318,1200.0,0.34361058,1.5533671,1.8215315,0.0,218,0,6,4,0,0,0,1,1,1,36
666215753,666213526,1200.0,0.34361058,1.5533671,1.8215315,0.0,42,190,6,0,0,0,0,1,1,1,36
666622313,0,5000.0,1.0,0.0,2.957659,0.0,0,0,0,0,0,1,0,0,1,0,15
666658331,666656299,1200.0,0.34361058,0.89667153,1.2951922,0.0,10,250,6,0,0,0,0,1,1,1,36
666996851,666989673,1200.0,0.34361058,0.89667153,1.2951922,0.0,218,0,6,4,0,0,0,1,1,1,36
667213408,667212819,1200.0,0.34361058,0.89667153,1.2951922,0.0,42,190,6,0,0,0,0,1,1,1,36
667625891,0,5000.0,1.0,0.0,2.5427659,0.0,0,0,0,0,0,1,0,0,1,0,15
667660534,667659791,1200.0,0.34361058,0.9139689,1.3273367,0.0,10,250,6,0,0,0,0,1,1,1,36
668025056,668024757,1200.0,0.34361058,0.9139689,1.3273367,0.0,218,0,6,4,0,0,0,1,1,1,36
668218992,668212257,1200.0,0.34361058,0.9139689,1.3273367,0.0,42,190,6,0,0,0,0,1,1,1,36
668627611,0,5000.0,1.0,0.0,2.5612385,0.0,0,0,0,0,0,1,0,0,1,0,15
668658477,668652256,1200.0,0.34361058,0.88091767,1.3363242,0.0,10,250,6,0,0,0,0,1,1,1,36
669043940,669043739,1200.0,0.34361058,0.88091767,1.3363242,0.0,218,0,6,4,0,0,0,1,1,1,36
669222365,669213366,1200.0,0.34361058,0.88091767,1.3363242,0.0,42,190,6,0,0,0,0,1,1,1,36
669627966,0,5000.0,1.0,0.0,2.5587518,0.0,0,0,0,0,0,1,0,0,1,0,15
669668394,669663832,1200.0,0.34361058,0.87342,1.657899,0.0,10,250,6,0,0,0,0,1,1,1,36
670090773,670081841,1200.0,0.34361058,0.87342,1.657899,0.0,218,0,6,4,0,0,0,1,1,1,36
670239517,670232262,1200.0,0.34361058,0.87342,1.657899,0.0,42,190,6,0,0,0,0,1,1,1,36
670628798,0,5000.0,1.0,0.0,2.5595548,0.0,0,0,0,0,0,1,0,0,1,0,15
670660932,670654305,1200.0,0.34361058,0.9361759,1.1971583,0.0,10,250,6,0,0,0,0,1,1,1,36
671157468,671153737,1200.0,0.34361058,0.9361759,1.1971583,0.0,218,0,6,4,0,0,0,1,1,1,36
671221382,671217305,1200.0,0.34361058,0.9361759,1.1971583,0.0,42,190,6,0,0,0,0,1,1,1,36
671630618,0,5000.0,1.0,0.0,2.5822394,0.0,0,0,0,0,0,1,0,0,1,0,15
671661558,671652274,1200.0,0.34361058,0.86470866,1.4741601,0.0,10,250,6,0,0,0,0,1,1,1,36
672174363,672170285,1200.0,0.34361058,0.86470866,1.4741601,0.0,218,0,6,4,0,0,0,1,1,1,36
672229109,672220887,1200.0,0.34361058,0.86470866,1.4741601,0.0,42,190,6,0,0,0,0,1,1,1,36
672632727,0,5000.0,1.0,0.0,2.560533,0.0,0,0,0,0,0,1,0,0,1,0,15
672671447,672665499,1200.0,0.34361058,1.4826574,1.5176494,0.0,10,250,6,0,0,0,0,1,1,1,36
673240471,673238341,1200.0,0.34361058,1.4826574,1.5176494,0.0,218,0,6,4,0,0,0,1,1,1,36
673295601,673284512,1200.0,0.34361058,1.4826574,1.5176494,0.0,42,190,6,0,0,0,0,1,1,1,36
673636146,0,5000.0,1.0,0.0,2.830888,0.0,0,0,0,0,0,1,0,0,1,0,15
673653599,673653065,1200.0,0.34361058,1.6213866,1.9740357,0.0,10,250,6,0,0,0,0,1,1,1,36
674240684,674237356,1200.0,0.34361058,1.6213866,1.9740357,0.0,42,190,6,0,0,0,0,1,1,1,36
674330439,674326264,1200.0,0.34361058,1.6213866,1.9740357,0.0,218,0,6,4,0,0,0,1,1,1,36
674636603,0,5000.0,1.0,0.0,2.9404302,0.0,0,0,0,0,0,1,0,0,1,0,15
674676141,674666918,1200.0,0.34361058,1.6269819,1.9404005,0.0,10,250,6,0,0,0,0,1,1,1,36
675262473,675256274,1200.0,0.34361058,1.6269819,1.9404005,0.0,42,190,6,0,0,0,0,1,1,1,36
675359479,675350318,1200.0,0.34361058,1.6269819,1.9404005,0.0,218,0,6,4,0,0,0,1,1,1,36
675637664,0,5000.0,1.0,0.0,2.940368,0.0,0,0,0,0,0,1,0,0,1,0,15
675661591,675653307,1200.0,0.34361058,1.5918101,1.7266926,0.0,10,250,6,0,0,0,0,1,1,1,36
676302661,676296260,1200.0,0.34361058,1.5918101,1.7266926,0.0,42,190,6,0,0,0,0,1,1,1,36
676387842,676379762,1200.0,0.34361058,1.5918101,1.7266926,0.0,218,0,6,4,0,0,0,1,1,1,36
676639223,0,5000.0,1.0,0.0,2.9187036,0.0,0,0,0,0,0,1,0,0,1,0,15
676656913,676656306,1200.0,0.34361058,1.054004,1.3505981,0.0,10,250,6,0,0,0,0,1,1,1,36
677247545,677247290,1200.0,0.34361058,1.054004,1.3505981,0.0,42,190,6,0,0,0,0,1,1,1,36
677492125,677482298,1200.0,0.34361058,1.054004,1.3505981,0.0,218,0,6,4,0,0,0,1,1,1,36
677642340,0,5000.0,1.0,0.0,2.6434715,0.0,0,0,0,0,0,1,0,0,1,0,15
677661385,677655042,1200.0,0.34361058,0.90952146,1.4438902,0.0,10,250,6,0,0,0,0,1,1,1,36
678272856,678272588,1200.0,0.34361058,0.90952146,1.4438902,0.0,42,190,6,0,0,0,0,1,1,1,36
678499269,678495290,1200.0,0.34361058,0.90952146,1.4438902,0.0,218,0,6,4,0,0,0,1,1,1,36
678644275,0,5000.0,1.0,0.0,2.6005387,0.0,0,0,0,0,0,1,0,0,1,0,15
678661991,678652269,1200.0,0.34361058,0.82043296,1.2499479,0.0,10,250,6,0,0,0,0,1,1,1,36
679268565,679258272,1200.0,0.34361058,0.82043296,1.2499479,0.0,42,190,6,0,0,0,0,1,1,1,36
679547622,679541235,1200.0,0.34361058,0.82043296,1.2499479,0.0,218,0,6,4,0,0,0,1,1,1,36
679649520,0,5000.0,1.0,0.0,2.602532,0.0,0,0,0,0,0,1,0,0,1,0,15
679667215,679660253,1200.0,0.34361058,0.96177655,1.4342108,0.0,10,250,6,0,0,0,0,1,1,1,36
680277558,680268256,1200.0,0.34361058,0.96177655,1.4342108,0.0,42,190,6,0,0,0,0,1,1,1,36
680617148,680614241,1200.0,0.34361058,0.96177655,1.4342108,0.0,218,0,6,4,0,0,0,1,1,1,36
680649711,0,5000.0,1.0,0.0,2.5214627,0.0,0,0,0,0,0,1,0,0,1,0,15
680669952,680669331,1200.0,0.34361058,0.8520675,1.4686689,0.0,10,250,6,0,0,0,0,1,1,1,36
681273858,681273468,1200.0,0.34361058,0.8520675,1.4686689,0.0,42,190,6,0,0,0,0,1,1,1,36
681642396,681634136,1200.0,0.34361058,0.8520675,1.4686689,0.0,218,0,6,4,0,0,0,1,1,1,36
681651290,0,5000.0,1.0,0.0,2.5408227,0.0,0,0,0,0,0,1,0,0,1,0,15
681686438,681682699,1200.0,0.34361058,0.88264316,1.3423325,0.0,10,250,6,0,0,0,0,1,1,1,36
682289594,682286268,1200.0,0.34361058,0.88264316,1.3423325,0.0,42,190,6,0,0,0,0,1,1,1,36
682653580,0,5000.0,1.0,0.0,2.516338,0.0,0,0,0,0,0,1,0,0,1,0,15
682663616,682657304,1200.0,0.34361058,0.88264316,1.3423325,0.0,10,250,6,0,0,0,0,1,1,1,36
682687476,682676654,1200.0,0.34361058,0.7670336,1.2816883,0.0,218,0,6,4,0,0,0,1,1,1,36
683302696,683296313,1200.0,0.34361058,0.7670336,1.2816883,0.0,42,190,6,0,0,0,0,1,1,1,36
683653565,683652276,1200.0,0.34361058,0.7670336,1.2816883,0.0,10,250,6,0,0,0,0,1,1,1,36
683653635,0,5000.0,1.0,0.0,2.586754,0.0,0,0,0,0,0,1,0,0,1,0,15
683773359,683771544,1200.0,0.34361058,0.87576354,1.3976226,0.0,218,0,6,4,0,0,0,1,1,1,36
684314536,684307929,1200.0,0.34361058,0.87576354,1.3976226,0.0,42,190,6,0,0,0,0,1,1,1,36
684657199,0,5000.0,1.0,0.0,2.5548942,0.0,0,0,0,0,0,1,0,0,1,0,15
684660058,684653339,1200.0,0.34361058,0.87576354,1.3976226,0.0,10,250,6,0,0,0,0,1,1,1,36
684791611,684791004,1200.0,0.34361058,0.9110533,1.2744789,0.0,218,0,6,4,0,0,0,1,1,1,36
685278629,685277932,1200.0,0.34361058,0.9110533,1.2744789,0.0,42,190,6,0,0,0,0,1,1,1,36
685659511,0,5000.0,1.0,0.0,2.5896263,0.0,0,0,0,0,0,1,0,0,1,0,15
685661459,685654258,1200.0,0.34361058,0.9110533,1.2744789,0.0,10,250,6,0,0,0,0,1,1,1,36
685836341,685829325,1200.0,0.34361058,0.9613205,1.5992061,0.0,218,0,6,4,0,0,0,1,1,1,36
686296417,686295950,1200.0,0.34361058,0.9613205,1.5992061,0.0,42,190,6,0,0,0,0,1,1,1,36
686659581,0,5000.0,1.0,0.0,2.5634155,0.0,0,0,0,0,0,1,0,0,1,0,15
686676786,686670371,1200.0,0.34361058,0.9613205,1.5992061,0.0,10,250,6,0,0,0,0,1,1,1,36
686883826,686880356,1200.0,0.34361058,0.8284673,1.3119892,0.0,218,0,6,4,0,0,0,1,1,1,36
687338440,687334263,1200.0,0.34361058,0.8284673,1.3119892,0.0,42,190,6,0,0,0,0,1,1,1,36
687661437,0,5000.0,1.0,0.0,2.5823,0.0,0,0,0,0,0,1,0,0,1,0,15
687665550,687658148,1200.0,0.34361058,0.8284673,1.3119892,0.0,10,250,6,0,0,0,0,1,1,1,36
688011851,688000287,1200.0,0.34361058,0.9573248,1.4013731,0.0,218,0,6,4,0,0,0,1,1,1,36
688337998,688327328,1200.0,0.34361058,0.9573248,1.4013731,0.0,42,190,6,0,0,0,0,1,1,1,36
688662311,0,5000.0,1.0,0.0,2.5405052,0.0,0,0,0,0,0,1,0,0,1,0,15
688671331,688670202,1200.0,0.34361058,0.9573248,1.4013731,0.0,10,250,6,0,0,0,0,1,1,1,36
689018519,689011849,1200.0,0.34361058,0.84904814,1.3386163,0.0,218,0,6,4,0,0,0,1,1,1,36
689330712,689325463,1200.0,0.34361058,0.84904814,1.3386163,0.0,42,190,6,0,0,0,0,1,1,1,36
689657553,689657327,1200.0,0.34361058,0.84904814,1.3386163,0.0,10,250,6,0,0,0,0,1,1,1,36
689664598,0,5000.0,1.0,0.0,2.581097,0.0,0,0,0,0,0,1,0,0,1,0,15
690023431,690023274,1200.0,0.34361058,0.91585696,1.4475491,0.0,218,0,6,4,0,0,0,1,1,1,36
690358252,690357550,1200.0,0.34361058,0.91585696,1.4475491,0.0,42,190,6,0,0,0,0,1,1,1,36
690668041,0,5000.0,1.0,0.0,2.5552864,0.0,0,0,0,0,0,1,0,0,1,0,15
690668378,690664126,1200.0,0.34361058,0.91585696,1.4475491,0.0,10,250,6,0,0,0,0,1,1,1,36
691062525,691062248,1200.0,0.34361058,0.8725001,1.2049286,0.0,218,0,6,4,0,0,0,1,1,1,36
691332903,691332290,1200.0,0.34361058,0.8725001,1.2049286,0.0,42,190,6,0,0,0,0,1,1,1,36
691651817,691647301,1200.0,0.34361058,0.8725001,1.2049286,0.0,10,250,6,0,0,0,0,1,1,1,36
691670994,0,5000.0,1.0,0.0,2.5583427,0.0,0,0,0,0,0,1,0,0,1,0,15
692129137,692125693,1200.0,0.34361058,0.8783331,1.4941531,0.0,218,0,6,4,0,0,0,1,1,1,36
692360739,692351994,1200.0,0.34361058,0.8783331,1.4941531,0.0,42,190,6,0,0,0,0,1,1,1,36
692656358,692655989,1200.0,0.34361058,0.8783331,1.4941531,0.0,10,250,6,0,0,0,0,1,1,1,36
692672317,0,5000.0,1.0,0.0,2.6025567,0.0,0,0,0,0,0,1,0,0,1,0,15
693208403,693202752,1200.0,0.34361058,1.1260655,1.4598991,0.0,218,0,6,4,0,0,0,1,1,1,36
693342520,693336414,1200.0,0.34361058,1.1260655,1.4598991,0.0,42,190,6,0,0,0,0,1,1,1,36
693661531,693653574,1200.0,0.34361058,1.1260655,1.4598991,0.0,10,250,6,0,0,0,0,1,1,1,36
693677899,0,5000.0,1.0,0.0,2.94855,0.0,0,0,0,0,0,1,0,0,1,0,15
694222381,694219864,1200.0,0.34361058,1.5264403,1.686068,0.0,218,0,6,4,0,0,0,1,1,1,36
694361458,694357726,1200.0,0.34361058,1.5264403,1.686068,0.0,42,190,6,0,0,0,0,1,1,1,36
694671586,694663444,1200.0,0.34361058,1.5264403,1.686068,0.0,10,250,6,0,0,0,0,1,1,1,36
694679305,0,5000.0,1.0,0.0,2.6655507,0.0,0,0,0,0,0,1,0,0,1,0,15
695255535,695249755,1200.0,0.34361058,1.115959,1.7050197,0.0,218,0,6,4,0,0,0,1,1,1,36
695346372,695342270,1200.0,0.34361058,1.115959,1.7050197,0.0,42,190,6,0,0,0,0,1,1,1,36
695658354,695653464,1200.0,0.34361058,1.115959,1.7050197,0.0,10,250,6,0,0,0,0,1,1,1,36
695680495,0,5000.0,1.0,0.0,2.5628424,0.0,0,0,0,0,0,1,0,0,1,0,15
696340353,696339492,1200.0,0.34361058,0.8111983,1.200334,0.0,218,0,6,4,0,0,0,1,1,1,36
696392636,696387585,1200.0,0.34361058,0.8111983,1.200334,0.0,42,190,6,0,0,0,0,1,1,1,36
696656417,696654506,1200.0,0.34361058,0.8111983,1.200334,0.0,10,250,6,0,0,0,0,1,1,1,36
696682940,0,5000.0,1.0,0.0,2.5577564,0.0,0,0,0,0,0,1,0,0,1,0,15
697360812,697353576,1200.0,0.34361058,0.9536749,1.3836267,0.0,42,190,6,0,0,0,0,1,1,1,36
697370337,697363606,1200.0,0.34361058,0.9536749,1.3836267,0.0,218,0,6,4,0,0,0,1,1,1,36
697665433,697665295,1200.0,0.34361058,0.9536749,1.3836267,0.0,10,250,6,0,0,0,0,1,1,1,36
697683496,0,5000.0,1.0,0.0,2.5643842,0.0,0,0,0,0,0,1,0,0,1,0,15
698343683,698343256,1200.0,0.34361058,0.8320944,1.2823576,0.0,42,190,6,0,0,0,0,1,1,1,36
698462497,698452330,1200.0,0.34361058,0.8320944,1.2823576,0.0,218,0,6,4,0,0,0,1,1,1,36
698654494,698653324,1200.0,0.34361058,0.8320944,1.2823576,0.0,10,250,6,0,0,0,0,1,1,1,36
698684931,0,5000.0,1.0,0.0,2.5603259,0.0,0,0,0,0,0,1,0,0,1,0,15
699356785,699355737,1200.0,0.34361058,0.9235461,1.5857865,0.0,42,190,6,0,0,0,0,1,1,1,36
699491206,699483300,1200.0,0.34361058,0.9235461,1.5857865,0.0,218,0,6,4,0,0,0,1,1,1,36
699668762,699668452,1200.0,0.34361058,0.9235461,1.5857865,0.0,10,250,6,0,0,0,0,1,1,1,36
699686530,0,5000.0,1.0,0.0,2.663415,0.0,0,0,0,0,0,1,0,0,1,0,15
700362531,700356659,1200.0,0.34361058,0.8754217,1.2418312,0.0,42,190,6,0,0,0,0,1,1,1,36
700565652,700558246,1200.0,0.34361058,0.8754217,1.2418312,0.0,218,0,6,4,0,0,0,1,1,1,36
700654330,700648588,1200.0,0.34361058,0.8754217,1.2418312,0.0,10,250,6,0,0,0,0,1,1,1,36
700686715,0,5000.0,1.0,0.0,2.5426059,0.0,0,0,0,0,0,1,0,0,1,0,15
701398493,701395905,1200.0,0.34361058,0.94066304,1.8408144,0.0,42,190,6,0,0,0,0,1,1,1,36
701595176,701594926,1200.0,0.34361058,0.94066304,1.8408144,0.0,218,0,6,4,0,0,0,1,1,1,36
701658171,701653465,1200.0,0.34361058,0.94066304,1.8408144,0.0,10,250,6,0,0,0,0,1,1,1,36
701688391,0,5000.0,1.0,0.0,2.603171,0.0,0,0,0,0,0,1,0,0,1,0,15
702398143,702397378,1200.0,0.34361058,0.8927907,1.1120204,0.0,42,190,6,0,0,0,0,1,1,1,36
702640523,702634268,1200.0,0.34361058,0.8927907,1.1120204,0.0,218,0,6,4,0,0,0,1,1,1,36
702688926,0,5000.0,1.0,0.0,2.5205858,0.0,0,0,0,0,0,1,0,0,1,0,15
702693538,702684523,1200.0,0.34361058,0.8927907,1.1120204,0.0,10,250,6,0,0,0,0,1,1,1,36
703387436,703387031,1200.0,0.34361058,0.93290985,1.4033346,0.0,42,190,6,0,0,0,0,1,1,1,36
703655488,703652583,1200.0,0.34361058,0.93290985,1.4033346,0.0,10,250,6,0,0,0,0,1,1,1,36
703681737,703674302,1200.0,0.34361058,0.93290985,1.4033346,0.0,218,0,6,4,0,0,0,1,1,1,36
703691172,0,5000.0,1.0,0.0,2.5189242,0.0,0,0,0,0,0,1,0,0,1,0,15
704393408,704389456,1200.0,0.34361058,0.91771364,1.4338653,0.0,42,190,6,0,0,0,0,1,1,1,36
704664531,704655418,1200.0,0.34361058,0.91771364,1.4338653,0.0,10,250,6,0,0,0,0,1,1,1,36
704691210,0,5000.0,1.0,0.0,2.6470892,0.0,0,0,0,0,0,1,0,0,1,0,15
704740734,704735305,1200.0,0.34361058,0.91771364,1.4338653,0.0,218,0,6,4,0,0,0,1,1,1,36
705398334,705394791,1200.0,0.34361058,1.1918796,1.690157,0.0,42,190,6,0,0,0,0,1,1,1,36
705669696,705666346,1200.0,0.34361058,1.1918796,1.690157,0.0,10,250,6,0,0,0,0,1,1,1,36
705693356,0,5000.0,1.0,0.0,2.958633,0.0,0,0,0,0,0,1,0,0,1,0,15
