timestamp,x,y,z,yaw,yawspeed,vx,vy,vz,acc_x,acc_y,acc_z,jerk_x,jerk_y,jerk_z,thrust[0],thrust[1],thrust[2]
522503836,0.38238874,0.24751477,-3.3980148,0.4167315,0.0,0.0,0.0,0.0,nan,nan,nan,nan,nan,nan,nan,nan,nan
522524238,0.38268015,0.24726385,-3.3976521,0.41653243,0.0,0.0,0.0,0.0,nan,nan,nan,nan,nan,nan,nan,nan,nan
522724299,0.3846444,0.24619584,-3.393548,0.41676316,0.0,0.0,0.0,0.0,nan,nan,nan,nan,nan,nan,nan,nan,nan
522924397,0.38901517,0.24537198,-3.3899074,0.416366,0.0,0.0,0.0,0.0,nan,nan,nan,nan,nan,nan,nan,nan,nan
523124599,0.3923511,0.24427268,-3.387283,0.41639063,0.0,0.0,0.0,0.0,nan,nan,nan,nan,nan,nan,nan,nan,nan
523325040,0.39394274,0.24297115,-3.3832624,0.41633964,0.0,0.0,0.0,0.0,nan,nan,nan,nan,nan,nan,nan,nan,nan
523525024,0.3971134,0.24170162,-3.3793397,0.41621873,0.0,0.0,0.0,0.0,nan,nan,nan,nan,nan,nan,nan,nan,nan
523725128,0.39900362,0.2401281,-3.3748198,0.41624707,0.0,0.0,0.0,0.0,nan,nan,nan,nan,nan,nan,nan,nan,nan
523925415,0.40122515,0.23877233,-3.3726077,0.41621873,0.0,0.0,0.0,0.0,nan,nan,nan,nan,nan,nan,nan,nan,nan
524145614,0.40482455,0.23810697,-3.37285,0.41631022,0.0,0.0,0.0,0.0,nan,nan,nan,nan,nan,nan,nan,nan,nan
524345633,0.40717393,0.23728119,-3.375661,0.41631472,0.0,0.0,0.0,0.0,nan,nan,nan,nan,nan,nan,nan,nan,nan
524545929,0.41005853,0.23691182,-3.3777003,0.41637853,0.0,0.0,0.0,0.0,nan,nan,nan,nan,nan,nan,nan,nan,nan
524746200,0.41272628,0.23700681,-3.3755188,0.41615236,0.0,0.0,0.0,0.0,nan,nan,nan,nan,nan,nan,nan,nan,nan
524946510,0.41451842,0.23676282,nan,0.4160247,0.0,0.0,0.0,-0.39300925,nan,nan,nan,nan,nan,nan,nan,nan,nan
525146438,0.4168982,0.23681277,nan,0.4162322,0.0,0.0,0.0,-0.8355834,nan,nan,nan,nan,nan,nan,nan,nan,nan
525347056,0.41952884,0.23771405,nan,0.4163469,0.0,0.0,0.0,-0.89581907,nan,nan,nan,nan,nan,nan,nan,nan,nan
525547106,0.42114502,0.23847479,nan,0.4156739,0.0,0.0,0.0,-0.87929416,nan,nan,nan,nan,nan,nan,nan,nan,nan
525767489,0.42290026,0.23934141,nan,0.41590878,0.0,0.0,0.0,-1.2204297,nan,nan,nan,nan,nan,nan,nan,nan,nan
525967575,0.42290026,0.23934141,nan,0.41590878,0.0,0.0,0.0,-1.5,nan,nan,nan,nan,nan,nan,nan,nan,nan
526167710,0.42290026,0.23934141,nan,0.41590878,0.0,0.0,0.0,-1.5,nan,nan,nan,nan,nan,nan,nan,nan,nan
526367818,0.42290026,0.23934141,nan,0.41590878,0.0,0.0,0.0,-1.5,nan,nan,nan,nan,nan,nan,nan,nan,nan
526567922,0.42290026,0.23934141,nan,0.41590878,0.0,0.0,0.0,-1.5,nan,nan,nan,nan,nan,nan,nan,nan,nan
526768094,0.42290026,0.23934141,nan,0.41590878,0.0,0.0,0.0,-1.5,nan,nan,nan,nan,nan,nan,nan,nan,nan
526968390,0.42290026,0.23934141,nan,0.41590878,0.0,0.0,0.0,-1.5,nan,nan,nan,nan,nan,nan,nan,nan,nan
527168798,0.42290026,0.23934141,nan,0.41590878,0.0,0.0,0.0,-1.5,nan,nan,nan,nan,nan,nan,nan,nan,nan
527370745,0.42290026,0.23934141,nan,0.41590878,0.0,0.0,0.0,-1.5,nan,nan,nan,nan,nan,nan,nan,nan,nan
527588934,0.42290026,0.23934141,nan,0.41590878,0.0,0.0,0.0,-1.5,nan,nan,nan,nan,nan,nan,nan,nan,nan
527789139,0.42290026,0.23934141,nan,0.41590878,0.0,0.0,0.0,-1.5,nan,nan,nan,nan,nan,nan,nan,nan,nan
527989513,0.42290026,0.23934141,nan,0.3646908,0.0,0.0,0.0,-1.5,nan,nan,nan,nan,nan,nan,nan,nan,nan
528189514,0.42290026,0.23934141,nan,0.3646908,0.0,0.0,0.0,-1.5,nan,nan,nan,nan,nan,nan,nan,nan,nan
528389845,0.42290026,0.23934141,nan,0.3646908,0.0,0.0,0.0,-1.5,nan,nan,nan,nan,nan,nan,nan,nan,nan
528589988,0.42290026,0.23934141,nan,0.3646908,0.0,0.0,0.0,-1.5,nan,nan,nan,nan,nan,nan,nan,nan,nan
528790193,0.42290026,0.23934141,nan,0.3646908,0.0,0.0,0.0,-1.5,nan,nan,nan,nan,nan,nan,nan,nan,nan
528990387,0.42290026,0.23934141,nan,0.3646908,0.0,0.0,0.0,-1.5,nan,nan,nan,nan,nan,nan,nan,nan,nan
529210689,nan,nan,nan,0.3646908,0.0,0.44525844,0.16998531,-1.5,nan,nan,nan,nan,nan,nan,nan,nan,nan
529411318,nan,nan,nan,0.3646908,0.0,1.8270946,0.69752586,-1.5,nan,nan,nan,nan,nan,nan,nan,nan,nan
529611507,nan,nan,nan,0.3646908,0.0,3.13066,1.1951851,-1.5,nan,nan,nan,nan,nan,nan,nan,nan,nan
529811346,nan,nan,nan,0.3646908,0.0,4.453921,1.7003634,-1.5,nan,nan,nan,nan,nan,nan,nan,nan,nan
530011511,nan,nan,nan,0.3646908,0.0,1.3047338,0.44988173,-1.7785076,nan,nan,nan,nan,nan,nan,nan,nan,nan
530211592,nan,nan,nan,0.3646908,0.0,0.54766667,0.18883948,-1.8052425,nan,nan,nan,nan,nan,nan,nan,nan,nan
530411792,nan,nan,nan,0.3646908,0.0,0.84574926,-1.0555428,-1.6651032,nan,nan,nan,nan,nan,nan,nan,nan,nan
530631919,nan,nan,nan,0.3646908,0.0,0.64892113,-1.6997797,-1.6712344,nan,nan,nan,nan,nan,nan,nan,nan,nan
530832306,nan,nan,nan,0.3646908,0.0,1.8444992,0.5145055,-1.6149526,nan,nan,nan,nan,nan,nan,nan,nan,nan
531032588,nan,nan,nan,0.3646908,0.0,1.220147,1.220711,-1.6129965,nan,nan,nan,nan,nan,nan,nan,nan,nan
531232597,nan,nan,nan,0.3646908,0.0,0.78788054,2.1241412,-1.6579596,nan,nan,nan,nan,nan,nan,nan,nan,nan
531432806,nan,nan,nan,0.3646908,0.0,0.0010019392,2.9172943,-1.5993977,nan,nan,nan,nan,nan,nan,nan,nan,nan
531632932,nan,nan,nan,0.3646908,0.0,1.0464473,0.16671108,-1.5815846,nan,nan,nan,nan,nan,nan,nan,nan,nan
531833143,nan,nan,nan,0.3646908,0.0,0.25557664,0.040716298,-1.5320415,nan,nan,nan,nan,nan,nan,nan,nan,nan
532033962,nan,nan,nan,0.3646908,0.0,-0.62633944,-0.24653324,-1.6322215,nan,nan,nan,nan,nan,nan,nan,nan,nan
532235092,nan,nan,nan,0.3646908,0.0,-1.5621375,-0.61752063,-1.542913,nan,nan,nan,nan,nan,nan,nan,nan,nan
532454097,nan,nan,nan,0.3646908,0.0,-2.9264317,-1.1270087,-1.6103522,nan,nan,nan,nan,nan,nan,nan,nan,nan
532654011,5.166522,1.8219689,nan,0.3646908,0.0,0.0,0.0,-1.4568534,nan,nan,nan,nan,nan,nan,nan,nan,nan
532854226,5.166522,1.8219689,nan,0.3646908,0.0,0.0,0.0,-1.4708573,nan,nan,nan,nan,nan,nan,nan,nan,nan
533054446,nan,nan,nan,0.3646908,0.0,0.91695124,0.3500624,-1.54556,nan,nan,nan,nan,nan,nan,nan,nan,nan
533254729,nan,nan,nan,0.3646908,0.0,1.8525999,0.7072629,-1.465853,nan,nan,nan,nan,nan,nan,nan,nan,nan
533455014,nan,nan,nan,0.3646908,0.0,2.7882028,1.0644459,-1.4256341,nan,nan,nan,nan,nan,nan,nan,nan,nan
533655050,4.4448357,1.5062525,nan,0.3646908,0.0,0.0,0.0,-1.2310376,nan,nan,nan,nan,nan,nan,nan,nan,nan
533877630,4.4448357,1.5062525,nan,0.3646908,0.0,0.0,0.0,-1.0046765,nan,nan,nan,nan,nan,nan,nan,nan,nan
534077103,4.4448357,1.5062525,nan,0.3646908,0.0,0.0,0.0,-0.40668344,nan,nan,nan,nan,nan,nan,nan,nan,nan
534276077,4.4448357,1.5062525,nan,0.3646908,0.0,0.0,0.0,0.19054455,nan,nan,nan,nan,nan,nan,nan,nan,nan
534476353,4.4448357,1.5062525,nan,0.3646908,0.0,0.0,0.0,0.7910425,nan,nan,nan,nan,nan,nan,nan,nan,nan
534676811,4.4448357,1.5062525,nan,0.3646908,0.0,0.0,0.0,1.3927764,nan,nan,nan,nan,nan,nan,nan,nan,nan
534876359,4.4448357,1.5062525,nan,0.3646908,0.0,0.0,0.0,1.4027753,nan,nan,nan,nan,nan,nan,nan,nan,nan
535076624,4.4448357,1.5062525,nan,nan,0.047529362,0.0,0.0,0.80149734,nan,nan,nan,nan,nan,nan,nan,nan,nan
535279530,4.4448357,1.5062525,nan,nan,0.12431,0.0,0.0,0.19286633,nan,nan,nan,nan,nan,nan,nan,nan,nan
535476828,4.4448357,1.5062525,nan,nan,0.06847892,0.0,0.0,-0.39911467,nan,nan,nan,nan,nan,nan,nan,nan,nan
535677071,4.4448357,1.5062525,nan,nan,0.052981988,0.0,0.0,-0.9995167,nan,nan,nan,nan,nan,nan,nan,nan,nan
535897413,4.4448357,1.5062525,nan,nan,0.051574126,0.0,0.0,-1.6608455,nan,nan,nan,nan,nan,nan,nan,nan,nan
536097532,4.4448357,1.5062525,nan,nan,0.052446634,0.0,0.0,-2.2612236,nan,nan,nan,nan,nan,nan,nan,nan,nan
536297641,4.4448357,1.5062525,nan,nan,0.047286537,0.0,0.0,-2.8615417,nan,nan,nan,nan,nan,nan,nan,nan,nan
536497852,4.4448357,1.5062525,nan,nan,0.012295761,0.0,0.0,-2.2611668,nan,nan,nan,nan,nan,nan,nan,nan,nan
536698128,4.4448357,1.5062525,nan,nan,0.106946215,0.0,0.0,-1.6603687,nan,nan,nan,nan,nan,nan,nan,nan,nan
536898284,4.4448357,1.5062525,nan,nan,1.0764791,0.0,0.0,-1.0596036,nan,nan,nan,nan,nan,nan,nan,nan,nan
537098787,4.4448357,1.5062525,nan,nan,1.4264935,0.0,0.0,-0.45809162,nan,nan,nan,nan,nan,nan,nan,nan,nan
537318817,4.4448357,1.5062525,-17.916311,nan,0.14873342,0.0,0.0,0.0,nan,nan,nan,nan,nan,nan,nan,nan,nan
537518892,4.4448357,1.5062525,-17.916311,nan,-0.05551917,0.0,0.0,0.0,nan,nan,nan,nan,nan,nan,nan,nan,nan
537719079,4.4448357,1.5062525,-17.916311,nan,-0.055805694,0.0,0.0,0.0,nan,nan,nan,nan,nan,nan,nan,nan,nan
537919294,4.4448357,1.5062525,nan,nan,-0.012276708,0.0,0.0,-0.24018301,nan,nan,nan,nan,nan,nan,nan,nan,nan
538119418,4.4448357,1.5062525,-17.90905,nan,-0.0013152716,0.0,0.0,0.0,nan,nan,nan,nan,nan,nan,nan,nan,nan
538319594,4.4448357,1.5062525,-17.90905,nan,-0.0001408028,0.0,0.0,0.0,nan,nan,nan,nan,nan,nan,nan,nan,nan
538520342,4.4448357,1.5062525,-17.90905,nan,-1.4972663e-05,0.0,0.0,0.0,nan,nan,nan,nan,nan,nan,nan,nan,nan
538740001,4.4448357,1.5062525,-17.90905,nan,-1.2900737e-06,0.0,0.0,0.0,nan,nan,nan,nan,nan,nan,nan,nan,nan
538940388,4.4448357,1.5062525,-17.90905,nan,-1.377934e-07,0.0,0.0,0.0,nan,nan,nan,nan,nan,nan,nan,nan,nan
539140607,4.4448357,1.5062525,-17.90905,0.9547995,-1.4759298e-08,0.0,0.0,0.0,nan,nan,nan,nan,nan,nan,nan,nan,nan
539340676,4.4448357,1.5062525,nan,0.9547995,-1.5821322e-09,0.0,0.0,-0.098268,nan,nan,nan,nan,nan,nan,nan,nan,nan
539541150,4.4448357,1.5062525,nan,0.9547995,-1.6884753e-10,0.0,0.0,-0.69969,nan,nan,nan,nan,nan,nan,nan,nan,nan
539741216,4.4448357,1.5062525,nan,0.9547995,-1.8129474e-11,0.0,0.0,-1.2534088,nan,nan,nan,nan,nan,nan,nan,nan,nan
539941438,4.4448357,1.5062525,nan,0.9547995,-1.9393493e-12,0.0,0.0,-1.1910274,nan,nan,nan,nan,nan,nan,nan,nan,nan
540141548,4.4448357,1.5062525,nan,0.9547995,-2.0794897e-13,0.0,0.0,-1.2310456,nan,nan,nan,nan,nan,nan,nan,nan,nan
540341677,4.4448357,1.5062525,nan,0.9547995,-2.2305088e-14,0.0,0.0,-1.2599294,nan,nan,nan,nan,nan,nan,nan,nan,nan
540542243,4.4448357,1.5062525,nan,0.9547995,-2.3766597e-15,0.0,0.0,-1.2792017,nan,nan,nan,nan,nan,nan,nan,nan,nan
540762396,4.4448357,1.5062525,nan,0.9547995,-2.047221e-16,0.0,0.0,-1.417588,nan,nan,nan,nan,nan,nan,nan,nan,nan
540963081,4.4448357,1.5062525,nan,0.9547995,-2.1673626e-17,0.0,0.0,-1.4685011,nan,nan,nan,nan,nan,nan,nan,nan,nan
541164497,4.4448357,1.5062525,nan,0.9547995,-2.2848213e-18,0.0,0.0,-1.5048196,nan,nan,nan,nan,nan,nan,nan,nan,nan
541363422,4.4448357,1.5062525,nan,0.9547995,-2.4858383e-19,0.0,0.0,-1.5913322,nan,nan,nan,nan,nan,nan,nan,nan,nan
541563013,4.4448357,1.5062525,nan,0.9547995,-2.6792579e-20,0.0,0.0,-1.5425539,nan,nan,nan,nan,nan,nan,nan,nan,nan
541763322,4.4448357,1.5062525,nan,0.9547995,-2.8690675e-21,0.0,0.0,-1.7544308,nan,nan,nan,nan,nan,nan,nan,nan,nan
541963584,4.4448357,1.5062525,nan,0.9547995,-3.0689183e-22,0.0,0.0,-1.6879103,nan,nan,nan,nan,nan,nan,nan,nan,nan
542163567,4.4448357,1.5062525,nan,0.9547995,-3.2937978e-23,0.0,0.0,-1.7195079,nan,nan,nan,nan,nan,nan,nan,nan,nan
542383867,4.4448357,1.5062525,nan,0.9547995,-2.8176183e-24,0.0,0.0,-1.8628981,nan,nan,nan,nan,nan,nan,nan,nan,nan
542583913,4.4448357,1.5062525,nan,0.9547995,-3.022994e-25,0.0,0.0,-1.8816867,nan,nan,nan,nan,nan,nan,nan,nan,nan
542784118,4.4448357,1.5062525,nan,0.9547995,-3.2399377e-26,0.0,0.0,-2.0932422,nan,nan,nan,nan,nan,nan,nan,nan,nan
542984402,4.4448357,1.5062525,nan,0.9547995,-3.4682474e-27,0.0,0.0,-2.3345914,nan,nan,nan,nan,nan,nan,nan,nan,nan
543185052,4.4448357,1.5062525,nan,0.9547995,-3.716229e-28,0.0,0.0,-2.3824563,nan,nan,nan,nan,nan,nan,nan,nan,nan
543385190,4.4448357,1.5062525,nan,0.9547995,-3.9557232e-29,0.0,0.0,-2.5075555,nan,nan,nan,nan,nan,nan,nan,nan,nan
543585981,4.4448357,1.5062525,nan,0.9547995,-4.2017668e-30,0.0,0.0,-2.2772963,nan,nan,nan,nan,nan,nan,nan,nan,nan
543805199,4.4448357,1.5062525,nan,0.9547995,-3.6438012e-31,0.0,0.0,-2.6238728,nan,nan,nan,nan,nan,nan,nan,nan,nan
544005371,4.4448357,1.5062525,nan,0.9547995,-3.9001774e-32,0.0,0.0,-2.772992,nan,nan,nan,nan,nan,nan,nan,nan,nan
544205596,4.4448357,1.5062525,nan,0.9547995,-4.181366e-33,0.0,0.0,-3.1303854,nan,nan,nan,nan,nan,nan,nan,nan,nan
544405632,4.4448357,1.5062525,nan,0.9547995,-4.48185e-34,0.0,0.0,-3.305515,nan,nan,nan,nan,nan,nan,nan,nan,nan
544605949,4.4448357,1.5062525,nan,0.9547995,-4.7934998e-35,0.0,0.0,-3.4794369,nan,nan,nan,nan,nan,nan,nan,nan,nan
544806264,4.4448357,1.5062525,nan,0.9547995,-5.1303025e-36,0.0,0.0,-3.479991,nan,nan,nan,nan,nan,nan,nan,nan,nan
545006405,4.4448357,1.5062525,nan,0.9547995,-5.490695e-37,0.0,0.0,-3.5840845,nan,nan,nan,nan,nan,nan,nan,nan,nan
545226597,nan,nan,nan,0.9547995,-4.7101503e-38,0.83590907,1.180858,-3.806204,nan,nan,nan,nan,nan,nan,nan,nan,nan
545426902,nan,nan,nan,0.9547995,-5.038119e-39,1.6750816,2.366326,-3.684575,nan,nan,nan,nan,nan,nan,nan,nan,nan
545627515,nan,nan,nan,0.9547995,-5.36772e-40,2.1716008,3.0677407,-3.6828082,nan,nan,nan,nan,nan,nan,nan,nan,nan
545827631,nan,nan,nan,0.9547995,-5.7505e-41,2.0146353,2.8460014,-3.7213984,nan,nan,nan,nan,nan,nan,nan,nan,nan
546027994,nan,nan,nan,0.9547995,-6.138e-42,1.2504052,1.7664014,-3.51264,nan,nan,nan,nan,nan,nan,nan,nan,nan
546227720,nan,nan,nan,0.9547995,-6.61e-43,1.305114,1.8436866,-3.3335888,nan,nan,nan,nan,nan,nan,nan,nan,nan
546427946,nan,nan,nan,0.9547995,-7.1e-44,1.4285579,2.0180712,-3.6552372,nan,nan,nan,nan,nan,nan,nan,nan,nan
546627984,nan,nan,nan,0.9547995,-8e-45,1.1534029,1.62937,-3.571539,nan,nan,nan,nan,nan,nan,nan,nan,nan
546828144,nan,nan,nan,0.9547995,-3e-45,1.0145727,1.4332496,-3.590458,nan,nan,nan,nan,nan,nan,nan,nan,nan
547048396,nan,nan,nan,0.9547995,-3e-45,0.6289583,0.88850623,-3.852002,nan,nan,nan,nan,nan,nan,nan,nan,nan
547248668,nan,nan,nan,0.9547995,-3e-45,0.52840567,0.74645925,-4.0634866,nan,nan,nan,nan,nan,nan,nan,nan,nan
547450414,nan,nan,nan,0.9547995,-3e-45,0.5987306,0.8458047,-3.8470452,nan,nan,nan,nan,nan,nan,nan,nan,nan
547648994,nan,nan,nan,0.9547995,-3e-45,0.66900444,0.94507796,-3.8398046,nan,nan,nan,nan,nan,nan,nan,nan,nan
547849216,nan,nan,nan,0.9547995,-3e-45,0.61026216,0.8620949,-3.8483725,nan,nan,nan,nan,nan,nan,nan,nan,nan
548049951,nan,nan,nan,0.9547995,-3e-45,0.5304501,0.7493474,-3.9050622,nan,nan,nan,nan,nan,nan,nan,nan,nan
548249957,nan,nan,nan,0.9547995,-3e-45,0.35110325,0.49599063,-4.0955496,nan,nan,nan,nan,nan,nan,nan,nan,nan
548469988,nan,nan,nan,0.9547995,-3e-45,0.2769909,0.39129484,-4.007459,nan,nan,nan,nan,nan,nan,nan,nan,nan
548670176,nan,nan,nan,0.9547995,-3e-45,0.4949118,0.69914365,-3.8985868,nan,nan,nan,nan,nan,nan,nan,nan,nan
548870268,nan,nan,nan,0.9547995,-3e-45,0.660647,0.93327165,-4.1136546,nan,nan,nan,nan,nan,nan,nan,nan,nan
549070458,nan,nan,nan,0.9547995,-3e-45,1.1114962,1.5701697,-3.8591669,nan,nan,nan,nan,nan,nan,nan,nan,nan
549270745,nan,nan,nan,0.9547995,-3e-45,1.0270232,1.450838,-3.258789,nan,nan,nan,nan,nan,nan,nan,nan,nan
549470814,nan,nan,nan,0.9547995,-3e-45,1.0912875,1.5416216,-3.3145394,nan,nan,nan,nan,nan,nan,nan,nan,nan
549673323,nan,nan,nan,0.9547995,-3e-45,1.0666589,1.5068297,-3.5439868,nan,nan,nan,nan,nan,nan,nan,nan,nan
549872845,nan,nan,nan,0.9547995,-3e-45,1.0828596,1.529716,-3.8937194,nan,nan,nan,nan,nan,nan,nan,nan,nan
550072803,nan,nan,nan,0.9547995,-3e-45,1.0614856,1.4995217,-4.4935937,nan,nan,nan,nan,nan,nan,nan,nan,nan
550271786,nan,nan,nan,0.9547995,-3e-45,1.0453453,1.4767209,-5.090216,nan,nan,nan,nan,nan,nan,nan,nan,nan
550491808,nan,nan,nan,0.9547995,-3e-45,1.0678416,1.5085007,-5.7506094,nan,nan,nan,nan,nan,nan,nan,nan,nan
550692340,nan,nan,nan,0.9547995,-3e-45,1.1274279,1.592676,-6.0,nan,nan,nan,nan,nan,nan,nan,nan,nan
550892179,nan,nan,nan,0.9547995,-3e-45,1.1242561,1.5881952,-6.0,nan,nan,nan,nan,nan,nan,nan,nan,nan
551092608,nan,nan,nan,0.9547995,-3e-45,1.0422814,1.4723927,-6.0,nan,nan,nan,nan,nan,nan,nan,nan,nan
551292660,nan,nan,nan,0.9547995,-3e-45,1.039065,1.4678488,-6.0,nan,nan,nan,nan,nan,nan,nan,nan,nan
551492810,nan,nan,nan,0.9547995,-3e-45,1.0849258,1.5326346,-6.0,nan,nan,nan,nan,nan,nan,nan,nan,nan
551693124,nan,nan,nan,0.9547995,-3e-45,1.8638084,2.6329336,-6.0,nan,nan,nan,nan,nan,nan,nan,nan,nan
551913795,nan,nan,nan,0.9547995,-3e-45,2.762354,3.9022756,-6.0,nan,nan,nan,nan,nan,nan,nan,nan,nan
552114179,nan,nan,nan,0.9547995,-3e-45,3.5485072,5.0128455,-6.0,nan,nan,nan,nan,nan,nan,nan,nan,nan
552314412,nan,nan,nan,0.9547995,-3e-45,4.2325935,5.979229,-6.0,nan,nan,nan,nan,nan,nan,nan,nan,nan
552515604,nan,nan,nan,0.9547995,-3e-45,4.742321,6.6993027,-6.0,nan,nan,nan,nan,nan,nan,nan,nan,nan
552714624,nan,nan,nan,0.9547995,-3e-45,5.4971547,7.7656274,-6.0,nan,nan,nan,nan,nan,nan,nan,nan,nan
552914344,nan,nan,nan,0.9547995,-3e-45,5.132778,7.250887,-6.0,nan,nan,nan,nan,nan,nan,nan,nan,nan
553114837,nan,nan,nan,0.9547995,-3e-45,5.0206475,7.0924845,-6.0,nan,nan,nan,nan,nan,nan,nan,nan,nan
553334970,nan,nan,nan,0.9547995,-3e-45,4.577798,6.466887,-6.0,nan,nan,nan,nan,nan,nan,nan,nan,nan
553535178,nan,nan,nan,0.9547995,-3e-45,4.0202255,5.6792245,-6.0,nan,nan,nan,nan,nan,nan,nan,nan,nan
553735197,nan,nan,nan,0.9547995,-3e-45,4.0889554,5.776317,-6.0,nan,nan,nan,nan,nan,nan,nan,nan,nan
553935251,nan,nan,nan,0.9547995,-3e-45,3.9726617,5.612033,-6.0,nan,nan,nan,nan,nan,nan,nan,nan,nan
554135509,nan,nan,nan,0.9547995,-3e-45,4.122062,5.8230853,-6.0,nan,nan,nan,nan,nan,nan,nan,nan,nan
554336251,nan,nan,nan,0.9547995,-3e-45,3.5983443,5.0832486,-5.758152,nan,nan,nan,nan,nan,nan,nan,nan,nan
554535908,nan,nan,nan,0.9547995,-3e-45,3.3956366,4.7968907,-5.159187,nan,nan,nan,nan,nan,nan,nan,nan,nan
554736763,nan,nan,nan,0.9547995,-3e-45,3.9068139,5.519012,-4.556445,nan,nan,nan,nan,nan,nan,nan,nan,nan
554958733,nan,nan,nan,0.9547995,-3e-45,3.6087017,5.0978804,-3.890868,nan,nan,nan,nan,nan,nan,nan,nan,nan
555157986,nan,nan,nan,0.9547995,-3e-45,3.5101495,4.958659,-3.292773,nan,nan,nan,nan,nan,nan,nan,nan,nan
555357924,nan,nan,nan,0.9547995,-3e-45,3.656671,5.1656446,-2.6929593,nan,nan,nan,nan,nan,nan,nan,nan,nan
555557335,nan,nan,nan,0.9547995,-3e-45,3.7482944,5.295078,-2.0950444,nan,nan,nan,nan,nan,nan,nan,nan,nan
555757352,nan,nan,nan,0.9547995,-3e-45,3.5987628,5.08384,-1.4949034,nan,nan,nan,nan,nan,nan,nan,nan,nan
555957490,nan,nan,nan,0.9547995,-3e-45,3.4994037,4.943479,-0.8942613,nan,nan,nan,nan,nan,nan,nan,nan,nan
556157588,nan,nan,nan,0.9547995,-3e-45,3.4394734,4.8588176,-0.29411426,nan,nan,nan,nan,nan,nan,nan,nan,nan
556377655,nan,nan,-77.7529,0.9547995,-3e-45,3.54306,5.005151,0.0,nan,nan,nan,nan,nan,nan,nan,nan,nan
556578003,nan,nan,-77.7529,0.9547995,-3e-45,3.6992915,5.225853,0.0,nan,nan,nan,nan,nan,nan,nan,nan,nan
556778683,nan,nan,-77.7529,0.9547995,-3e-45,3.876014,5.475503,0.0,nan,nan,nan,nan,nan,nan,nan,nan,nan
556979516,nan,nan,-77.7529,nan,0.0014547255,3.9384518,5.563706,0.0,nan,nan,nan,nan,nan,nan,nan,nan,nan
557179903,nan,nan,-77.7529,nan,0.014222981,3.7227437,5.394818,0.0,nan,nan,nan,nan,nan,nan,nan,nan,nan
557378992,nan,nan,-77.7529,nan,0.16015276,3.8155885,5.6119556,0.0,nan,nan,nan,nan,nan,nan,nan,nan,nan
557578970,nan,nan,-77.7529,nan,0.104467,3.6016872,5.526612,0.0,nan,nan,nan,nan,nan,nan,nan,nan,nan
557779115,nan,nan,-77.7529,nan,0.12106717,3.3503091,5.495763,0.0,nan,nan,nan,nan,nan,nan,nan,nan,nan
557979731,nan,nan,-77.7529,nan,0.111334465,3.2766337,5.7415705,0.0,nan,nan,nan,nan,nan,nan,nan,nan,nan
558199756,nan,nan,-77.7529,nan,0.1302467,3.047201,5.753739,0.0,nan,nan,nan,nan,nan,nan,nan,nan,nan
558399826,nan,nan,-77.7529,nan,0.07212676,2.6439104,5.3767395,0.0,nan,nan,nan,nan,nan,nan,nan,nan,nan
558599918,nan,nan,-77.7529,nan,0.010396198,2.3716636,5.154302,0.0,nan,nan,nan,nan,nan,nan,nan,nan,nan
558800125,nan,nan,-77.7529,nan,0.0011142746,2.2761877,5.165787,0.0,nan,nan,nan,nan,nan,nan,nan,nan,nan
559000829,nan,nan,-77.7529,nan,0.00011907383,2.3855045,5.564413,0.0,nan,nan,nan,nan,nan,nan,nan,nan,nan
559201031,nan,nan,-77.7529,nan,1.2778301e-05,2.4259658,5.749557,0.0,nan,nan,nan,nan,nan,nan,nan,nan,nan
559401685,nan,nan,-77.7529,nan,1.3508875e-06,2.4648485,5.8763704,0.0,nan,nan,nan,nan,nan,nan,nan,nan,nan
559601079,nan,nan,-77.7529,nan,1.4621445e-07,2.4884646,5.979401,0.0,nan,nan,nan,nan,nan,nan,nan,nan,nan
559821383,nan,nan,-77.7529,1.1770774,1.25319595e-08,2.550316,6.1392913,0.0,nan,nan,nan,nan,nan,nan,nan,nan,nan
560021451,nan,nan,-77.7529,1.1770774,1.340631e-09,2.5380042,6.109653,0.0,nan,nan,nan,nan,nan,nan,nan,nan,nan
560221634,nan,nan,-77.7529,1.1770774,1.4370796e-10,2.6361136,6.3458285,0.0,nan,nan,nan,nan,nan,nan,nan,nan,nan
560421681,nan,nan,-77.7529,1.1770774,1.541259e-11,2.8915253,6.9606724,0.0,nan,nan,nan,nan,nan,nan,nan,nan,nan
560621998,nan,nan,-77.7529,1.1770774,1.6483538e-12,2.9588075,7.122639,0.0,nan,nan,nan,nan,nan,nan,nan,nan,nan
560822267,nan,nan,-77.7529,1.1770774,1.7638273e-13,2.939727,7.0767074,0.0,nan,nan,nan,nan,nan,nan,nan,nan,nan
561022488,nan,nan,-77.7529,1.1770774,1.8884466e-14,2.872809,6.9156175,0.0,nan,nan,nan,nan,nan,nan,nan,nan,nan
561242640,nan,nan,-77.7529,1.1770774,1.6215708e-15,2.8814058,6.9363127,0.0,nan,nan,nan,nan,nan,nan,nan,nan,nan
561442797,nan,nan,-77.7529,1.1770774,1.7360757e-16,2.8847644,6.9443974,0.0,nan,nan,nan,nan,nan,nan,nan,nan,nan
561643486,nan,nan,-77.7529,1.1770774,1.860535e-17,2.7486024,6.616619,0.0,nan,nan,nan,nan,nan,nan,nan,nan,nan
561843326,nan,nan,-77.7529,1.1770774,1.9869023e-18,2.8602543,6.8853955,0.0,nan,nan,nan,nan,nan,nan,nan,nan,nan
562043577,nan,nan,-77.7529,1.1770774,2.1253077e-19,2.848014,6.8559294,0.0,nan,nan,nan,nan,nan,nan,nan,nan,nan
562243735,nan,nan,-77.7529,1.1770774,2.2793902e-20,2.9473202,7.094986,0.0,nan,nan,nan,nan,nan,nan,nan,nan,nan
562443860,nan,nan,-77.7529,1.1770774,2.4426989e-21,2.8874302,6.9508147,0.0,nan,nan,nan,nan,nan,nan,nan,nan,nan
562644002,nan,nan,-77.7529,1.1770774,2.6181627e-22,2.9570465,7.1183996,0.0,nan,nan,nan,nan,nan,nan,nan,nan,nan
562844172,nan,nan,-77.7529,1.1770774,2.8064888e-23,2.8494544,6.859397,0.0,nan,nan,nan,nan,nan,nan,nan,nan,nan
563044518,nan,nan,-77.7529,1.1770774,3.0019672e-24,2.943232,7.0851445,0.0,nan,nan,nan,nan,nan,nan,nan,nan,nan
563265943,nan,nan,-77.7529,1.1770774,2.5282965e-25,2.9271245,7.0463696,0.0,nan,nan,nan,nan,nan,nan,nan,nan,nan
563465811,nan,nan,-77.7529,1.1770774,2.7194402e-26,2.9381797,7.072983,0.0,nan,nan,nan,nan,nan,nan,nan,nan,nan
563665007,nan,nan,-77.7529,1.1770774,2.9495155e-27,2.7716475,6.672095,0.0,nan,nan,nan,nan,nan,nan,nan,nan,nan
563865340,nan,nan,-77.7529,1.1770774,3.1560185e-28,2.763449,6.652359,0.0,nan,nan,nan,nan,nan,nan,nan,nan,nan
564065721,nan,nan,-77.7529,1.1770774,3.3678066e-29,2.8081598,6.75999,0.0,nan,nan,nan,nan,nan,nan,nan,nan,nan
564266296,nan,nan,-77.7529,1.1770774,3.590346e-30,2.7802253,6.6927443,0.0,nan,nan,nan,nan,nan,nan,nan,nan,nan
564467783,nan,nan,-77.7529,1.1770774,3.7791074e-31,3.0342453,7.304238,0.0,nan,nan,nan,nan,nan,nan,nan,nan,nan
564686165,nan,nan,-77.7529,1.1770774,3.3145502e-32,3.291205,7.922808,0.0,nan,nan,nan,nan,nan,nan,nan,nan,nan
564886216,nan,nan,-77.7529,1.1770774,3.5537905e-33,3.1511831,7.585738,0.0,nan,nan,nan,nan,nan,nan,nan,nan,nan
565086463,nan,nan,-77.7529,1.1770774,3.8034327e-34,2.831588,6.8163877,0.0,nan,nan,nan,nan,nan,nan,nan,nan,nan
565286636,nan,nan,-77.7529,1.1770774,4.0788004e-35,2.7948508,6.7279515,0.0,nan,nan,nan,nan,nan,nan,nan,nan,nan
565487064,nan,nan,-77.7529,1.1770774,4.364098e-36,2.8435342,6.845145,0.0,nan,nan,nan,nan,nan,nan,nan,nan,nan
565687216,nan,nan,-77.7529,1.1770774,4.666975e-37,2.5059855,6.0325756,0.0,nan,nan,nan,nan,nan,nan,nan,nan,nan
565887339,nan,nan,-77.7529,1.1770774,4.9967904e-38,3.020514,7.271184,0.0,nan,nan,nan,nan,nan,nan,nan,nan,nan
566087555,nan,nan,-77.7529,1.1770774,5.351426e-39,3.3668957,8.105017,0.0,nan,nan,nan,nan,nan,nan,nan,nan,nan
566307610,nan,nan,-77.7529,1.1770774,4.59123e-40,3.3240817,8.001951,0.0,nan,nan,nan,nan,nan,nan,nan,nan,nan
566508379,nan,nan,-77.7529,1.1770774,4.8827e-41,3.05164,7.346112,0.0,nan,nan,nan,nan,nan,nan,nan,nan,nan
566708567,nan,nan,-77.7529,1.1770774,5.241e-42,2.9129002,7.0121284,0.0,nan,nan,nan,nan,nan,nan,nan,nan,nan
566908306,nan,nan,-77.7529,1.1770774,5.65e-43,3.1666806,7.6230445,0.0,nan,nan,nan,nan,nan,nan,nan,nan,nan
567108512,nan,nan,-77.7529,1.1770774,6e-44,3.178332,7.651093,0.0,nan,nan,nan,nan,nan,nan,nan,nan,nan
567308694,nan,nan,-77.7529,1.1770774,7e-45,3.0455396,7.331426,0.0,nan,nan,nan,nan,nan,nan,nan,nan,nan
567508786,nan,nan,-77.7529,1.1770774,3e-45,2.9433944,7.0855355,0.0,nan,nan,nan,nan,nan,nan,nan,nan,nan
567709062,nan,nan,-77.7529,1.1770774,3e-45,2.6473951,6.372987,0.0,nan,nan,nan,nan,nan,nan,nan,nan,nan
567909419,nan,nan,-77.7529,1.1770774,3e-45,2.8327105,6.81909,0.0,nan,nan,nan,nan,nan,nan,nan,nan,nan
568129608,nan,nan,-77.7529,1.1770774,3e-45,2.8815234,6.9365954,0.0,nan,nan,nan,nan,nan,nan,nan,nan,nan
568329830,nan,nan,-77.7529,1.1770774,3e-45,2.8354406,6.8256617,0.0,nan,nan,nan,nan,nan,nan,nan,nan,nan
568529929,nan,nan,-77.7529,1.1770774,3e-45,2.8698492,6.908493,0.0,nan,nan,nan,nan,nan,nan,nan,nan,nan
568730146,nan,nan,-77.7529,1.1770774,3e-45,2.9211383,7.031959,0.0,nan,nan,nan,nan,nan,nan,nan,nan,nan
568930666,nan,nan,-77.7529,1.1770774,3e-45,2.9772274,7.1669803,0.0,nan,nan,nan,nan,nan,nan,nan,nan,nan
569130798,nan,nan,-77.7529,1.1770774,3e-45,2.9871821,7.190944,0.0,nan,nan,nan,nan,nan,nan,nan,nan,nan
569331029,nan,nan,-77.7529,1.1770774,3e-45,3.0043614,7.2322993,0.0,nan,nan,nan,nan,nan,nan,nan,nan,nan
569531036,nan,nan,-77.7529,1.1770774,3e-45,3.2663662,7.863015,0.0,nan,nan,nan,nan,nan,nan,nan,nan,nan
569751103,nan,nan,-77.7529,nan,0.046078645,3.624826,8.526441,0.0,nan,nan,nan,nan,nan,nan,nan,nan,nan
569951201,nan,nan,-77.7529,nan,0.011829272,3.2509596,7.634075,0.0,nan,nan,nan,nan,nan,nan,nan,nan,nan
570151528,nan,nan,-77.7529,nan,0.012921929,3.3131514,7.699648,0.0,nan,nan,nan,nan,nan,nan,nan,nan,nan
570351768,nan,nan,-77.7529,nan,0.0013820699,3.7189233,8.593995,0.0,nan,nan,nan,nan,nan,nan,nan,nan,nan
570553402,nan,nan,-77.7529,nan,0.00014533904,3.2058513,7.3744216,0.0,nan,nan,nan,nan,nan,nan,nan,nan,nan
570752048,nan,nan,-77.7529,nan,1.5854688e-05,3.3352149,7.63559,0.0,nan,nan,nan,nan,nan,nan,nan,nan,nan
570952339,nan,nan,-77.7529,nan,0.0017080681,3.4891996,7.9978576,0.0,nan,nan,nan,nan,nan,nan,nan,nan,nan
571152504,nan,nan,-77.7529,nan,0.001013219,3.542739,8.187908,0.0,nan,nan,nan,nan,nan,nan,nan,nan,nan
571353141,nan,nan,-77.7529,nan,0.00010790368,3.44556,8.064417,0.0,nan,nan,nan,nan,nan,nan,nan,nan,nan
571553201,nan,nan,-77.7529,nan,0.00057699217,3.3865118,8.009891,0.0,nan,nan,nan,nan,nan,nan,nan,nan,nan
571773351,nan,nan,-77.7529,nan,4.949838e-05,3.2847793,7.8869004,0.0,nan,nan,nan,nan,nan,nan,nan,nan,nan
571973436,nan,nan,-77.7529,nan,5.2983387e-06,3.304135,8.051126,0.0,nan,nan,nan,nan,nan,nan,nan,nan,nan
572173585,nan,nan,-77.7529,nan,5.677696e-07,3.2534673,8.033687,0.0,nan,nan,nan,nan,nan,nan,nan,nan,nan
572373669,nan,nan,-77.7529,1.1900702,6.093175e-08,3.2355113,8.083625,0.0,nan,nan,nan,nan,nan,nan,nan,nan,nan
572573984,nan,nan,-77.7529,1.1900702,6.516334e-09,3.197352,7.9882874,0.0,nan,nan,nan,nan,nan,nan,nan,nan,nan
572774248,nan,nan,-77.7529,1.1900702,6.9699785e-10,3.2185812,8.0413265,0.0,nan,nan,nan,nan,nan,nan,nan,nan,nan
572974430,nan,nan,-77.7529,1.1900702,7.464746e-11,3.339914,8.344466,0.0,nan,nan,nan,nan,nan,nan,nan,nan,nan
573174526,nan,nan,-77.7529,1.1900702,7.999466e-12,3.306969,8.262155,0.0,nan,nan,nan,nan,nan,nan,nan,nan,nan
573394798,nan,nan,-77.7529,1.1900702,6.8538475e-13,3.3787036,8.441378,0.0,nan,nan,nan,nan,nan,nan,nan,nan,nan
573595133,nan,nan,-77.7529,1.1900702,7.330679e-14,3.2761433,8.185141,0.0,nan,nan,nan,nan,nan,nan,nan,nan,nan
573795616,nan,nan,-77.7529,1.1900702,7.816869e-15,3.310499,8.270974,0.0,nan,nan,nan,nan,nan,nan,nan,nan,nan
573995702,nan,nan,-77.7529,1.1900702,8.384553e-16,3.3512173,8.372705,0.0,nan,nan,nan,nan,nan,nan,nan,nan,nan
574196771,nan,nan,-77.7529,1.1900702,8.873288e-17,3.4498808,8.619207,0.0,nan,nan,nan,nan,nan,nan,nan,nan,nan
574397317,nan,nan,-77.7529,1.1900702,9.468232e-18,3.326277,8.310394,0.0,nan,nan,nan,nan,nan,nan,nan,nan,nan
574596101,nan,nan,-77.7529,1.1900702,1.0311644e-18,3.2531822,8.127773,0.0,nan,nan,nan,nan,nan,nan,nan,nan,nan
574796304,nan,nan,-77.7529,1.1900702,1.1066144e-19,3.4287379,8.566383,0.0,nan,nan,nan,nan,nan,nan,nan,nan,nan
574996353,nan,nan,-77.7529,1.1900702,1.1860278e-20,3.3680828,8.414843,0.0,nan,nan,nan,nan,nan,nan,nan,nan,nan
575217185,nan,nan,-77.7529,1.1900702,1.0065745e-21,3.4272513,8.56267,0.0,nan,nan,nan,nan,nan,nan,nan,nan,nan
575418187,nan,nan,-77.7529,1.1900702,1.0671169e-22,3.2857437,8.2091255,0.0,nan,nan,nan,nan,nan,nan,nan,nan,nan
575617213,nan,nan,-77.7529,1.1900702,1.15976405e-23,3.2898407,8.219361,0.0,nan,nan,nan,nan,nan,nan,nan,nan,nan
575817448,nan,nan,-77.7529,1.1900702,1.2421551e-24,3.4036272,8.503647,0.0,nan,nan,nan,nan,nan,nan,nan,nan,nan
576017492,nan,nan,-77.7529,1.1900702,1.33221e-25,3.5058393,8.759014,0.0,nan,nan,nan,nan,nan,nan,nan,nan,nan
576218003,nan,nan,-77.7529,1.1900702,1.42239e-26,3.45064,8.621104,0.0,nan,nan,nan,nan,nan,nan,nan,nan,nan
576418005,nan,nan,-77.7529,1.1900702,1.5259802e-27,3.6456444,9.108305,0.0,nan,nan,nan,nan,nan,nan,nan,nan,nan
576618720,nan,nan,-77.7529,1.1900702,1.6237631e-28,3.5929708,8.976705,0.0,nan,nan,nan,nan,nan,nan,nan,nan,nan
576838195,nan,nan,-77.7529,1.1900702,1.403535e-29,3.7873335,9.462302,0.0,nan,nan,nan,nan,nan,nan,nan,nan,nan
577038488,nan,nan,-77.7529,1.1900702,1.5024383e-30,3.802573,9.500376,0.0,nan,nan,nan,nan,nan,nan,nan,nan,nan
577238546,nan,nan,-77.7529,1.1900702,1.6125798e-31,4.0650096,10.156049,0.0,nan,nan,nan,nan,nan,nan,nan,nan,nan
577438802,nan,nan,-77.7529,1.1900702,1.7241985e-32,4.1638165,10.402909,0.0,nan,nan,nan,nan,nan,nan,nan,nan,nan
577638992,nan,nan,-77.7529,1.1900702,1.8469685e-33,3.967104,9.911441,0.0,nan,nan,nan,nan,nan,nan,nan,nan,nan
577839211,nan,nan,-77.7529,1.1900702,1.978162e-34,3.702454,9.250238,0.0,nan,nan,nan,nan,nan,nan,nan,nan,nan
578039284,nan,nan,-77.7529,1.1900702,2.1206129e-35,3.3747468,8.431491,0.0,nan,nan,nan,nan,nan,nan,nan,nan,nan
578239682,nan,nan,-77.7529,1.1900702,2.2685328e-36,3.026812,7.562209,0.0,nan,nan,nan,nan,nan,nan,nan,nan,nan
578439832,nan,nan,-77.7529,1.1900702,2.4324077e-37,3.3789985,8.442115,0.0,nan,nan,nan,nan,nan,nan,nan,nan,nan
578660320,nan,nan,-77.7529,1.1900702,2.0755186e-38,3.3172717,8.287896,0.0,nan,nan,nan,nan,nan,nan,nan,nan,nan
578860367,nan,nan,-77.7529,1.1900702,2.224288e-39,3.2890975,8.2175045,0.0,nan,nan,nan,nan,nan,nan,nan,nan,nan
579060661,nan,nan,-77.7529,1.1900702,2.37918e-40,2.962922,7.402586,0.0,nan,nan,nan,nan,nan,nan,nan,nan,nan
579260676,nan,nan,-77.7529,1.1900702,2.5543e-41,3.1807144,7.9467196,0.0,nan,nan,nan,nan,nan,nan,nan,nan,nan
579460832,nan,nan,-77.7529,1.1900702,2.737e-42,2.8135123,7.0292993,0.0,nan,nan,nan,nan,nan,nan,nan,nan,nan
579661049,nan,nan,-77.7529,1.1900702,2.94e-43,2.7305171,6.8219438,0.0,nan,nan,nan,nan,nan,nan,nan,nan,nan
579861670,nan,nan,-77.7529,1.1900702,3.1e-44,3.1029813,7.7525105,0.0,nan,nan,nan,nan,nan,nan,nan,nan,nan
580082294,nan,nan,-77.7529,1.1900702,3e-45,3.3388102,8.341707,0.0,nan,nan,nan,nan,nan,nan,nan,nan,nan
580282292,nan,nan,-77.7529,1.1900702,3e-45,3.1227896,7.802,0.0,nan,nan,nan,nan,nan,nan,nan,nan,nan
580481927,nan,nan,-77.7529,1.1900702,3e-45,3.2945833,8.231211,0.0,nan,nan,nan,nan,nan,nan,nan,nan,nan
580682181,nan,nan,-77.7529,1.1900702,3e-45,3.227507,8.063627,0.0,nan,nan,nan,nan,nan,nan,nan,nan,nan
580882350,nan,nan,-77.7529,1.1900702,3e-45,3.560264,8.894989,0.0,nan,nan,nan,nan,nan,nan,nan,nan,nan
581082775,nan,nan,-77.7529,1.1900702,3e-45,3.4946568,8.731076,0.0,nan,nan,nan,nan,nan,nan,nan,nan,nan
581282925,nan,nan,-77.7529,1.1900702,3e-45,3.9488432,9.865819,0.0,nan,nan,nan,nan,nan,nan,nan,nan,nan
581504034,nan,nan,-77.7529,1.1900702,3e-45,4.284546,10.70454,0.0,nan,nan,nan,nan,nan,nan,nan,nan,nan
581703296,nan,nan,-77.7529,1.1900702,3e-45,4.1811323,10.446172,0.0,nan,nan,nan,nan,nan,nan,nan,nan,nan
581903283,nan,nan,-77.7529,1.1900702,3e-45,4.343901,10.852834,0.0,nan,nan,nan,nan,nan,nan,nan,nan,nan
582103439,nan,nan,-77.7529,1.1900702,3e-45,4.5994964,11.491415,0.0,nan,nan,nan,nan,nan,nan,nan,nan,nan
582304203,nan,nan,-77.7529,1.1900702,3e-45,4.6916633,11.721685,0.0,nan,nan,nan,nan,nan,nan,nan,nan,nan
582503874,nan,nan,-77.7529,1.1900702,3e-45,4.794542,11.978719,0.0,nan,nan,nan,nan,nan,nan,nan,nan,nan
582705481,nan,nan,-77.7529,1.1900702,3e-45,4.54304,11.350364,0.0,nan,nan,nan,nan,nan,nan,nan,nan,nan
582906789,nan,nan,-77.7529,1.1900702,3e-45,4.610584,11.519116,0.0,nan,nan,nan,nan,nan,nan,nan,nan,nan
583104547,nan,nan,-77.7529,1.1900702,3e-45,4.7073936,11.760986,0.0,nan,nan,nan,nan,nan,nan,nan,nan,nan
583324639,nan,nan,-77.7529,1.1900702,3e-45,4.713627,11.77656,0.0,nan,nan,nan,nan,nan,nan,nan,nan,nan
583525345,nan,nan,-77.7529,1.1900702,3e-45,4.9140673,12.277341,0.0,nan,nan,nan,nan,nan,nan,nan,nan,nan
583725199,nan,nan,-77.7529,1.1900702,3e-45,4.9194536,12.290798,0.0,nan,nan,nan,nan,nan,nan,nan,nan,nan
583925340,nan,nan,-77.7529,1.1900702,3e-45,4.999409,12.49056,0.0,nan,nan,nan,nan,nan,nan,nan,nan,nan
584125642,nan,nan,-77.7529,1.1900702,3e-45,5.1014104,12.745401,0.0,nan,nan,nan,nan,nan,nan,nan,nan,nan
584326310,nan,nan,-77.7529,1.1900702,3e-45,5.041259,12.595118,0.0,nan,nan,nan,nan,nan,nan,nan,nan,nan
584525820,nan,nan,-77.7529,1.1900702,3e-45,5.2096405,13.015803,0.0,nan,nan,nan,nan,nan,nan,nan,nan,nan
584726001,nan,nan,-77.7529,1.1900702,3e-45,5.122968,12.799261,0.0,nan,nan,nan,nan,nan,nan,nan,nan,nan
584928518,nan,nan,-77.7529,1.1900702,3e-45,5.106815,12.758904,0.0,nan,nan,nan,nan,nan,nan,nan,nan,nan
585127475,nan,nan,-77.7529,1.1900702,3e-45,5.1599517,12.891662,0.0,nan,nan,nan,nan,nan,nan,nan,nan,nan
585346809,nan,nan,-77.7529,1.1900702,3e-45,5.2331038,13.074424,0.0,nan,nan,nan,nan,nan,nan,nan,nan,nan
585547061,nan,nan,-77.7529,1.1900702,3e-45,5.275379,13.180046,0.0,nan,nan,nan,nan,nan,nan,nan,nan,nan
585747168,nan,nan,-77.7529,1.1900702,3e-45,5.2703557,13.167496,0.0,nan,nan,nan,nan,nan,nan,nan,nan,nan
585947735,nan,nan,-77.7529,1.1900702,3e-45,5.308762,13.26345,0.0,nan,nan,nan,nan,nan,nan,nan,nan,nan
586147599,nan,nan,-77.7529,1.1900702,3e-45,5.050511,12.618233,0.0,nan,nan,nan,nan,nan,nan,nan,nan,nan
586348843,nan,nan,-77.7529,1.1900702,3e-45,5.170431,12.917843,0.0,nan,nan,nan,nan,nan,nan,nan,nan,nan
586548064,nan,nan,-77.7529,1.1900702,3e-45,5.3056808,13.255752,0.0,nan,nan,nan,nan,nan,nan,nan,nan,nan
586748064,nan,nan,-77.7529,1.1900702,3e-45,5.229898,13.066415,0.0,nan,nan,nan,nan,nan,nan,nan,nan,nan
586948351,nan,nan,-77.7529,1.1900702,3e-45,5.1933804,12.975179,0.0,nan,nan,nan,nan,nan,nan,nan,nan,nan
587148930,nan,nan,-77.7529,1.1900702,3e-45,5.154675,12.878477,0.0,nan,nan,nan,nan,nan,nan,nan,nan,nan
587370919,nan,nan,-77.7529,1.1900702,3e-45,5.2106586,13.018347,0.0,nan,nan,nan,nan,nan,nan,nan,nan,nan
587572051,nan,nan,-77.7529,1.1900702,3e-45,4.8588943,12.139498,0.0,nan,nan,nan,nan,nan,nan,nan,nan,nan
587769848,nan,nan,-77.7529,1.1900702,3e-45,4.565691,11.406955,0.0,nan,nan,nan,nan,nan,nan,nan,nan,nan
587969357,nan,nan,-77.7529,1.1900702,3e-45,4.646061,11.607753,0.0,nan,nan,nan,nan,nan,nan,nan,nan,nan
588169496,nan,nan,-77.7529,1.1900702,3e-45,4.704201,11.75301,0.0,nan,nan,nan,nan,nan,nan,nan,nan,nan
588370165,nan,nan,-77.7529,1.1900702,3e-45,4.728988,11.814939,0.0,nan,nan,nan,nan,nan,nan,nan,nan,nan
588569956,nan,nan,-77.7529,1.1900702,3e-45,4.67737,11.685976,0.0,nan,nan,nan,nan,nan,nan,nan,nan,nan
588790269,nan,nan,-77.7529,1.1900702,3e-45,4.8338695,12.076975,0.0,nan,nan,nan,nan,nan,nan,nan,nan,nan
588991130,nan,nan,-77.7529,1.1900702,3e-45,4.9191003,12.289916,0.0,nan,nan,nan,nan,nan,nan,nan,nan,nan
589190469,nan,nan,-77.7529,1.1900702,3e-45,4.878696,12.188969,0.0,nan,nan,nan,nan,nan,nan,nan,nan,nan
589390724,nan,nan,-77.7529,1.1900702,3e-45,4.9398284,12.341703,0.0,nan,nan,nan,nan,nan,nan,nan,nan,nan
589591324,nan,nan,-77.7529,1.1900702,3e-45,5.1910305,12.969309,0.0,nan,nan,nan,nan,nan,nan,nan,nan,nan
589791141,nan,nan,-77.7529,1.1900702,3e-45,5.2413597,13.095052,0.0,nan,nan,nan,nan,nan,nan,nan,nan,nan
589991282,nan,nan,-77.7529,1.1900702,3e-45,4.7746935,11.92913,0.0,nan,nan,nan,nan,nan,nan,nan,nan,nan
590191720,nan,nan,-77.7529,1.1900702,3e-45,4.564231,11.403308,0.0,nan,nan,nan,nan,nan,nan,nan,nan,nan
590391839,nan,nan,-77.7529,1.1900702,3e-45,4.6014447,11.496284,0.0,nan,nan,nan,nan,nan,nan,nan,nan,nan
590591911,nan,nan,-77.7529,1.1900702,3e-45,4.8264604,12.058463,0.0,nan,nan,nan,nan,nan,nan,nan,nan,nan
590812532,nan,nan,-77.7529,1.1900702,3e-45,4.964267,12.4027605,0.0,nan,nan,nan,nan,nan,nan,nan,nan,nan
591012371,nan,nan,-77.7529,1.1900702,3e-45,5.049427,12.615525,0.0,nan,nan,nan,nan,nan,nan,nan,nan,nan
591212658,nan,nan,-77.7529,1.1900702,3e-45,5.4648905,13.653522,0.0,nan,nan,nan,nan,nan,nan,nan,nan,nan
591412847,nan,nan,-77.7529,1.1900702,3e-45,5.8681817,14.661107,0.0,nan,nan,nan,nan,nan,nan,nan,nan,nan
591612836,nan,nan,-77.7529,nan,0.006296328,5.824245,14.584488,0.0,nan,nan,nan,nan,nan,nan,nan,nan,nan
591813154,nan,nan,-77.7529,nan,0.00067386846,5.8049507,14.065314,0.0,nan,nan,nan,nan,nan,nan,nan,nan,nan
592013769,nan,nan,-77.7529,nan,7.217888e-05,5.9491997,13.818512,0.0,nan,nan,nan,nan,nan,nan,nan,nan,nan
592233598,nan,nan,-77.7529,nan,6.1798423e-06,6.013195,13.405351,0.0,nan,nan,nan,nan,nan,nan,nan,nan,nan
592435115,nan,nan,-77.7529,nan,0.01755221,6.46051,14.158314,0.0,nan,nan,nan,nan,nan,nan,nan,nan,nan
592634247,nan,nan,-77.7529,nan,0.0019000225,6.719965,14.539904,0.0,nan,nan,nan,nan,nan,nan,nan,nan,nan
592834263,nan,nan,-77.7529,nan,0.046914775,6.6601996,14.604013,0.0,nan,nan,nan,nan,nan,nan,nan,nan,nan
593035288,nan,nan,-77.7529,nan,0.14053413,6.8382297,15.360814,0.0,nan,nan,nan,nan,nan,nan,nan,nan,nan
593234650,nan,nan,-77.7529,nan,0.03766655,6.3148975,15.013432,0.0,nan,nan,nan,nan,nan,nan,nan,nan,nan
593434992,nan,nan,-77.7529,nan,0.0047471058,6.2667336,15.287591,0.0,nan,nan,nan,nan,nan,nan,nan,nan,nan
593655075,nan,nan,-77.7529,nan,0.00040711253,6.198219,15.279364,0.0,nan,nan,nan,nan,nan,nan,nan,nan,nan
593855253,nan,nan,-77.7529,nan,4.3580636e-05,6.3622346,15.78755,0.0,nan,nan,nan,nan,nan,nan,nan,nan,nan
594055338,nan,nan,-77.7529,nan,0.12249241,6.2650943,15.67224,0.0,nan,nan,nan,nan,nan,nan,nan,nan,nan
594255529,nan,nan,-77.7529,nan,0.08988687,5.782672,15.127974,0.0,nan,nan,nan,nan,nan,nan,nan,nan,nan
594456287,nan,nan,-77.7529,nan,0.10536642,5.2927184,14.880215,0.0,nan,nan,nan,nan,nan,nan,nan,nan,nan
594656731,nan,nan,-77.7529,nan,0.10361292,4.8067436,14.441587,0.0,nan,nan,nan,nan,nan,nan,nan,nan,nan
594856847,nan,nan,-77.7529,nan,0.10779214,4.2632914,14.07687,0.0,nan,nan,nan,nan,nan,nan,nan,nan,nan
595056564,nan,nan,-77.7529,nan,0.10176103,4.056455,14.73471,0.0,nan,nan,nan,nan,nan,nan,nan,nan,nan
595256679,nan,nan,-77.7529,nan,0.026757585,3.5677946,14.504733,0.0,nan,nan,nan,nan,nan,nan,nan,nan,nan
595456778,nan,nan,-77.7529,nan,0.0073575317,3.2731743,14.372669,0.0,nan,nan,nan,nan,nan,nan,nan,nan,nan
595657156,nan,nan,-77.7529,nan,0.00083149323,3.0849578,14.220247,0.0,nan,nan,nan,nan,nan,nan,nan,nan,nan
595877484,nan,nan,-77.7529,nan,7.09993e-05,2.7263727,12.729555,0.0,nan,nan,nan,nan,nan,nan,nan,nan,nan
596077530,nan,nan,-77.7529,nan,7.6147353e-06,2.304029,11.187668,0.0,nan,nan,nan,nan,nan,nan,nan,nan,nan
596277641,nan,nan,-77.7529,nan,8.159647e-07,1.8195213,9.664362,0.0,nan,nan,nan,nan,nan,nan,nan,nan,nan
596477893,nan,nan,-77.7529,1.4032592,8.753209e-08,1.6493113,9.752171,0.0,nan,nan,nan,nan,nan,nan,nan,nan,nan
596678481,nan,nan,-77.7529,1.4032592,9.361292e-09,1.7262763,10.207254,0.0,nan,nan,nan,nan,nan,nan,nan,nan,nan
596878515,nan,nan,-77.7529,1.4032592,1.0041382e-09,1.7215071,10.179054,0.0,nan,nan,nan,nan,nan,nan,nan,nan,nan
597078488,nan,nan,-77.7529,1.4032592,1.0733501e-10,1.7597167,10.4049835,0.0,nan,nan,nan,nan,nan,nan,nan,nan,nan
597278537,nan,nan,-77.7529,1.4032592,1.1500678e-11,1.7475554,10.333076,0.0,nan,nan,nan,nan,nan,nan,nan,nan,nan
597478817,nan,nan,-77.7529,1.4032592,1.2293465e-12,1.8006216,10.64685,0.0,nan,nan,nan,nan,nan,nan,nan,nan,nan
597699073,nan,nan,-77.7529,1.4032592,1.0532057e-13,1.8985804,11.226067,0.0,nan,nan,nan,nan,nan,nan,nan,nan,nan
597899201,nan,nan,-77.7529,1.4032592,1.1291885e-14,1.8661386,11.034243,0.0,nan,nan,nan,nan,nan,nan,nan,nan,nan
598099597,nan,nan,-77.7529,1.4032592,1.2062347e-15,1.9561876,11.566691,0.0,nan,nan,nan,nan,nan,nan,nan,nan,nan
598299743,nan,nan,-77.7529,1.4032592,1.2926709e-16,1.9380449,11.459415,0.0,nan,nan,nan,nan,nan,nan,nan,nan,nan
598499859,nan,nan,-77.7529,1.4032592,1.3848585e-17,2.0062115,11.862476,0.0,nan,nan,nan,nan,nan,nan,nan,nan,nan
598700033,nan,nan,-77.7529,1.4032592,1.4812656e-18,2.035153,12.033604,0.0,nan,nan,nan,nan,nan,nan,nan,nan,nan
598900371,nan,nan,-77.7529,1.4032592,1.5864907e-19,2.0457642,12.096346,0.0,nan,nan,nan,nan,nan,nan,nan,nan,nan
599100913,nan,nan,-77.7529,1.4032592,1.700004e-20,2.0511293,12.12807,0.0,nan,nan,nan,nan,nan,nan,nan,nan,nan
599300586,nan,nan,-77.7529,1.4032592,1.820635e-21,2.020294,11.9457445,0.0,nan,nan,nan,nan,nan,nan,nan,nan,nan
599520894,nan,nan,-77.7529,1.4032592,1.557345e-22,2.073405,12.259783,0.0,nan,nan,nan,nan,nan,nan,nan,nan,nan
599721047,nan,nan,-77.7529,1.4032592,1.6680803e-23,2.0185542,11.935457,0.0,nan,nan,nan,nan,nan,nan,nan,nan,nan
599921339,nan,nan,-77.7529,1.4032592,1.7841787e-24,2.0002475,11.827212,0.0,nan,nan,nan,nan,nan,nan,nan,nan,nan
600121477,nan,nan,-77.7529,1.4032592,1.9099756e-25,2.0569656,12.162579,0.0,nan,nan,nan,nan,nan,nan,nan,nan,nan
600321974,nan,nan,-77.7529,1.4032592,2.037973e-26,2.088951,12.351705,0.0,nan,nan,nan,nan,nan,nan,nan,nan,nan
600522104,nan,nan,-77.7529,1.4032592,2.1881727e-27,2.002684,11.841619,0.0,nan,nan,nan,nan,nan,nan,nan,nan,nan
600722305,nan,nan,-77.7529,1.4032592,2.3398956e-28,1.9191327,11.3475895,0.0,nan,nan,nan,nan,nan,nan,nan,nan,nan
600942342,nan,nan,-77.7529,1.4032592,2.0113359e-29,1.937632,11.456974,0.0,nan,nan,nan,nan,nan,nan,nan,nan,nan
601142504,nan,nan,-77.7529,1.4032592,2.1538598e-30,2.036515,12.041657,0.0,nan,nan,nan,nan,nan,nan,nan,nan,nan
601342662,nan,nan,-77.7529,1.4032592,2.3090029e-31,1.9966065,11.805682,0.0,nan,nan,nan,nan,nan,nan,nan,nan,nan
601543487,nan,nan,-77.7529,1.4032592,2.47102e-32,1.8275664,10.8061695,0.0,nan,nan,nan,nan,nan,nan,nan,nan,nan
601743068,nan,nan,-77.7529,1.4032592,2.6475428e-33,1.8174504,10.746355,0.0,nan,nan,nan,nan,nan,nan,nan,nan,nan
601943470,nan,nan,-77.7529,1.4032592,2.8308983e-34,1.5502095,9.166194,0.0,nan,nan,nan,nan,nan,nan,nan,nan,nan
602143568,nan,nan,-77.7529,1.4032592,3.0364308e-35,1.4467397,8.55439,0.0,nan,nan,nan,nan,nan,nan,nan,nan,nan
602343737,nan,nan,-77.7529,1.4032592,3.24876e-36,1.5145897,8.955578,0.0,nan,nan,nan,nan,nan,nan,nan,nan,nan
602563911,nan,nan,-77.7529,1.4032592,2.7830252e-37,1.4211301,8.402963,0.0,nan,nan,nan,nan,nan,nan,nan,nan,nan
602764528,nan,nan,-77.7529,1.4032592,2.968877e-38,1.4818004,8.7617,0.0,nan,nan,nan,nan,nan,nan,nan,nan,nan
602964265,nan,nan,-77.7529,1.4032592,3.19704e-39,1.5961007,9.437542,0.0,nan,nan,nan,nan,nan,nan,nan,nan,nan
603164621,nan,nan,-77.7529,1.4032592,3.41318e-40,1.5746621,9.31078,0.0,nan,nan,nan,nan,nan,nan,nan,nan,nan
603364778,nan,nan,-77.7529,1.4032592,3.6532e-41,1.6488255,9.749298,0.0,nan,nan,nan,nan,nan,nan,nan,nan,nan
603564878,nan,nan,-77.7529,1.4032592,3.915e-42,1.7836363,10.546417,0.0,nan,nan,nan,nan,nan,nan,nan,nan,nan
603765197,nan,nan,-77.7529,1.4032592,4.19e-43,1.7443408,10.314068,0.0,nan,nan,nan,nan,nan,nan,nan,nan,nan
603965694,nan,nan,-77.7529,1.4032592,4.5e-44,1.9430268,11.488873,0.0,nan,nan,nan,nan,nan,nan,nan,nan,nan
604165671,nan,nan,-77.7529,1.4032592,4e-45,2.010384,11.887148,0.0,nan,nan,nan,nan,nan,nan,nan,nan,nan
604386358,nan,nan,-77.7529,1.4032592,3e-45,1.9515915,11.5395155,0.0,nan,nan,nan,nan,nan,nan,nan,nan,nan
604585970,nan,nan,-77.7529,1.4032592,3e-45,2.0656705,12.214049,0.0,nan,nan,nan,nan,nan,nan,nan,nan,nan
604786107,nan,nan,-77.7529,1.4032592,3e-45,2.0547676,12.149583,0.0,nan,nan,nan,nan,nan,nan,nan,nan,nan
604986304,nan,nan,-77.7529,1.4032592,3e-45,2.0354197,12.035181,0.0,nan,nan,nan,nan,nan,nan,nan,nan,nan
605186796,nan,nan,-77.7529,1.4032592,3e-45,2.0374029,12.046906,0.0,nan,nan,nan,nan,nan,nan,nan,nan,nan
605386719,nan,nan,-77.7529,1.4032592,3e-45,2.0839288,12.322008,0.0,nan,nan,nan,nan,nan,nan,nan,nan,nan
605588505,nan,nan,-77.7529,1.4032592,3e-45,2.089359,12.354117,0.0,nan,nan,nan,nan,nan,nan,nan,nan,nan
605807267,nan,nan,-77.7529,1.4032592,3e-45,2.0883255,12.348005,0.0,nan,nan,nan,nan,nan,nan,nan,nan,nan
606007467,nan,nan,-77.7529,1.4032592,3e-45,2.0940928,12.382107,0.0,nan,nan,nan,nan,nan,nan,nan,nan,nan
606207614,nan,nan,-77.7529,1.4032592,3e-45,2.1105669,12.479517,0.0,nan,nan,nan,nan,nan,nan,nan,nan,nan
606408281,nan,nan,-77.7529,1.4032592,3e-45,2.1064975,12.455455,0.0,nan,nan,nan,nan,nan,nan,nan,nan,nan
606607929,nan,nan,-77.7529,1.4032592,3e-45,2.11101,12.482138,0.0,nan,nan,nan,nan,nan,nan,nan,nan,nan
606808820,nan,nan,-77.7529,1.4032592,3e-45,2.081499,12.307642,0.0,nan,nan,nan,nan,nan,nan,nan,nan,nan
607008522,nan,nan,-77.7529,1.4032592,3e-45,2.1104622,12.478897,0.0,nan,nan,nan,nan,nan,nan,nan,nan,nan
607228530,nan,nan,-77.7529,1.4032592,3e-45,2.0417092,12.072369,0.0,nan,nan,nan,nan,nan,nan,nan,nan,nan
607428735,nan,nan,-77.7529,1.4032592,3e-45,1.9907602,11.771114,0.0,nan,nan,nan,nan,nan,nan,nan,nan,nan
607629160,nan,nan,-77.7529,1.4032592,3e-45,1.761149,10.413453,0.0,nan,nan,nan,nan,nan,nan,nan,nan,nan
607829147,nan,nan,-77.7529,1.4032592,3e-45,1.6330247,9.6558695,0.0,nan,nan,nan,nan,nan,nan,nan,nan,nan
608029319,nan,nan,-77.7529,1.4032592,3e-45,1.6383703,9.687477,0.0,nan,nan,nan,nan,nan,nan,nan,nan,nan
608250319,nan,nan,-77.7529,1.4032592,3e-45,1.4793143,8.747,0.0,nan,nan,nan,nan,nan,nan,nan,nan,nan
608450466,nan,nan,-77.7529,1.4032592,3e-45,1.4257692,8.430394,0.0,nan,nan,nan,nan,nan,nan,nan,nan,nan
608650492,nan,nan,-77.7529,1.4032592,3e-45,1.3494337,7.9790316,0.0,nan,nan,nan,nan,nan,nan,nan,nan,nan
608850681,nan,nan,-77.7529,1.4032592,3e-45,1.0952489,6.476069,0.0,nan,nan,nan,nan,nan,nan,nan,nan,nan
609052537,nan,nan,-77.7529,1.4032592,3e-45,1.1474572,6.7847705,0.0,nan,nan,nan,nan,nan,nan,nan,nan,nan
609252421,nan,nan,-77.7529,1.4032592,3e-45,1.1738611,6.940893,0.0,nan,nan,nan,nan,nan,nan,nan,nan,nan
609452076,nan,nan,-77.7529,1.4032592,3e-45,1.1847745,7.0054226,0.0,nan,nan,nan,nan,nan,nan,nan,nan,nan
609651067,nan,nan,-77.7529,1.4032592,3e-45,1.1906108,7.0399313,0.0,nan,nan,nan,nan,nan,nan,nan,nan,nan
609871271,nan,nan,-77.7529,1.4032592,3e-45,1.2558653,7.4257736,0.0,nan,nan,nan,nan,nan,nan,nan,nan,nan
610071457,nan,nan,-77.7529,1.4032592,3e-45,1.3396939,7.9214416,0.0,nan,nan,nan,nan,nan,nan,nan,nan,nan
610271537,nan,nan,-77.7529,1.4032592,3e-45,1.3350955,7.894252,0.0,nan,nan,nan,nan,nan,nan,nan,nan,nan
610473410,nan,nan,-77.7529,1.4032592,3e-45,1.3659434,8.076652,0.0,nan,nan,nan,nan,nan,nan,nan,nan,nan
610672022,nan,nan,-77.7529,1.4032592,3e-45,1.3905813,8.222332,0.0,nan,nan,nan,nan,nan,nan,nan,nan,nan
610872069,nan,nan,-77.7529,1.4032592,3e-45,1.4090503,8.331537,0.0,nan,nan,nan,nan,nan,nan,nan,nan,nan
611092884,nan,nan,-77.7529,1.4032592,3e-45,1.2667801,7.4903116,0.0,nan,nan,nan,nan,nan,nan,nan,nan,nan
611292690,nan,nan,-77.7529,1.4032592,3e-45,1.1857228,7.0110297,0.0,nan,nan,nan,nan,nan,nan,nan,nan,nan
611492895,nan,nan,-77.7529,1.4032592,3e-45,1.1622422,6.872191,0.0,nan,nan,nan,nan,nan,nan,nan,nan,nan
611693043,nan,nan,-77.7529,1.4032592,3e-45,1.0622026,6.2806697,0.0,nan,nan,nan,nan,nan,nan,nan,nan,nan
611893314,nan,nan,-77.7529,1.4032592,3e-45,1.2130479,7.1726,0.0,nan,nan,nan,nan,nan,nan,nan,nan,nan
612093531,nan,nan,-77.7529,1.4032592,3e-45,1.2727667,7.5257087,0.0,nan,nan,nan,nan,nan,nan,nan,nan,nan
612293632,nan,nan,-77.7529,1.4032592,3e-45,1.2291869,7.2680273,0.0,nan,nan,nan,nan,nan,nan,nan,nan,nan
612514106,nan,nan,-77.7529,1.4032592,3e-45,1.0207335,6.035468,0.0,nan,nan,nan,nan,nan,nan,nan,nan,nan
612716844,nan,nan,-77.7529,1.4032592,3e-45,1.0927893,6.4615254,0.0,nan,nan,nan,nan,nan,nan,nan,nan,nan
612915997,nan,nan,-77.7529,1.4032592,3e-45,1.1654446,6.891127,0.0,nan,nan,nan,nan,nan,nan,nan,nan,nan
613114464,nan,nan,-77.7529,1.4032592,3e-45,1.0397756,6.148062,0.0,nan,nan,nan,nan,nan,nan,nan,nan,nan
613314652,nan,nan,-77.7529,nan,0.050064337,1.0637424,6.2266755,0.0,nan,nan,nan,nan,nan,nan,nan,nan,nan
613515454,nan,nan,-77.7529,nan,0.010401243,1.0393379,6.2331767,0.0,nan,nan,nan,nan,nan,nan,nan,nan,nan
613715048,nan,nan,-77.7529,nan,0.0011141835,0.9529226,5.7303405,0.0,nan,nan,nan,nan,nan,nan,nan,nan,nan
613917096,nan,nan,-77.7529,nan,0.0001166439,0.9790161,5.8691516,0.0,nan,nan,nan,nan,nan,nan,nan,nan,nan
614115463,nan,nan,-77.7529,nan,1.2767217e-05,1.0718908,6.3216424,0.0,nan,nan,nan,nan,nan,nan,nan,nan,nan
614335759,nan,nan,-77.7529,nan,1.0923065e-06,1.0763234,6.2340565,0.0,nan,nan,nan,nan,nan,nan,nan,nan,nan
614535871,nan,nan,-77.7529,nan,0.0838043,1.0056008,5.6775737,0.0,nan,nan,nan,nan,nan,nan,nan,nan,nan
614736357,nan,nan,-77.7529,nan,0.07792309,0.7423336,4.1891418,0.0,nan,nan,nan,nan,nan,nan,nan,nan,nan
614936348,nan,nan,-77.7529,nan,0.020602638,0.65675724,3.8141112,0.0,nan,nan,nan,nan,nan,nan,nan,nan,nan
615136751,nan,nan,-77.7529,nan,0.07054125,0.64852244,3.9401207,0.0,nan,nan,nan,nan,nan,nan,nan,nan,nan
615336754,nan,nan,-77.7529,nan,0.06981052,0.63933825,4.126607,0.0,nan,nan,nan,nan,nan,nan,nan,nan,nan
615536796,nan,nan,-77.7529,nan,0.12348222,0.5892234,4.1312237,0.0,nan,nan,nan,nan,nan,nan,nan,nan,nan
615737176,nan,nan,-77.7529,nan,0.1132178,0.518306,4.0686054,0.0,nan,nan,nan,nan,nan,nan,nan,nan,nan
615957904,nan,nan,-77.7529,nan,0.15371023,0.4403039,4.073986,0.0,nan,nan,nan,nan,nan,nan,nan,nan,nan
616157675,nan,nan,-77.7529,nan,0.0752102,0.35210174,4.0900655,0.0,nan,nan,nan,nan,nan,nan,nan,nan,nan
616357630,nan,nan,-77.7529,nan,0.078258365,0.300737,4.2559757,0.0,nan,nan,nan,nan,nan,nan,nan,nan,nan
616557769,nan,nan,-77.7529,nan,0.21884382,0.23503572,4.2813387,0.0,nan,nan,nan,nan,nan,nan,nan,nan,nan
616758013,nan,nan,-77.7529,nan,0.14508699,0.09558102,3.7457085,0.0,nan,nan,nan,nan,nan,nan,nan,nan,nan
616958241,nan,nan,-77.7529,nan,0.38526216,-0.009727161,5.1176047,0.0,nan,nan,nan,nan,nan,nan,nan,nan,nan
617158941,nan,nan,-77.7529,nan,0.24335133,-0.3045496,4.944091,0.0,nan,nan,nan,nan,nan,nan,nan,nan,nan
617358755,nan,nan,-77.7529,nan,0.2467274,-0.56163144,5.122796,0.0,nan,nan,nan,nan,nan,nan,nan,nan,nan
617558900,nan,nan,-77.7529,nan,0.037568185,-0.77231914,5.036717,0.0,nan,nan,nan,nan,nan,nan,nan,nan,nan
617759125,nan,nan,-77.7529,nan,0.0040203705,-1.0543121,6.1488914,0.0,nan,nan,nan,nan,nan,nan,nan,nan,nan
617959260,nan,nan,-77.7529,nan,0.00043034635,-1.1822815,6.690667,0.0,nan,nan,nan,nan,nan,nan,nan,nan,nan
618159495,nan,nan,-77.7529,nan,4.610781e-05,-1.2139022,7.027176,0.0,nan,nan,nan,nan,nan,nan,nan,nan,nan
618380272,nan,nan,-77.7529,nan,3.94821e-06,-1.279837,7.838329,0.0,nan,nan,nan,nan,nan,nan,nan,nan,nan
618579915,nan,nan,-77.7529,nan,4.2261493e-07,-1.232929,8.017969,0.0,nan,nan,nan,nan,nan,nan,nan,nan,nan
618780106,nan,nan,-77.7529,1.7163163,4.521111e-08,-1.126499,7.6864758,0.0,nan,nan,nan,nan,nan,nan,nan,nan,nan
618981473,nan,nan,-77.7529,1.7163163,4.7694475e-09,-1.0982,7.4933825,0.0,nan,nan,nan,nan,nan,nan,nan,nan,nan
619181126,nan,nan,-77.7529,nan,-0.02850148,-0.9784527,7.5877185,0.0,nan,nan,nan,nan,nan,nan,nan,nan,nan
619380816,nan,nan,-77.7529,nan,-0.12580158,-0.8967314,7.8908243,0.0,nan,nan,nan,nan,nan,nan,nan,nan,nan
619581176,nan,nan,-77.7529,nan,-0.013448017,-0.7161147,7.3388596,0.0,nan,nan,nan,nan,nan,nan,nan,nan,nan
619801624,nan,nan,-77.7529,nan,-0.001148609,-0.6789605,7.4375978,0.0,nan,nan,nan,nan,nan,nan,nan,nan,nan
620003003,nan,nan,-77.7529,nan,-0.00012112899,-0.66803867,7.124135,0.0,nan,nan,nan,nan,nan,nan,nan,nan,nan
620201962,nan,nan,-77.7529,nan,-1.3166933e-05,-0.75747496,7.5331516,0.0,nan,nan,nan,nan,nan,nan,nan,nan,nan
620402450,nan,nan,-77.7529,nan,-1.404455e-06,-0.80962133,7.29066,0.0,nan,nan,nan,nan,nan,nan,nan,nan,nan
620601921,nan,nan,-77.7529,nan,-1.5203085e-07,-0.8830865,7.3266115,0.0,nan,nan,nan,nan,nan,nan,nan,nan,nan
620802262,nan,nan,-77.7529,1.6915835,-1.6262439e-08,-0.86252034,7.1060658,0.0,nan,nan,nan,nan,nan,nan,nan,nan,nan
621003105,nan,nan,-77.7529,1.6915835,-1.7242554e-09,-0.8590412,7.077402,0.0,nan,nan,nan,nan,nan,nan,nan,nan,nan
621202454,nan,nan,-77.7529,1.6915835,-1.8640761e-10,-0.8218778,6.771223,0.0,nan,nan,nan,nan,nan,nan,nan,nan,nan
621402718,nan,nan,-77.7529,1.6915835,-1.9966412e-11,-0.8634249,7.113518,0.0,nan,nan,nan,nan,nan,nan,nan,nan,nan
621602920,nan,nan,-77.7529,1.6915835,-2.1368814e-12,-0.88489944,7.2904406,0.0,nan,nan,nan,nan,nan,nan,nan,nan,nan
621803128,nan,nan,-77.7529,1.6915835,-2.2886922e-13,-0.8769105,7.2246222,0.0,nan,nan,nan,nan,nan,nan,nan,nan,nan
622003595,nan,nan,-77.7529,1.6915835,-2.4409707e-14,-0.7001155,5.768057,0.0,nan,nan,nan,nan,nan,nan,nan,nan,nan
622225440,nan,nan,-77.7529,1.6915835,-2.0459308e-15,-0.83675575,6.6071186,0.0,nan,nan,nan,nan,nan,nan,nan,nan,nan
622425659,nan,nan,-77.7529,1.6915835,-2.1877368e-16,-0.7361298,5.812566,0.0,nan,nan,nan,nan,nan,nan,nan,nan,nan
622623933,nan,nan,-77.7529,1.6915835,-2.3989283e-17,-0.6364844,5.0257545,0.0,nan,nan,nan,nan,nan,nan,nan,nan,nan
622824024,nan,nan,-77.7529,1.6915835,-2.5728986e-18,-0.53592587,4.2317324,0.0,nan,nan,nan,nan,nan,nan,nan,nan,nan
623024315,nan,nan,-77.7529,1.6915835,-2.7571271e-19,-0.43533316,3.4374404,0.0,nan,nan,nan,nan,nan,nan,nan,nan,nan
623224597,nan,nan,-77.7529,1.6915835,-2.9494537e-20,-0.3346736,2.6426215,0.0,nan,nan,nan,nan,nan,nan,nan,nan,nan
623426875,nan,nan,-77.7529,1.6915835,-3.0724045e-21,-0.23298083,1.8396434,0.0,nan,nan,nan,nan,nan,nan,nan,nan,nan
623626109,nan,nan,-77.7529,1.6915835,-3.3272828e-22,-0.13287209,1.0491731,0.0,nan,nan,nan,nan,nan,nan,nan,nan,nan
623825602,nan,nan,-77.7529,1.6915835,-3.5867196e-23,-0.03256885,0.25716737,0.0,nan,nan,nan,nan,nan,nan,nan,nan,nan
624045424,nan,nan,-77.7529,1.6915835,-3.0872967e-24,0.0,0.0,0.0,nan,nan,nan,nan,nan,nan,nan,nan,nan
624245843,nan,nan,-77.7529,1.6915835,-3.298431e-25,0.0,0.0,0.0,nan,nan,nan,nan,nan,nan,nan,nan,nan
624445964,nan,nan,-77.7529,1.6915835,-3.5362484e-26,0.0,0.0,0.0,nan,nan,nan,nan,nan,nan,nan,nan,nan
624646265,211.0401,648.3282,-77.7529,1.6915835,-3.7783976e-27,0.0,0.0,0.0,nan,nan,nan,nan,nan,nan,nan,nan,nan
624847885,211.0401,648.3282,-77.7529,1.6915835,-3.9686524e-28,0.0,0.0,0.0,nan,nan,nan,nan,nan,nan,nan,nan,nan
625046404,211.0401,648.3282,-77.7529,nan,-0.00580395,0.0,0.0,0.0,nan,nan,nan,nan,nan,nan,nan,nan,nan
625246435,211.0401,648.3282,-77.7529,nan,-0.025039002,0.0,0.0,0.0,nan,nan,nan,nan,nan,nan,nan,nan,nan
625446729,211.0401,648.3282,-77.7529,nan,-0.0026833534,0.0,0.0,0.0,nan,nan,nan,nan,nan,nan,nan,nan,nan
625667063,211.0401,648.3282,-77.7529,nan,-0.00022930623,0.0,0.0,0.0,nan,nan,nan,nan,nan,nan,nan,nan,nan
625868002,211.0401,648.3282,-77.7529,nan,-2.430656e-05,0.0,0.0,0.0,nan,nan,nan,nan,nan,nan,nan,nan,nan
626069729,211.0401,648.3282,-77.7529,nan,-2.5528411e-06,0.0,0.0,0.0,nan,nan,nan,nan,nan,nan,nan,nan,nan
626269737,211.0401,648.3282,-77.7529,nan,-2.737712e-07,0.0,0.0,0.0,nan,nan,nan,nan,nan,nan,nan,nan,nan
626467810,211.0401,648.3282,-77.7529,1.6165819,-3.015913e-08,0.0,0.0,0.0,nan,nan,nan,nan,nan,nan,nan,nan,nan
626668383,211.0401,648.3282,-77.7529,1.6165819,-3.2115461e-09,0.0,0.0,0.0,nan,nan,nan,nan,nan,nan,nan,nan,nan
626868381,211.0401,648.3282,-77.7529,1.6165819,-3.4455597e-10,0.0,0.0,0.0,nan,nan,nan,nan,nan,nan,nan,nan,nan
627068582,211.0401,648.3282,-77.7529,1.6165819,-3.6891618e-11,0.0,0.0,0.0,nan,nan,nan,nan,nan,nan,nan,nan,nan
627268666,211.0401,648.3282,-77.7529,1.6165819,-3.9493855e-12,0.0,0.0,0.0,nan,nan,nan,nan,nan,nan,nan,nan,nan
627488699,211.0401,648.3282,-77.7529,1.6165819,-3.3895583e-13,0.0,0.0,0.0,nan,nan,nan,nan,nan,nan,nan,nan,nan
627688844,211.0401,648.3282,-77.7529,1.6165819,-3.63046e-14,0.0,0.0,0.0,nan,nan,nan,nan,nan,nan,nan,nan,nan
627889173,211.0401,648.3282,-77.7529,1.6165819,-3.8808716e-15,0.0,0.0,0.0,nan,nan,nan,nan,nan,nan,nan,nan,nan
628089382,211.0401,648.3282,-77.7529,1.6165819,-4.155596e-16,0.0,0.0,0.0,nan,nan,nan,nan,nan,nan,nan,nan,nan
628289554,211.0401,648.3282,-77.7529,1.6165819,-4.4549198e-17,0.0,0.0,0.0,nan,nan,nan,nan,nan,nan,nan,nan,nan
628489909,211.0401,648.3282,-77.7529,1.6165819,-4.764755e-18,0.0,0.0,0.0,nan,nan,nan,nan,nan,nan,nan,nan,nan
628689915,211.0401,648.3282,-77.7529,1.6165819,-5.1074655e-19,0.0,0.0,0.0,nan,nan,nan,nan,nan,nan,nan,nan,nan
628890247,211.0401,648.3282,-77.7529,1.6165819,-5.4616416e-20,0.0,0.0,0.0,nan,nan,nan,nan,nan,nan,nan,nan,nan
629090799,211.0401,648.3282,-77.7529,1.6165819,-5.825976e-21,0.0,0.0,0.0,nan,nan,nan,nan,nan,nan,nan,nan,nan
629310706,211.0401,648.3282,-77.7529,1.6165819,-5.008593e-22,0.0,0.0,0.0,nan,nan,nan,nan,nan,nan,nan,nan,nan
629510907,211.0401,648.3282,-77.7529,1.6165819,-5.366022e-23,0.0,0.0,0.0,nan,nan,nan,nan,nan,nan,nan,nan,nan
629710967,211.0401,648.3282,-77.7529,1.6165819,-5.7513506e-24,0.0,0.0,0.0,nan,nan,nan,nan,nan,nan,nan,nan,nan
629911249,211.0401,648.3282,-77.7529,1.6165819,-6.1582796e-25,0.0,0.0,0.0,nan,nan,nan,nan,nan,nan,nan,nan,nan
630111486,211.0401,648.3282,-77.7529,1.6165819,-6.59745e-26,0.0,0.0,0.0,nan,nan,nan,nan,nan,nan,nan,nan,nan
630311580,211.0401,648.3282,-77.7529,1.6165819,-7.069789e-27,0.0,0.0,0.0,nan,nan,nan,nan,nan,nan,nan,nan,nan
630511827,211.0401,648.3282,-77.7529,1.6165819,-7.5587233e-28,0.0,0.0,0.0,nan,nan,nan,nan,nan,nan,nan,nan,nan
630712783,211.0401,648.3282,-77.7529,1.6165819,-8.0125595e-29,0.0,0.0,0.0,nan,nan,nan,nan,nan,nan,nan,nan,nan
630912514,211.0401,648.3282,-77.7529,1.6165819,-8.6421826e-30,0.0,0.0,0.0,nan,nan,nan,nan,nan,nan,nan,nan,nan
631132472,211.0401,648.3282,-77.7529,1.6165819,-7.422455e-31,0.0,0.0,0.0,nan,nan,nan,nan,nan,nan,nan,nan,nan
631333112,211.0401,648.3282,-77.7529,1.6165819,-7.9014855e-32,0.0,0.0,0.0,nan,nan,nan,nan,nan,nan,nan,nan,nan
631533174,211.0401,648.3282,-77.7529,1.6165819,-8.478204e-33,0.0,0.0,0.0,nan,nan,nan,nan,nan,nan,nan,nan,nan
631733069,211.0401,648.3282,-77.7529,1.6165819,-9.120973e-34,0.0,0.0,0.0,nan,nan,nan,nan,nan,nan,nan,nan,nan
631933368,211.0401,648.3282,-77.7529,1.6165819,-9.747414e-35,0.0,0.0,0.0,nan,nan,nan,nan,nan,nan,nan,nan,nan
632133401,211.0401,648.3282,-77.7529,1.6165819,-1.04434035e-35,0.0,0.0,0.0,nan,nan,nan,nan,nan,nan,nan,nan,nan
632333599,211.0401,648.3282,-77.7529,1.6165819,-1.1185252e-36,0.0,0.0,0.0,nan,nan,nan,nan,nan,nan,nan,nan,nan
632533705,211.0401,648.3282,-77.7529,1.6165819,-1.1994034e-37,0.0,0.0,0.0,nan,nan,nan,nan,nan,nan,nan,nan,nan
632754015,211.0401,648.3282,-77.7529,1.6165819,-1.0262757e-38,0.0,0.0,0.0,nan,nan,nan,nan,nan,nan,nan,nan,nan
632954317,211.0401,648.3282,-77.7529,1.6165819,-1.097723e-39,0.0,0.0,0.0,nan,nan,nan,nan,nan,nan,nan,nan,nan
633154413,211.0401,648.3282,-77.7529,1.6165819,-1.1772e-40,0.0,0.0,0.0,nan,nan,nan,nan,nan,nan,nan,nan,nan
633354771,211.0401,648.3282,-77.7529,1.6165819,-1.2602e-41,0.0,0.0,0.0,nan,nan,nan,nan,nan,nan,nan,nan,nan
633554904,211.0401,648.3282,-77.7529,1.6165819,-1.35e-42,0.0,0.0,0.0,nan,nan,nan,nan,nan,nan,nan,nan,nan
633755416,211.0401,648.3282,-77.7529,1.6165819,-1.44e-43,0.0,0.0,0.0,nan,nan,nan,nan,nan,nan,nan,nan,nan
633955699,211.0401,648.3282,-77.71711,1.6165819,-1.5e-44,0.0,0.0,0.0,nan,nan,nan,nan,nan,nan,nan,nan,nan
634156789,211.0401,648.3282,-77.71711,1.6165819,-3e-45,0.0,0.0,0.0,nan,nan,nan,nan,nan,nan,nan,nan,nan
634355733,211.0401,648.3282,-77.71711,1.6165819,-3e-45,0.0,0.0,0.0,nan,nan,nan,nan,nan,nan,nan,nan,nan
634575801,211.0401,648.3282,-77.71711,1.6165819,-3e-45,0.0,0.0,0.0,nan,nan,nan,nan,nan,nan,nan,nan,nan
634776010,211.0401,648.3282,-77.71711,1.6165819,-3e-45,0.0,0.0,0.0,nan,nan,nan,nan,nan,nan,nan,nan,nan
634976138,211.0401,648.3282,-77.71711,1.6165819,-3e-45,0.0,0.0,0.0,nan,nan,nan,nan,nan,nan,nan,nan,nan
635176410,211.0401,648.3282,-77.71711,1.6165819,-3e-45,0.0,0.0,0.0,nan,nan,nan,nan,nan,nan,nan,nan,nan
635376624,211.0401,648.3282,-77.71711,1.6165819,-3e-45,0.0,0.0,0.0,nan,nan,nan,nan,nan,nan,nan,nan,nan
635576813,211.0401,648.3282,-77.71711,1.6165819,-3e-45,0.0,0.0,0.0,nan,nan,nan,nan,nan,nan,nan,nan,nan
635777701,211.0401,648.3282,-77.71711,1.6165819,-3e-45,0.0,0.0,0.0,nan,nan,nan,nan,nan,nan,nan,nan,nan
635977310,211.0401,648.3282,-77.71711,1.6165819,-3e-45,0.0,0.0,0.0,nan,nan,nan,nan,nan,nan,nan,nan,nan
636197706,211.0401,648.3282,-77.71711,1.6165819,-3e-45,0.0,0.0,0.0,nan,nan,nan,nan,nan,nan,nan,nan,nan
636397756,211.0401,648.3282,-77.71711,1.6165819,-3e-45,0.0,0.0,0.0,nan,nan,nan,nan,nan,nan,nan,nan,nan
636597973,211.0401,648.3282,-77.71711,1.6165819,-3e-45,0.0,0.0,0.0,nan,nan,nan,nan,nan,nan,nan,nan,nan
636798489,211.0401,648.3282,-77.71711,1.6165819,-3e-45,0.0,0.0,0.0,nan,nan,nan,nan,nan,nan,nan,nan,nan
636998288,211.0401,648.3282,-77.71711,1.6165819,-3e-45,0.0,0.0,0.0,nan,nan,nan,nan,nan,nan,nan,nan,nan
