timestamp,voltage_v,voltage_filtered_v,current_a,current_filtered_a,average_current_a,discharged_mah,remaining,scale,temperature,cell_count,voltage_cell_v[0],voltage_cell_v[1],voltage_cell_v[2],voltage_cell_v[3],max_cell_voltage_delta,capacity,cycle_count,run_time_to_empty,average_time_to_empty,serial_number,connected,system_source,priority,is_powering_off,warning
519050777,50.753143,50.761597,0.3,0.3,0.0,43.070663,1.0,1.0,0.0,12,0.0,0.0,0.0,0.0,0.0,0,0,0,0,1234,1,1,0,0,0
519253737,50.77333,50.76001,0.3,0.3,0.0,43.087566,1.0,1.0,0.0,12,0.0,0.0,0.0,0.0,0.0,0,0,0,0,1234,1,1,0,0,0
519457732,50.813705,50.75801,0.3625,0.3625,0.0,43.105034,1.0,1.0,0.0,12,0.0,0.0,0.0,0.0,0.0,0,0,0,0,1234,1,1,0,0,0
519661316,50.813705,50.7565,0.4875,0.4875,0.0,43.129967,1.0,1.0,0.0,12,0.0,0.0,0.0,0.0,0.0,0,0,0,0,1234,1,1,0,0,0
519864263,50.732956,50.753693,0.565625,0.565625,0.0,43.158546,1.0,1.0,0.0,12,0.0,0.0,0.0,0.0,0.0,0,0,0,0,1234,1,1,0,0,0
520056113,50.67239,50.751476,0.659375,0.659375,0.0,43.190586,1.0,1.0,0.0,12,0.0,0.0,0.0,0.0,0.0,0,0,0,0,1234,1,1,0,0,0
520259516,50.753143,50.75102,0.753125,0.753125,0.0,43.231472,1.0,1.0,0.0,12,0.0,0.0,0.0,0.0,0.0,0,0,0,0,1234,1,1,0,0,0
520463424,50.732956,50.745197,0.878125,0.878125,0.0,43.27738,1.0,1.0,0.0,12,0.0,0.0,0.0,0.0,0.0,0,0,0,0,1234,1,1,0,0,0
520666533,50.793518,50.74419,1.003125,1.003125,0.0,43.329372,1.0,1.0,0.0,12,0.0,0.0,0.0,0.0,0.0,0,0,0,0,1234,1,1,0,0,0
520870675,50.753143,50.743317,1.1125,1.1125,0.0,43.388664,1.0,1.0,0.0,12,0.0,0.0,0.0,0.0,0.0,0,0,0,0,1234,1,1,0,0,0
521073726,50.732956,50.74447,1.253125,1.253125,0.0,43.454098,1.0,1.0,0.0,12,0.0,0.0,0.0,0.0,0.0,0,0,0,0,1234,1,1,0,0,0
521277866,50.712765,50.741722,1.596875,1.596875,0.0,43.529865,1.0,1.0,0.0,12,0.0,0.0,0.0,0.0,0.0,0,0,0,0,1234,1,1,0,0,0
521481324,50.57145,50.713875,6.9875,6.9875,0.0,43.71934,1.0,1.0,0.0,12,0.0,0.0,0.0,0.0,0.0,0,0,0,0,1234,1,1,0,0,0
521685033,50.67239,50.70441,8.33125,8.33125,0.0,44.19637,1.0,1.0,0.0,12,0.0,0.0,0.0,0.0,0.0,0,0,0,0,1234,1,1,0,0,0
521888282,50.611824,50.698803,6.440625,6.440625,0.0,44.61469,1.0,1.0,0.0,12,0.0,0.0,0.0,0.0,0.0,0,0,0,0,1234,1,1,0,0,0
522091319,50.652203,50.692574,5.64375,5.64375,0.0,44.955826,1.0,1.0,0.0,12,0.0,0.0,0.0,0.0,0.0,0,0,0,0,1234,1,1,0,0,0
522295454,50.652203,50.688866,5.39375,5.39375,0.0,45.26679,1.0,1.0,0.0,12,0.0,0.0,0.0,0.0,0.0,0,0,0,0,1234,1,1,0,0,0
522498553,50.591637,50.686756,5.253125,5.253125,0.0,45.566936,1.0,1.0,0.0,12,0.0,0.0,0.0,0.0,0.0,0,0,0,0,1234,1,1,0,0,0
522702787,50.712765,50.685616,5.20625,5.20625,0.0,45.86518,1.0,1.0,0.0,12,0.0,0.0,0.0,0.0,0.0,0,0,0,0,1234,1,1,0,0,0
522905859,50.712765,50.68433,5.26875,5.26875,0.0,46.163303,1.0,1.0,0.0,12,0.0,0.0,0.0,0.0,0.0,0,0,0,0,1234,1,1,0,0,0
523109794,50.652203,50.682987,5.26875,5.26875,0.0,46.46046,1.0,1.0,0.0,12,0.0,0.0,0.0,0.0,0.0,0,0,0,0,1234,1,1,0,0,0
523313028,50.652203,50.68432,5.175,5.175,0.0,46.757587,1.0,1.0,0.0,12,0.0,0.0,0.0,0.0,0.0,0,0,0,0,1234,1,1,0,0,0
523516139,50.732956,50.683907,5.065625,5.065625,0.0,47.0439,1.0,1.0,0.0,12,0.0,0.0,0.0,0.0,0.0,0,0,0,0,1234,1,1,0,0,0
523708135,50.692577,50.680893,5.159375,5.159375,0.0,47.31561,1.0,1.0,0.0,12,0.0,0.0,0.0,0.0,0.0,0,0,0,0,1234,1,1,0,0,0
523911458,50.692577,50.67954,5.096875,5.096875,0.0,47.603992,1.0,1.0,0.0,12,0.0,0.0,0.0,0.0,0.0,0,0,0,0,1234,1,1,0,0,0
524115444,50.652203,50.679,5.20625,5.20625,0.0,47.895897,1.0,1.0,0.0,12,0.0,0.0,0.0,0.0,0.0,0,0,0,0,1234,1,1,0,0,0
524318673,50.652203,50.67741,5.14375,5.14375,0.0,48.1883,1.0,1.0,0.0,12,0.0,0.0,0.0,0.0,0.0,0,0,0,0,1234,1,1,0,0,0
524522643,50.652203,50.67578,5.175,5.175,0.0,48.48302,1.0,1.0,0.0,12,0.0,0.0,0.0,0.0,0.0,0,0,0,0,1234,1,1,0,0,0
524726297,50.652203,50.674908,5.14375,5.14375,0.0,48.77473,1.0,1.0,0.0,12,0.0,0.0,0.0,0.0,0.0,0,0,0,0,1234,1,1,0,0,0
524929978,50.712765,50.673992,5.096875,5.096875,0.0,49.06521,1.0,1.0,0.0,12,0.0,0.0,0.0,0.0,0.0,0,0,0,0,1234,1,1,0,0,0
525133038,50.652203,50.672264,5.003125,5.003125,0.0,49.350365,1.0,1.0,0.0,12,0.0,0.0,0.0,0.0,0.0,0,0,0,0,1234,1,1,0,0,0
525336928,50.712765,50.672813,5.01875,5.01875,0.0,49.634422,1.0,1.0,0.0,12,0.0,0.0,0.0,0.0,0.0,0,0,0,0,1234,1,1,0,0,0
525540270,50.652203,50.670677,5.05,5.05,0.0,49.916767,1.0,1.0,0.0,12,0.0,0.0,0.0,0.0,0.0,0,0,0,0,1234,1,1,0,0,0
525743436,50.611824,50.67126,5.003125,5.003125,0.0,50.200283,1.0,1.0,0.0,12,0.0,0.0,0.0,0.0,0.0,0,0,0,0,1234,1,1,0,0,0
525947966,50.45032,50.630424,14.128125,14.128125,0.0,50.648724,1.0,1.0,0.0,12,0.0,0.0,0.0,0.0,0.0,0,0,0,0,1234,1,1,0,0,0
526150633,50.248436,50.58399,19.815624,19.815624,0.0,51.596027,1.0,1.0,0.0,12,0.0,0.0,0.0,0.0,0.0,0,0,0,0,1234,1,1,0,0,0
526354644,49.885048,50.497707,33.565624,33.565624,0.0,52.948746,1.0,1.0,0.0,12,0.0,0.0,0.0,0.0,0.0,0,0,0,0,1234,1,1,0,0,0
526557818,49.64279,50.380676,49.95625,49.95625,0.0,55.24089,1.0,1.0,0.0,12,0.0,0.0,0.0,0.0,0.0,0,0,0,0,1234,1,1,0,0,0
526749859,49.683167,50.26801,64.09688,64.09688,0.0,58.228775,1.0,1.0,0.0,12,0.0,0.0,0.0,0.0,0.0,0,0,0,0,1234,1,1,0,0,0
526952876,49.703358,50.174423,68.22188,68.22188,0.0,61.93361,1.0,1.0,0.0,12,0.0,0.0,0.0,0.0,0.0,0,0,0,0,1234,1,1,0,0,0
527156272,49.9658,50.104145,71.95625,71.95625,0.0,65.945015,1.0,1.0,0.0,12,0.0,0.0,0.0,0.0,0.0,0,0,0,0,1234,1,1,0,0,0
527360226,49.885048,50.08668,62.1125,62.1125,0.0,69.76059,1.0,1.0,0.0,12,0.0,0.0,0.0,0.0,0.0,0,0,0,0,1234,1,1,0,0,0
527564161,49.90524,50.052887,61.425,61.425,0.0,73.23724,1.0,1.0,0.0,12,0.0,0.0,0.0,0.0,0.0,0,0,0,0,1234,1,1,0,0,0
527767600,49.844673,50.02434,60.01875,60.01875,0.0,76.6624,1.0,1.0,0.0,12,0.0,0.0,0.0,0.0,0.0,0,0,0,0,1234,1,1,0,0,0
527970623,49.8043,49.999054,59.065624,59.065624,0.0,80.03073,1.0,1.0,0.0,12,0.0,0.0,0.0,0.0,0.0,0,0,0,0,1234,1,1,0,0,0
528174711,49.76392,49.97328,60.565624,60.565624,0.0,83.409225,1.0,1.0,0.0,12,0.0,0.0,0.0,0.0,0.0,0,0,0,0,1234,1,1,0,0,0
528377737,49.824486,49.954983,59.51875,59.51875,0.0,86.81614,1.0,1.0,0.0,12,0.0,0.0,0.0,0.0,0.0,0,0,0,0,1234,1,1,0,0,0
528581864,49.784107,49.934715,59.14375,59.14375,0.0,90.198616,1.0,1.0,0.0,12,0.0,0.0,0.0,0.0,0.0,0,0,0,0,1234,1,1,0,0,0
528785059,49.86486,49.91615,60.534374,60.534374,0.0,93.58522,1.0,1.0,0.0,12,0.0,0.0,0.0,0.0,0.0,0,0,0,0,1234,1,1,0,0,0
528988576,49.885048,49.898914,59.690624,59.690624,0.0,96.97575,1.0,1.0,0.0,12,0.0,0.0,0.0,0.0,0.0,0,0,0,0,1234,1,1,0,0,0
529192233,49.743732,49.88305,59.33125,59.33125,0.0,100.33919,1.0,1.0,0.0,12,0.0,0.0,0.0,0.0,0.0,0,0,0,0,1234,1,1,0,0,0
529395433,49.784107,49.86798,60.175,60.175,0.0,103.73131,1.0,1.0,0.0,12,0.0,0.0,0.0,0.0,0.0,0,0,0,0,1234,1,1,0,0,0
529599544,49.703358,49.842945,62.753124,62.753124,0.0,107.20483,1.0,1.0,0.0,12,0.0,0.0,0.0,0.0,0.0,0,0,0,0,1234,1,1,0,0,0
529802624,49.521664,49.81369,64.53438,64.53438,0.0,110.7992,1.0,1.0,0.0,12,0.0,0.0,0.0,0.0,0.0,0,0,0,0,1234,1,1,0,0,0
529994507,49.56204,49.775856,68.4875,68.4875,0.0,114.36876,1.0,1.0,0.0,12,0.0,0.0,0.0,0.0,0.0,0,0,0,0,1234,1,1,0,0,0
530197919,49.54185,49.74282,66.09688,66.09688,0.0,118.218185,1.0,1.0,0.0,12,0.0,0.0,0.0,0.0,0.0,0,0,0,0,1234,1,1,0,0,0
530401025,49.743732,49.747627,65.9875,65.9875,0.0,122.04349,1.0,1.0,0.0,12,0.0,0.0,0.0,0.0,0.0,0,0,0,0,1234,1,1,0,0,0
530605108,49.64279,49.741325,64.4875,64.4875,0.0,125.690834,1.0,1.0,0.0,12,0.0,0.0,0.0,0.0,0.0,0,0,0,0,1234,1,1,0,0,0
530809083,49.743732,49.742718,61.503124,61.503124,0.0,129.33136,1.0,1.0,0.0,12,0.0,0.0,0.0,0.0,0.0,0,0,0,0,1234,1,1,0,0,0
531012728,49.501472,49.738136,59.6125,59.6125,0.0,132.69963,1.0,1.0,0.0,12,0.0,0.0,0.0,0.0,0.0,0,0,0,0,1234,1,1,0,0,0
531215515,49.56204,49.71839,61.846874,61.846874,0.0,136.16795,1.0,1.0,0.0,12,0.0,0.0,0.0,0.0,0.0,0,0,0,0,1234,1,1,0,0,0
531419416,49.521664,49.710922,63.409374,63.409374,0.0,139.83983,1.0,1.0,0.0,12,0.0,0.0,0.0,0.0,0.0,0,0,0,0,1234,1,1,0,0,0
531622624,49.945614,49.715908,62.83125,62.83125,0.0,143.51582,1.0,1.0,0.0,12,0.0,0.0,0.0,0.0,0.0,0,0,0,0,1234,1,1,0,0,0
531826621,49.743732,49.708633,65.03438,65.03438,0.0,147.08043,1.0,1.0,0.0,12,0.0,0.0,0.0,0.0,0.0,0,0,0,0,1234,1,1,0,0,0
532029754,49.64279,49.686954,67.76875,67.76875,0.0,150.81432,1.0,1.0,0.0,12,0.0,0.0,0.0,0.0,0.0,0,0,0,0,1234,1,1,0,0,0
532233051,49.683167,49.690453,64.94063,64.94063,0.0,154.62633,1.0,1.0,0.0,12,0.0,0.0,0.0,0.0,0.0,0,0,0,0,1234,1,1,0,0,0
532436925,49.582226,49.67778,66.06563,66.06563,0.0,158.24754,1.0,1.0,0.0,12,0.0,0.0,0.0,0.0,0.0,0,0,0,0,1234,1,1,0,0,0
532640290,50.00618,49.683895,62.753124,62.753124,0.0,162.02335,1.0,1.0,0.0,12,0.0,0.0,0.0,0.0,0.0,0,0,0,0,1234,1,1,0,0,0
532844128,49.521664,49.687344,57.784374,57.784374,0.0,165.16046,1.0,1.0,0.0,12,0.0,0.0,0.0,0.0,0.0,0,0,0,0,1234,1,1,0,0,0
533035463,49.582226,49.67608,59.690624,59.690624,0.0,168.2469,1.0,1.0,0.0,12,0.0,0.0,0.0,0.0,0.0,0,0,0,0,1234,1,1,0,0,0
533239230,49.66298,49.656544,65.45625,65.45625,0.0,171.7972,1.0,1.0,0.0,12,0.0,0.0,0.0,0.0,0.0,0,0,0,0,1234,1,1,0,0,0
533442659,49.582226,49.666172,60.878124,60.878124,0.0,175.3084,1.0,1.0,0.0,12,0.0,0.0,0.0,0.0,0.0,0,0,0,0,1234,1,1,0,0,0
533646631,49.683167,49.659027,64.425,64.425,0.0,178.78792,1.0,1.0,0.0,12,0.0,0.0,0.0,0.0,0.0,0,0,0,0,1234,1,1,0,0,0
533849819,49.64279,49.695515,61.503124,61.503124,0.0,182.37883,1.0,1.0,0.0,12,0.0,0.0,0.0,0.0,0.0,0,0,0,0,1234,1,1,0,0,0
534053036,50.00618,49.73096,52.190624,52.190624,0.0,185.59222,1.0,1.0,0.0,12,0.0,0.0,0.0,0.0,0.0,0,0,0,0,1234,1,1,0,0,0
534257150,50.066742,49.778435,40.440624,40.440624,0.0,188.22858,1.0,1.0,0.0,12,0.0,0.0,0.0,0.0,0.0,0,0,0,0,1234,1,1,0,0,0
534460239,50.00618,49.81172,37.89375,37.89375,0.0,190.42934,1.0,1.0,0.0,12,0.0,0.0,0.0,0.0,0.0,0,0,0,0,1234,1,1,0,0,0
534664132,50.066742,49.84363,35.846874,35.846874,0.0,192.53001,1.0,1.0,0.0,12,0.0,0.0,0.0,0.0,0.0,0,0,0,0,1234,1,1,0,0,0
534867529,49.360157,49.858025,32.20625,32.20625,0.0,194.41985,1.0,1.0,0.0,12,0.0,0.0,0.0,0.0,0.0,0,0,0,0,1234,1,1,0,0,0
535071423,49.178463,49.75249,58.01875,58.01875,0.0,196.94711,1.0,1.0,0.0,12,0.0,0.0,0.0,0.0,0.0,0,0,0,0,1234,1,1,0,0,0
535274965,49.420723,49.68887,71.06563,71.06563,0.0,200.69135,1.0,1.0,0.0,12,0.0,0.0,0.0,0.0,0.0,0,0,0,0,1234,1,1,0,0,0
535477718,49.259216,49.634953,74.15938,74.15938,0.0,204.77486,1.0,1.0,0.0,12,0.0,0.0,0.0,0.0,0.0,0,0,0,0,1234,1,1,0,0,0
535681844,49.29959,49.563377,80.6125,80.6125,0.0,209.22806,1.0,1.0,0.0,12,0.0,0.0,0.0,0.0,0.0,0,0,0,0,1234,1,1,0,0,0
535885025,49.259216,49.51642,84.6125,84.6125,0.0,213.91513,1.0,1.0,0.0,12,0.0,0.0,0.0,0.0,0.0,0,0,0,0,1234,1,1,0,0,0
536088911,49.178463,49.466038,87.44063,87.44063,0.0,218.78026,1.0,1.0,0.0,12,0.0,0.0,0.0,0.0,0.0,0,0,0,0,1234,1,1,0,0,0
536292203,49.117897,49.41648,88.06563,88.06563,0.0,223.73297,1.0,1.0,0.0,12,0.0,0.0,0.0,0.0,0.0,0,0,0,0,1234,1,1,0,0,0
536496277,50.026367,49.466396,78.28438,78.28438,0.0,228.67908,1.0,1.0,0.0,12,0.0,0.0,0.0,0.0,0.0,0,0,0,0,1234,1,1,0,0,0
536699508,49.844673,49.538574,56.33125,56.33125,0.0,232.36446,1.0,1.0,0.0,12,0.0,0.0,0.0,0.0,0.0,0,0,0,0,1234,1,1,0,0,0
536903445,49.66298,49.58051,50.08125,50.08125,0.0,235.26485,1.0,1.0,0.0,12,0.0,0.0,0.0,0.0,0.0,0,0,0,0,1234,1,1,0,0,0
537094480,49.824486,49.60069,44.628124,44.628124,0.0,237.729,1.0,1.0,0.0,12,0.0,0.0,0.0,0.0,0.0,0,0,0,0,1234,1,1,0,0,0
537297949,49.683167,49.643257,38.2375,38.2375,0.0,240.2051,1.0,1.0,0.0,12,0.0,0.0,0.0,0.0,0.0,0,0,0,0,1234,1,1,0,0,0
537501781,49.582226,49.62865,48.471874,48.471874,0.0,242.7064,1.0,1.0,0.0,12,0.0,0.0,0.0,0.0,0.0,0,0,0,0,1234,1,1,0,0,0
537705082,49.54185,49.615158,55.01875,55.01875,0.0,245.68289,1.0,1.0,0.0,12,0.0,0.0,0.0,0.0,0.0,0,0,0,0,1234,1,1,0,0,0
537908929,49.279404,49.613937,55.190624,55.190624,0.0,248.83826,1.0,1.0,0.0,12,0.0,0.0,0.0,0.0,0.0,0,0,0,0,1234,1,1,0,0,0
538112148,49.703358,49.625633,54.971874,54.971874,0.0,252.13899,1.0,1.0,0.0,12,0.0,0.0,0.0,0.0,0.0,0,0,0,0,1234,1,1,0,0,0
538316267,49.582226,49.62632,52.971874,52.971874,0.0,255.11871,1.0,1.0,0.0,12,0.0,0.0,0.0,0.0,0.0,0,0,0,0,1234,1,1,0,0,0
538519514,49.683167,49.62803,52.89375,52.89375,0.0,258.125,1.0,1.0,0.0,12,0.0,0.0,0.0,0.0,0.0,0,0,0,0,1234,1,1,0,0,0
538721814,49.66298,49.629333,53.1125,53.1125,0.0,261.11414,1.0,1.0,0.0,12,0.0,0.0,0.0,0.0,0.0,0,0,0,0,1234,1,1,0,0,0
538926707,49.64279,49.627235,54.440624,54.440624,0.0,264.17624,1.0,1.0,0.0,12,0.0,0.0,0.0,0.0,0.0,0,0,0,0,1234,1,1,0,0,0
539129912,49.582226,49.628555,55.721874,55.721874,0.0,267.31577,1.0,1.0,0.0,12,0.0,0.0,0.0,0.0,0.0,0,0,0,0,1234,1,1,0,0,0
539321866,49.582226,49.62661,54.39375,54.39375,0.0,270.2449,1.0,1.0,0.0,12,0.0,0.0,0.0,0.0,0.0,0,0,0,0,1234,1,1,0,0,0
539525123,49.117897,49.561924,65.00313,65.00313,0.0,273.55212,1.0,1.0,0.0,12,0.0,0.0,0.0,0.0,0.0,0,0,0,0,1234,1,1,0,0,0
539729065,49.279404,49.50181,78.47188,78.47188,0.0,277.68295,1.0,1.0,0.0,12,0.0,0.0,0.0,0.0,0.0,0,0,0,0,1234,1,1,0,0,0
539932272,49.8043,49.515602,67.56563,67.56563,0.0,282.06546,1.0,1.0,0.0,12,0.0,0.0,0.0,0.0,0.0,0,0,0,0,1234,1,1,0,0,0
540136138,49.602413,49.53396,59.01875,59.01875,0.0,285.69672,1.0,1.0,0.0,12,0.0,0.0,0.0,0.0,0.0,0,0,0,0,1234,1,1,0,0,0
540339525,49.461098,49.528603,59.471874,59.471874,0.0,289.0631,1.0,1.0,0.0,12,0.0,0.0,0.0,0.0,0.0,0,0,0,0,1234,1,1,0,0,0
540543445,49.481285,49.530537,59.159374,59.159374,0.0,292.42664,1.0,1.0,0.0,12,0.0,0.0,0.0,0.0,0.0,0,0,0,0,1234,1,1,0,0,0
540746528,49.380344,49.5281,59.878124,59.878124,0.0,295.7794,1.0,1.0,0.0,12,0.0,0.0,0.0,0.0,0.0,0,0,0,0,1234,1,1,0,0,0
540949813,49.501472,49.518837,62.39375,62.39375,0.0,299.27142,1.0,1.0,0.0,12,0.0,0.0,0.0,0.0,0.0,0,0,0,0,1234,1,1,0,0,0
541153724,49.481285,49.51241,61.721874,61.721874,0.0,302.7844,1.0,1.0,0.0,12,0.0,0.0,0.0,0.0,0.0,0,0,0,0,1234,1,1,0,0,0
541357130,49.420723,49.510963,61.534374,61.534374,0.0,306.2728,1.0,1.0,0.0,12,0.0,0.0,0.0,0.0,0.0,0,0,0,0,1234,1,1,0,0,0
541560240,49.622604,49.52045,60.55,60.55,0.0,309.77908,1.0,1.0,0.0,12,0.0,0.0,0.0,0.0,0.0,0,0,0,0,1234,1,1,0,0,0
541752243,49.23903,49.503136,62.2375,62.2375,0.0,312.96637,1.0,1.0,0.0,12,0.0,0.0,0.0,0.0,0.0,0,0,0,0,1234,1,1,0,0,0
541955484,49.602413,49.51011,61.159374,61.159374,0.0,316.5759,1.0,1.0,0.0,12,0.0,0.0,0.0,0.0,0.0,0,0,0,0,1234,1,1,0,0,0
542159416,49.461098,49.50753,59.8625,59.8625,0.0,319.97876,1.0,1.0,0.0,12,0.0,0.0,0.0,0.0,0.0,0,0,0,0,1234,1,1,0,0,0
542362640,49.40053,49.495804,61.95625,61.95625,0.0,323.41138,1.0,1.0,0.0,12,0.0,0.0,0.0,0.0,0.0,0,0,0,0,1234,1,1,0,0,0
542566678,49.582226,49.488583,62.20625,62.20625,0.0,326.9263,1.0,1.0,0.0,12,0.0,0.0,0.0,0.0,0.0,0,0,0,0,1234,1,1,0,0,0
542769856,49.31978,49.459675,68.19063,68.19063,0.0,330.51462,1.0,1.0,0.0,12,0.0,0.0,0.0,0.0,0.0,0,0,0,0,1234,1,1,0,0,0
542973718,49.19865,49.435734,69.39375,69.39375,0.0,334.41116,1.0,1.0,0.0,12,0.0,0.0,0.0,0.0,0.0,0,0,0,0,1234,1,1,0,0,0
543177192,49.420723,49.434902,68.78438,68.78438,0.0,338.37848,1.0,1.0,0.0,12,0.0,0.0,0.0,0.0,0.0,0,0,0,0,1234,1,1,0,0,0
543381043,49.360157,49.41076,69.75313,69.75313,0.0,342.22055,1.0,1.0,0.0,12,0.0,0.0,0.0,0.0,0.0,0,0,0,0,1234,1,1,0,0,0
543584324,49.683167,49.42275,68.19063,68.19063,0.0,346.1115,1.0,1.0,0.0,12,0.0,0.0,0.0,0.0,0.0,0,0,0,0,1234,1,1,0,0,0
543787468,49.178463,49.419556,61.08125,61.08125,0.0,349.60635,1.0,1.0,0.0,12,0.0,0.0,0.0,0.0,0.0,0,0,0,0,1234,1,1,0,0,0
543991358,49.481285,49.39466,72.50313,72.50313,0.0,353.54605,1.0,1.0,0.0,12,0.0,0.0,0.0,0.0,0.0,0,0,0,0,1234,1,1,0,0,0
544194543,48.936203,49.347275,77.925,77.925,0.0,357.59692,1.0,1.0,0.0,12,0.0,0.0,0.0,0.0,0.0,0,0,0,0,1234,1,1,0,0,0
544386683,49.117897,49.35272,73.925,73.925,0.0,361.76328,1.0,1.0,0.0,12,0.0,0.0,0.0,0.0,0.0,0,0,0,0,1234,1,1,0,0,0
544589887,49.360157,49.356693,71.90938,71.90938,0.0,365.9459,1.0,1.0,0.0,12,0.0,0.0,0.0,0.0,0.0,0,0,0,0,1234,1,1,0,0,0
544793051,49.501472,49.315464,76.00313,76.00313,0.0,370.0207,1.0,1.0,0.0,12,0.0,0.0,0.0,0.0,0.0,0,0,0,0,1234,1,1,0,0,0
544996929,49.29959,49.307076,74.4875,74.4875,0.0,374.17926,1.0,1.0,0.0,12,0.0,0.0,0.0,0.0,0.0,0,0,0,0,1234,1,1,0,0,0
545200246,48.87564,49.28856,72.3625,72.3625,0.0,378.3842,1.0,1.0,0.0,12,0.0,0.0,0.0,0.0,0.0,0,0,0,0,1234,1,1,0,0,0
545404265,49.23903,49.296062,72.06563,72.06563,0.0,382.64487,1.0,1.0,0.0,12,0.0,0.0,0.0,0.0,0.0,0,0,0,0,1234,1,1,0,0,0
545607872,49.178463,49.265957,77.03438,77.03438,0.0,386.768,1.0,1.0,0.0,12,0.0,0.0,0.0,0.0,0.0,0,0,0,0,1234,1,1,0,0,0
545811477,49.19865,49.27758,73.39375,73.39375,0.0,391.04715,1.0,1.0,0.0,12,0.0,0.0,0.0,0.0,0.0,0,0,0,0,1234,1,1,0,0,0
546014643,49.360157,49.281967,71.83125,71.83125,0.0,395.15753,1.0,1.0,0.0,12,0.0,0.0,0.0,0.0,0.0,0,0,0,0,1234,1,1,0,0,0
546206734,49.178463,49.317085,60.815624,60.815624,0.0,398.7633,1.0,1.0,0.0,12,0.0,0.0,0.0,0.0,0.0,0,0,0,0,1234,1,1,0,0,0
546409822,48.794888,49.267204,68.59688,68.59688,0.0,402.4986,1.0,1.0,0.0,12,0.0,0.0,0.0,0.0,0.0,0,0,0,0,1234,1,1,0,0,0
546613734,49.420723,49.261047,76.83125,76.83125,0.0,406.8284,1.0,1.0,0.0,12,0.0,0.0,0.0,0.0,0.0,0,0,0,0,1234,1,1,0,0,0
546817141,49.259216,49.27212,69.675,69.675,0.0,410.8831,1.0,1.0,0.0,12,0.0,0.0,0.0,0.0,0.0,0,0,0,0,1234,1,1,0,0,0
547020117,49.138084,49.260258,72.675,72.675,0.0,414.83646,1.0,1.0,0.0,12,0.0,0.0,0.0,0.0,0.0,0,0,0,0,1234,1,1,0,0,0
547224135,49.057335,49.22137,80.8,80.8,0.0,419.06598,1.0,1.0,0.0,12,0.0,0.0,0.0,0.0,0.0,0,0,0,0,1234,1,1,0,0,0
547427804,49.360157,49.25804,68.75313,68.75313,0.0,423.46173,1.0,1.0,0.0,12,0.0,0.0,0.0,0.0,0.0,0,0,0,0,1234,1,1,0,0,0
547631315,49.29959,49.272335,65.15938,65.15938,0.0,427.24567,1.0,1.0,0.0,12,0.0,0.0,0.0,0.0,0.0,0,0,0,0,1234,1,1,0,0,0
547834721,49.360157,49.266827,67.76875,67.76875,0.0,431.01865,1.0,1.0,0.0,12,0.0,0.0,0.0,0.0,0.0,0,0,0,0,1234,1,1,0,0,0
548037878,49.037144,49.256683,68.675,68.675,0.0,434.876,1.0,1.0,0.0,12,0.0,0.0,0.0,0.0,0.0,0,0,0,0,1234,1,1,0,0,0
548241770,48.85545,49.234146,72.06563,72.06563,0.0,438.902,1.0,1.0,0.0,12,0.0,0.0,0.0,0.0,0.0,0,0,0,0,1234,1,1,0,0,0
548445057,49.259216,49.234833,72.39375,72.39375,0.0,443.16464,1.0,1.0,0.0,12,0.0,0.0,0.0,0.0,0.0,0,0,0,0,1234,1,1,0,0,0
548648939,49.44091,49.23802,73.95625,73.95625,0.0,447.25378,1.0,1.0,0.0,12,0.0,0.0,0.0,0.0,0.0,0,0,0,0,1234,1,1,0,0,0
548852277,48.936203,49.214497,70.3625,70.3625,0.0,451.16232,1.0,1.0,0.0,12,0.0,0.0,0.0,0.0,0.0,0,0,0,0,1234,1,1,0,0,0
549055506,49.117897,49.22066,72.72188,72.72188,0.0,455.3305,1.0,1.0,0.0,12,0.0,0.0,0.0,0.0,0.0,0,0,0,0,1234,1,1,0,0,0
549259431,49.683167,49.279312,61.9875,61.9875,0.0,459.21555,1.0,1.0,0.0,12,0.0,0.0,0.0,0.0,0.0,0,0,0,0,1234,1,1,0,0,0
549462522,49.23903,49.296535,52.51875,52.51875,0.0,462.35748,1.0,1.0,0.0,12,0.0,0.0,0.0,0.0,0.0,0,0,0,0,1234,1,1,0,0,0
549666683,49.117897,49.238102,73.03438,73.03438,0.0,466.03888,1.0,1.0,0.0,12,0.0,0.0,0.0,0.0,0.0,0,0,0,0,1234,1,1,0,0,0
549869928,48.73432,49.214375,75.925,75.925,0.0,470.2879,1.0,1.0,0.0,12,0.0,0.0,0.0,0.0,0.0,0,0,0,0,1234,1,1,0,0,0
550073670,48.65357,49.134583,91.89375,91.89375,0.0,475.022,1.0,1.0,0.0,12,0.0,0.0,0.0,0.0,0.0,0,0,0,0,1234,1,1,0,0,0
550265039,48.75451,49.06896,99.1125,99.1125,0.0,480.15994,1.0,1.0,0.0,12,0.0,0.0,0.0,0.0,0.0,0,0,0,0,1234,1,1,0,0,0
550469066,48.613194,49.00287,103.08125,103.08125,0.0,485.95865,1.0,1.0,0.0,12,0.0,0.0,0.0,0.0,0.0,0,0,0,0,1234,1,1,0,0,0
550672639,48.97658,48.95532,107.87813,107.87813,0.0,491.96564,1.0,1.0,0.0,12,0.0,0.0,0.0,0.0,0.0,0,0,0,0,1234,1,1,0,0,0
550875546,49.037144,48.971416,94.01875,94.01875,0.0,497.6806,1.0,1.0,0.0,12,0.0,0.0,0.0,0.0,0.0,0,0,0,0,1234,1,1,0,0,0
551079451,48.956394,48.97717,88.56563,88.56563,0.0,502.83667,1.0,1.0,0.0,12,0.0,0.0,0.0,0.0,0.0,0,0,0,0,1234,1,1,0,0,0
551282546,48.89583,48.97508,87.34688,87.34688,0.0,507.808,1.0,1.0,0.0,12,0.0,0.0,0.0,0.0,0.0,0,0,0,0,1234,1,1,0,0,0
551486651,49.016956,48.971268,87.40938,87.40938,0.0,512.7393,1.0,1.0,0.0,12,0.0,0.0,0.0,0.0,0.0,0,0,0,0,1234,1,1,0,0,0
551689794,48.97658,48.965218,85.58125,85.58125,0.0,517.68524,1.0,1.0,0.0,12,0.0,0.0,0.0,0.0,0.0,0,0,0,0,1234,1,1,0,0,0
551894132,48.87564,48.95088,89.08125,89.08125,0.0,522.6548,1.0,1.0,0.0,12,0.0,0.0,0.0,0.0,0.0,0,0,0,0,1234,1,1,0,0,0
552097087,48.794888,48.93137,91.26875,91.26875,0.0,527.72986,1.0,1.0,0.0,12,0.0,0.0,0.0,0.0,0.0,0,0,0,0,1234,1,1,0,0,0
552300289,48.7747,48.90875,94.40938,94.40938,0.0,532.92773,1.0,1.0,0.0,12,0.0,0.0,0.0,0.0,0.0,0,0,0,0,1234,1,1,0,0,0
552492389,48.75451,48.89413,95.15938,95.15938,0.0,537.9528,1.0,1.0,0.0,12,0.0,0.0,0.0,0.0,0.0,0,0,0,0,1234,1,1,0,0,0
552695471,48.75451,48.86628,96.3,96.3,0.0,543.33105,1.0,1.0,0.0,12,0.0,0.0,0.0,0.0,0.0,0,0,0,0,1234,1,1,0,0,0
552899481,48.73432,48.832825,101.28438,101.28438,0.0,548.9382,1.0,1.0,0.0,12,0.0,0.0,0.0,0.0,0.0,0,0,0,0,1234,1,1,0,0,0
553102659,48.613194,48.820736,98.65938,98.65938,0.0,554.6282,1.0,1.0,0.0,12,0.0,0.0,0.0,0.0,0.0,0,0,0,0,1234,1,1,0,0,0
553306674,48.714134,48.78775,104.01875,104.01875,0.0,560.3938,1.0,1.0,0.0,12,0.0,0.0,0.0,0.0,0.0,0,0,0,0,1234,1,1,0,0,0
553509861,48.73432,48.77439,104.39375,104.39375,0.0,566.3169,1.0,1.0,0.0,12,0.0,0.0,0.0,0.0,0.0,0,0,0,0,1234,1,1,0,0,0
553713141,48.835262,48.778385,99.15938,99.15938,0.0,572.1007,1.0,1.0,0.0,12,0.0,0.0,0.0,0.0,0.0,0,0,0,0,1234,1,1,0,0,0
553916866,48.916016,48.789948,93.4875,93.4875,0.0,577.6089,1.0,1.0,0.0,12,0.0,0.0,0.0,0.0,0.0,0,0,0,0,1234,1,1,0,0,0
554120253,48.956394,48.81498,86.37813,86.37813,0.0,582.77496,1.0,1.0,0.0,12,0.0,0.0,0.0,0.0,0.0,0,0,0,0,1234,1,1,0,0,0
554312240,49.09771,48.837997,81.40938,81.40938,0.0,587.28064,1.0,1.0,0.0,12,0.0,0.0,0.0,0.0,0.0,0,0,0,0,1234,1,1,0,0,0
554515604,49.420723,48.916267,68.33125,68.33125,0.0,591.6099,1.0,1.0,0.0,12,0.0,0.0,0.0,0.0,0.0,0,0,0,0,1234,1,1,0,0,0
554719462,49.420723,48.99179,58.909374,58.909374,0.0,595.18414,1.0,1.0,0.0,12,0.0,0.0,0.0,0.0,0.0,0,0,0,0,1234,1,1,0,0,0
554922654,49.360157,49.04897,53.2375,53.2375,0.0,598.36926,1.0,1.0,0.0,12,0.0,0.0,0.0,0.0,0.0,0,0,0,0,1234,1,1,0,0,0
555125864,49.19865,49.08896,52.2375,52.2375,0.0,601.35724,1.0,1.0,0.0,12,0.0,0.0,0.0,0.0,0.0,0,0,0,0,1234,1,1,0,0,0
555329852,49.44091,49.129166,52.003124,52.003124,0.0,604.2743,1.0,1.0,0.0,12,0.0,0.0,0.0,0.0,0.0,0,0,0,0,1234,1,1,0,0,0
555532887,49.23903,49.170578,49.534374,49.534374,0.0,607.15326,1.0,1.0,0.0,12,0.0,0.0,0.0,0.0,0.0,0,0,0,0,1234,1,1,0,0,0
555737431,49.461098,49.210342,47.175,47.175,0.0,609.9326,1.0,1.0,0.0,12,0.0,0.0,0.0,0.0,0.0,0,0,0,0,1234,1,1,0,0,0
555940126,49.461098,49.252113,43.346874,43.346874,0.0,612.4879,1.0,1.0,0.0,12,0.0,0.0,0.0,0.0,0.0,0,0,0,0,1234,1,1,0,0,0
556144289,49.54185,49.29374,42.503124,42.503124,0.0,614.8859,1.0,1.0,0.0,12,0.0,0.0,0.0,0.0,0.0,0,0,0,0,1234,1,1,0,0,0
556347469,49.279404,49.32584,37.20625,37.20625,0.0,617.11005,1.0,1.0,0.0,12,0.0,0.0,0.0,0.0,0.0,0,0,0,0,1234,1,1,0,0,0
556550606,49.279404,49.31199,48.6125,48.6125,0.0,619.559,1.0,1.0,0.0,12,0.0,0.0,0.0,0.0,0.0,0,0,0,0,1234,1,1,0,0,0
556754537,49.31978,49.306263,53.9875,53.9875,0.0,622.4464,1.0,1.0,0.0,12,0.0,0.0,0.0,0.0,0.0,0,0,0,0,1234,1,1,0,0,0
556958013,49.380344,49.303207,54.284374,54.284374,0.0,625.4707,1.0,1.0,0.0,12,0.0,0.0,0.0,0.0,0.0,0,0,0,0,1234,1,1,0,0,0
557161847,49.29959,49.301453,51.55,51.55,0.0,628.4132,1.0,1.0,0.0,12,0.0,0.0,0.0,0.0,0.0,0,0,0,0,1234,1,1,0,0,0
557353067,49.259216,49.298965,52.76875,52.76875,0.0,631.153,1.0,1.0,0.0,12,0.0,0.0,0.0,0.0,0.0,0,0,0,0,1234,1,1,0,0,0
557557372,49.31978,49.300396,54.8625,54.8625,0.0,634.2287,1.0,1.0,0.0,12,0.0,0.0,0.0,0.0,0.0,0,0,0,0,1234,1,1,0,0,0
557760252,49.360157,49.29846,54.909374,54.909374,0.0,637.30554,1.0,1.0,0.0,12,0.0,0.0,0.0,0.0,0.0,0,0,0,0,1234,1,1,0,0,0
557963479,49.33997,49.298176,52.55,52.55,0.0,640.39856,1.0,1.0,0.0,12,0.0,0.0,0.0,0.0,0.0,0,0,0,0,1234,1,1,0,0,0
558167514,49.259216,49.30065,55.315624,55.315624,0.0,643.49884,1.0,1.0,0.0,12,0.0,0.0,0.0,0.0,0.0,0,0,0,0,1234,1,1,0,0,0
558370644,49.40053,49.300762,56.51875,56.51875,0.0,646.6896,1.0,1.0,0.0,12,0.0,0.0,0.0,0.0,0.0,0,0,0,0,1234,1,1,0,0,0
558574522,49.178463,49.30193,56.378124,56.378124,0.0,649.8338,1.0,1.0,0.0,12,0.0,0.0,0.0,0.0,0.0,0,0,0,0,1234,1,1,0,0,0
558777926,49.44091,49.305332,56.6125,56.6125,0.0,652.9292,1.0,1.0,0.0,12,0.0,0.0,0.0,0.0,0.0,0,0,0,0,1234,1,1,0,0,0
558980767,49.279404,49.306114,54.58125,54.58125,0.0,656.0501,1.0,1.0,0.0,12,0.0,0.0,0.0,0.0,0.0,0,0,0,0,1234,1,1,0,0,0
559172887,49.360157,49.310642,54.346874,54.346874,0.0,658.9421,1.0,1.0,0.0,12,0.0,0.0,0.0,0.0,0.0,0,0,0,0,1234,1,1,0,0,0
559376236,49.279404,49.309975,56.471874,56.471874,0.0,662.0947,1.0,1.0,0.0,12,0.0,0.0,0.0,0.0,0.0,0,0,0,0,1234,1,1,0,0,0
559580273,49.29959,49.302235,57.378124,57.378124,0.0,665.3312,1.0,1.0,0.0,12,0.0,0.0,0.0,0.0,0.0,0,0,0,0,1234,1,1,0,0,0
559783469,49.259216,49.300117,55.471874,55.471874,0.0,668.47375,1.0,1.0,0.0,12,0.0,0.0,0.0,0.0,0.0,0,0,0,0,1234,1,1,0,0,0
559987555,49.259216,49.297993,56.70625,56.70625,0.0,671.7028,1.0,1.0,0.0,12,0.0,0.0,0.0,0.0,0.0,0,0,0,0,1234,1,1,0,0,0
560190636,49.420723,49.29828,58.190624,58.190624,0.0,674.9871,1.0,1.0,0.0,12,0.0,0.0,0.0,0.0,0.0,0,0,0,0,1234,1,1,0,0,0
560394631,49.19865,49.29177,59.221874,59.221874,0.0,678.3768,1.0,1.0,0.0,12,0.0,0.0,0.0,0.0,0.0,0,0,0,0,1234,1,1,0,0,0
560597824,49.23903,49.2911,60.3625,60.3625,0.0,681.77356,1.0,1.0,0.0,12,0.0,0.0,0.0,0.0,0.0,0,0,0,0,1234,1,1,0,0,0
560801157,49.19865,49.28323,58.190624,58.190624,0.0,685.08795,1.0,1.0,0.0,12,0.0,0.0,0.0,0.0,0.0,0,0,0,0,1234,1,1,0,0,0
561005133,49.279404,49.281506,56.26875,56.26875,0.0,688.357,1.0,1.0,0.0,12,0.0,0.0,0.0,0.0,0.0,0,0,0,0,1234,1,1,0,0,0
561208316,49.158276,49.280563,56.971874,56.971874,0.0,691.52765,1.0,1.0,0.0,12,0.0,0.0,0.0,0.0,0.0,0,0,0,0,1234,1,1,0,0,0
561400131,49.31978,49.2837,55.721874,55.721874,0.0,694.53125,1.0,1.0,0.0,12,0.0,0.0,0.0,0.0,0.0,0,0,0,0,1234,1,1,0,0,0
561603786,49.279404,49.283802,58.253124,58.253124,0.0,697.7197,1.0,1.0,0.0,12,0.0,0.0,0.0,0.0,0.0,0,0,0,0,1234,1,1,0,0,0
561807485,49.19865,49.28688,56.909374,56.909374,0.0,700.93854,1.0,1.0,0.0,12,0.0,0.0,0.0,0.0,0.0,0,0,0,0,1234,1,1,0,0,0
562010598,49.31978,49.29193,55.628124,55.628124,0.0,704.08124,1.0,1.0,0.0,12,0.0,0.0,0.0,0.0,0.0,0,0,0,0,1234,1,1,0,0,0
562213853,49.23903,49.294003,55.690624,55.690624,0.0,707.18866,1.0,1.0,0.0,12,0.0,0.0,0.0,0.0,0.0,0,0,0,0,1234,1,1,0,0,0
562417897,49.31978,49.30025,53.284374,53.284374,0.0,710.2396,1.0,1.0,0.0,12,0.0,0.0,0.0,0.0,0.0,0,0,0,0,1234,1,1,0,0,0
562620937,49.29959,49.30037,53.034374,53.034374,0.0,713.23883,1.0,1.0,0.0,12,0.0,0.0,0.0,0.0,0.0,0,0,0,0,1234,1,1,0,0,0
562825141,49.259216,49.29946,55.05,55.05,0.0,716.30255,1.0,1.0,0.0,12,0.0,0.0,0.0,0.0,0.0,0,0,0,0,1234,1,1,0,0,0
563028261,49.33997,49.303974,55.76875,55.76875,0.0,719.394,1.0,1.0,0.0,12,0.0,0.0,0.0,0.0,0.0,0,0,0,0,1234,1,1,0,0,0
563231343,49.360157,49.305298,54.01875,54.01875,0.0,722.4545,1.0,1.0,0.0,12,0.0,0.0,0.0,0.0,0.0,0,0,0,0,1234,1,1,0,0,0
563435459,49.420723,49.309883,57.971874,57.971874,0.0,725.5699,1.0,1.0,0.0,12,0.0,0.0,0.0,0.0,0.0,0,0,0,0,1234,1,1,0,0,0
563638637,49.31978,49.313713,56.096874,56.096874,0.0,728.79034,1.0,1.0,0.0,12,0.0,0.0,0.0,0.0,0.0,0,0,0,0,1234,1,1,0,0,0
563842507,49.31978,49.318153,56.096874,56.096874,0.0,731.92035,1.0,1.0,0.0,12,0.0,0.0,0.0,0.0,0.0,0,0,0,0,1234,1,1,0,0,0
564046267,49.360157,49.319794,54.471874,54.471874,0.0,735.0095,1.0,1.0,0.0,12,0.0,0.0,0.0,0.0,0.0,0,0,0,0,1234,1,1,0,0,0
564249706,49.420723,49.330425,48.95625,48.95625,0.0,737.9671,1.0,1.0,0.0,12,0.0,0.0,0.0,0.0,0.0,0,0,0,0,1234,1,1,0,0,0
564453065,49.33997,49.33113,51.159374,51.159374,0.0,740.77075,1.0,1.0,0.0,12,0.0,0.0,0.0,0.0,0.0,0,0,0,0,1234,1,1,0,0,0
564656139,49.178463,49.32506,54.409374,54.409374,0.0,743.7814,1.0,1.0,0.0,12,0.0,0.0,0.0,0.0,0.0,0,0,0,0,1234,1,1,0,0,0
564860117,49.178463,49.320526,56.128124,56.128124,0.0,746.9301,1.0,1.0,0.0,12,0.0,0.0,0.0,0.0,0.0,0,0,0,0,1234,1,1,0,0,0
565063445,49.420723,49.311203,54.675,54.675,0.0,750.04083,1.0,1.0,0.0,12,0.0,0.0,0.0,0.0,0.0,0,0,0,0,1234,1,1,0,0,0
565267559,49.31978,49.30818,52.940624,52.940624,0.0,753.0566,1.0,1.0,0.0,12,0.0,0.0,0.0,0.0,0.0,0,0,0,0,1234,1,1,0,0,0
565470722,49.380344,49.313625,54.190624,54.190624,0.0,756.1017,1.0,1.0,0.0,12,0.0,0.0,0.0,0.0,0.0,0,0,0,0,1234,1,1,0,0,0
565673723,49.33997,49.318344,55.58125,55.58125,0.0,759.1202,1.0,1.0,0.0,12,0.0,0.0,0.0,0.0,0.0,0,0,0,0,1234,1,1,0,0,0
565865931,49.31978,49.325172,51.721874,51.721874,0.0,761.9622,1.0,1.0,0.0,12,0.0,0.0,0.0,0.0,0.0,0,0,0,0,1234,1,1,0,0,0
566069870,49.33997,49.32092,54.690624,54.690624,0.0,764.9772,1.0,1.0,0.0,12,0.0,0.0,0.0,0.0,0.0,0,0,0,0,1234,1,1,0,0,0
566272900,49.23903,49.315834,60.003124,60.003124,0.0,768.1772,1.0,1.0,0.0,12,0.0,0.0,0.0,0.0,0.0,0,0,0,0,1234,1,1,0,0,0
566476160,49.360157,49.302525,57.8625,57.8625,0.0,771.4376,1.0,1.0,0.0,12,0.0,0.0,0.0,0.0,0.0,0,0,0,0,1234,1,1,0,0,0
566680289,49.218838,49.29667,57.425,57.425,0.0,774.7592,1.0,1.0,0.0,12,0.0,0.0,0.0,0.0,0.0,0,0,0,0,1234,1,1,0,0,0
566883472,49.279404,49.295444,58.3625,58.3625,0.0,778.0677,1.0,1.0,0.0,12,0.0,0.0,0.0,0.0,0.0,0,0,0,0,1234,1,1,0,0,0
567086906,49.259216,49.295258,58.378124,58.378124,0.0,781.35986,1.0,1.0,0.0,12,0.0,0.0,0.0,0.0,0.0,0,0,0,0,1234,1,1,0,0,0
567290601,49.19865,49.292164,54.534374,54.534374,0.0,784.5452,1.0,1.0,0.0,12,0.0,0.0,0.0,0.0,0.0,0,0,0,0,1234,1,1,0,0,0
567493920,49.259216,49.288567,58.534374,58.534374,0.0,787.6607,1.0,1.0,0.0,12,0.0,0.0,0.0,0.0,0.0,0,0,0,0,1234,1,1,0,0,0
567697859,49.279404,49.28648,57.315624,57.315624,0.0,790.8833,1.0,1.0,0.0,12,0.0,0.0,0.0,0.0,0.0,0,0,0,0,1234,1,1,0,0,0
567901057,49.380344,49.29359,56.409374,56.409374,0.0,793.9916,1.0,1.0,0.0,12,0.0,0.0,0.0,0.0,0.0,0,0,0,0,1234,1,1,0,0,0
568105109,49.40053,49.30251,52.534374,52.534374,0.0,797.11743,1.0,1.0,0.0,12,0.0,0.0,0.0,0.0,0.0,0,0,0,0,1234,1,1,0,0,0
568308524,49.279404,49.302185,52.70625,52.70625,0.0,800.1295,1.0,1.0,0.0,12,0.0,0.0,0.0,0.0,0.0,0,0,0,0,1234,1,1,0,0,0
568511425,49.31978,49.302795,50.784374,50.784374,0.0,803.0969,1.0,1.0,0.0,12,0.0,0.0,0.0,0.0,0.0,0,0,0,0,1234,1,1,0,0,0
568703468,49.380344,49.29863,54.471874,54.471874,0.0,805.89404,1.0,1.0,0.0,12,0.0,0.0,0.0,0.0,0.0,0,0,0,0,1234,1,1,0,0,0
568906687,49.138084,49.29404,54.26875,54.26875,0.0,808.9591,1.0,1.0,0.0,12,0.0,0.0,0.0,0.0,0.0,0,0,0,0,1234,1,1,0,0,0
569111141,49.33997,49.292603,53.378124,53.378124,0.0,811.9978,1.0,1.0,0.0,12,0.0,0.0,0.0,0.0,0.0,0,0,0,0,1234,1,1,0,0,0
569313704,49.158276,49.28599,54.175,54.175,0.0,814.9303,1.0,1.0,0.0,12,0.0,0.0,0.0,0.0,0.0,0,0,0,0,1234,1,1,0,0,0
569517738,49.178463,49.28633,53.315624,53.315624,0.0,817.92194,1.0,1.0,0.0,12,0.0,0.0,0.0,0.0,0.0,0,0,0,0,1234,1,1,0,0,0
569720991,49.259216,49.269585,57.909374,57.909374,0.0,821.0597,1.0,1.0,0.0,12,0.0,0.0,0.0,0.0,0.0,0,0,0,0,1234,1,1,0,0,0
569924130,49.31978,49.268517,58.76875,58.76875,0.0,824.39417,1.0,1.0,0.0,12,0.0,0.0,0.0,0.0,0.0,0,0,0,0,1234,1,1,0,0,0
570128241,49.19865,49.263626,57.425,57.425,0.0,827.63837,1.0,1.0,0.0,12,0.0,0.0,0.0,0.0,0.0,0,0,0,0,1234,1,1,0,0,0
570331950,49.23903,49.26071,58.39375,58.39375,0.0,830.8959,1.0,1.0,0.0,12,0.0,0.0,0.0,0.0,0.0,0,0,0,0,1234,1,1,0,0,0
570535484,49.19865,49.260403,57.3625,57.3625,0.0,834.1509,1.0,1.0,0.0,12,0.0,0.0,0.0,0.0,0.0,0,0,0,0,1234,1,1,0,0,0
570738670,49.178463,49.257668,58.596874,58.596874,0.0,837.4703,1.0,1.0,0.0,12,0.0,0.0,0.0,0.0,0.0,0,0,0,0,1234,1,1,0,0,0
570929697,49.31978,49.262024,55.4875,55.4875,0.0,840.48944,1.0,1.0,0.0,12,0.0,0.0,0.0,0.0,0.0,0,0,0,0,1234,1,1,0,0,0
571133739,49.19865,49.26494,54.4875,54.4875,0.0,843.6094,1.0,1.0,0.0,12,0.0,0.0,0.0,0.0,0.0,0,0,0,0,1234,1,1,0,0,0
571337145,49.279404,49.26553,55.39375,55.39375,0.0,846.7589,1.0,1.0,0.0,12,0.0,0.0,0.0,0.0,0.0,0,0,0,0,1234,1,1,0,0,0
571540905,49.279404,49.265858,53.534374,53.534374,0.0,849.8765,1.0,1.0,0.0,12,0.0,0.0,0.0,0.0,0.0,0,0,0,0,1234,1,1,0,0,0
571744298,49.31978,49.26657,52.628124,52.628124,0.0,852.842,1.0,1.0,0.0,12,0.0,0.0,0.0,0.0,0.0,0,0,0,0,1234,1,1,0,0,0
571948235,49.259216,49.269062,54.690624,54.690624,0.0,855.87726,1.0,1.0,0.0,12,0.0,0.0,0.0,0.0,0.0,0,0,0,0,1234,1,1,0,0,0
572151529,49.279404,49.27248,54.83125,54.83125,0.0,858.9923,1.0,1.0,0.0,12,0.0,0.0,0.0,0.0,0.0,0,0,0,0,1234,1,1,0,0,0
572354536,49.259216,49.273243,54.175,54.175,0.0,862.1032,1.0,1.0,0.0,12,0.0,0.0,0.0,0.0,0.0,0,0,0,0,1234,1,1,0,0,0
572558489,49.31978,49.27163,54.534374,54.534374,0.0,865.18805,1.0,1.0,0.0,12,0.0,0.0,0.0,0.0,0.0,0,0,0,0,1234,1,1,0,0,0
572761873,49.259216,49.266785,55.70625,55.70625,0.0,868.3371,1.0,1.0,0.0,12,0.0,0.0,0.0,0.0,0.0,0,0,0,0,1234,1,1,0,0,0
572965830,49.380344,49.26974,54.065624,54.065624,0.0,871.4276,1.0,1.0,0.0,12,0.0,0.0,0.0,0.0,0.0,0,0,0,0,1234,1,1,0,0,0
573169064,49.218838,49.267143,54.159374,54.159374,0.0,874.4444,1.0,1.0,0.0,12,0.0,0.0,0.0,0.0,0.0,0,0,0,0,1234,1,1,0,0,0
573372108,49.279404,49.26838,55.95625,55.95625,0.0,877.5381,1.0,1.0,0.0,12,0.0,0.0,0.0,0.0,0.0,0,0,0,0,1234,1,1,0,0,0
573576271,49.19865,49.265812,56.3,56.3,0.0,880.6816,1.0,1.0,0.0,12,0.0,0.0,0.0,0.0,0.0,0,0,0,0,1234,1,1,0,0,0
573779438,49.259216,49.26512,52.440624,52.440624,0.0,883.6619,1.0,1.0,0.0,12,0.0,0.0,0.0,0.0,0.0,0,0,0,0,1234,1,1,0,0,0
573971495,49.33997,49.263367,54.253124,54.253124,0.0,886.4501,1.0,1.0,0.0,12,0.0,0.0,0.0,0.0,0.0,0,0,0,0,1234,1,1,0,0,0
574178525,49.279404,49.265343,54.909374,54.909374,0.0,889.5352,1.0,1.0,0.0,12,0.0,0.0,0.0,0.0,0.0,0,0,0,0,1234,1,1,0,0,0
574382471,49.158276,49.262524,53.925,53.925,0.0,892.6163,1.0,1.0,0.0,12,0.0,0.0,0.0,0.0,0.0,0,0,0,0,1234,1,1,0,0,0
574585815,49.31978,49.26531,55.190624,55.190624,0.0,895.7783,1.0,1.0,0.0,12,0.0,0.0,0.0,0.0,0.0,0,0,0,0,1234,1,1,0,0,0
574789828,49.33997,49.268303,53.003124,53.003124,0.0,898.9031,1.0,1.0,0.0,12,0.0,0.0,0.0,0.0,0.0,0,0,0,0,1234,1,1,0,0,0
574993062,49.380344,49.267796,53.51875,53.51875,0.0,901.9152,1.0,1.0,0.0,12,0.0,0.0,0.0,0.0,0.0,0,0,0,0,1234,1,1,0,0,0
575196343,49.33997,49.26758,52.534374,52.534374,0.0,904.90906,1.0,1.0,0.0,12,0.0,0.0,0.0,0.0,0.0,0,0,0,0,1234,1,1,0,0,0
575388139,49.259216,49.266518,52.909374,52.909374,0.0,907.6663,1.0,1.0,0.0,12,0.0,0.0,0.0,0.0,0.0,0,0,0,0,1234,1,1,0,0,0
575591451,49.259216,49.26842,53.8,53.8,0.0,910.7007,1.0,1.0,0.0,12,0.0,0.0,0.0,0.0,0.0,0,0,0,0,1234,1,1,0,0,0
575795561,49.158276,49.27009,52.83125,52.83125,0.0,913.7068,1.0,1.0,0.0,12,0.0,0.0,0.0,0.0,0.0,0,0,0,0,1234,1,1,0,0,0
575998645,49.29959,49.268116,53.815624,53.815624,0.0,916.64703,1.0,1.0,0.0,12,0.0,0.0,0.0,0.0,0.0,0,0,0,0,1234,1,1,0,0,0
576202658,49.279404,49.266903,49.846874,49.846874,0.0,919.6396,1.0,1.0,0.0,12,0.0,0.0,0.0,0.0,0.0,0,0,0,0,1234,1,1,0,0,0
576405854,49.19865,49.260845,54.815624,54.815624,0.0,922.5826,1.0,1.0,0.0,12,0.0,0.0,0.0,0.0,0.0,0,0,0,0,1234,1,1,0,0,0
576609051,49.158276,49.257545,55.64375,55.64375,0.0,925.6746,1.0,1.0,0.0,12,0.0,0.0,0.0,0.0,0.0,0,0,0,0,1234,1,1,0,0,0
576812935,49.218838,49.257584,54.221874,54.221874,0.0,928.7978,1.0,1.0,0.0,12,0.0,0.0,0.0,0.0,0.0,0,0,0,0,1234,1,1,0,0,0
577016374,49.19865,49.249645,52.7375,52.7375,0.0,931.91565,1.0,1.0,0.0,12,0.0,0.0,0.0,0.0,0.0,0,0,0,0,1234,1,1,0,0,0
577219336,49.178463,49.24223,54.7375,54.7375,0.0,934.98016,1.0,1.0,0.0,12,0.0,0.0,0.0,0.0,0.0,0,0,0,0,1234,1,1,0,0,0
577411412,48.99677,49.22392,59.2375,59.2375,0.0,937.9997,1.0,1.0,0.0,12,0.0,0.0,0.0,0.0,0.0,0,0,0,0,1234,1,1,0,0,0
577614660,49.259216,49.229572,56.7375,56.7375,0.0,941.29193,1.0,1.0,0.0,12,0.0,0.0,0.0,0.0,0.0,0,0,0,0,1234,1,1,0,0,0
577818717,49.19865,49.220314,57.971874,57.971874,0.0,944.5322,1.0,1.0,0.0,12,0.0,0.0,0.0,0.0,0.0,0,0,0,0,1234,1,1,0,0,0
578021705,49.19865,49.214993,57.08125,57.08125,0.0,947.69653,1.0,1.0,0.0,12,0.0,0.0,0.0,0.0,0.0,0,0,0,0,1234,1,1,0,0,0
578213835,49.259216,49.22635,50.628124,50.628124,0.0,950.6243,1.0,1.0,0.0,12,0.0,0.0,0.0,0.0,0.0,0,0,0,0,1234,1,1,0,0,0
578417105,49.481285,49.251823,47.9875,47.9875,0.0,953.49036,1.0,1.0,0.0,12,0.0,0.0,0.0,0.0,0.0,0,0,0,0,1234,1,1,0,0,0
578620618,49.40053,49.272823,45.2375,45.2375,0.0,956.0908,1.0,1.0,0.0,12,0.0,0.0,0.0,0.0,0.0,0,0,0,0,1234,1,1,0,0,0
578824166,49.279404,49.280113,43.4875,43.4875,0.0,958.63336,1.0,1.0,0.0,12,0.0,0.0,0.0,0.0,0.0,0,0,0,0,1234,1,1,0,0,0
579027489,49.279404,49.27755,49.33125,49.33125,0.0,961.29816,1.0,1.0,0.0,12,0.0,0.0,0.0,0.0,0.0,0,0,0,0,1234,1,1,0,0,0
579231328,49.380344,49.27698,53.315624,53.315624,0.0,964.2169,1.0,1.0,0.0,12,0.0,0.0,0.0,0.0,0.0,0,0,0,0,1234,1,1,0,0,0
579434655,49.23903,49.282333,52.4875,52.4875,0.0,967.2085,1.0,1.0,0.0,12,0.0,0.0,0.0,0.0,0.0,0,0,0,0,1234,1,1,0,0,0
579638557,49.33997,49.28904,50.9875,50.9875,0.0,970.0953,1.0,1.0,0.0,12,0.0,0.0,0.0,0.0,0.0,0,0,0,0,1234,1,1,0,0,0
579841971,49.360157,49.295033,49.909374,49.909374,0.0,972.9635,1.0,1.0,0.0,12,0.0,0.0,0.0,0.0,0.0,0,0,0,0,1234,1,1,0,0,0
580045078,49.33997,49.2955,49.14375,49.14375,0.0,975.7761,1.0,1.0,0.0,12,0.0,0.0,0.0,0.0,0.0,0,0,0,0,1234,1,1,0,0,0
580236925,49.218838,49.29236,50.01875,50.01875,0.0,978.4759,1.0,1.0,0.0,12,0.0,0.0,0.0,0.0,0.0,0,0,0,0,1234,1,1,0,0,0
580440416,49.138084,49.273857,56.26875,56.26875,0.0,981.47015,1.0,1.0,0.0,12,0.0,0.0,0.0,0.0,0.0,0,0,0,0,1234,1,1,0,0,0
580644299,49.31978,49.26649,58.815624,58.815624,0.0,984.8002,1.0,1.0,0.0,12,0.0,0.0,0.0,0.0,0.0,0,0,0,0,1234,1,1,0,0,0
580847592,49.158276,49.259804,58.8625,58.8625,0.0,988.0893,1.0,1.0,0.0,12,0.0,0.0,0.0,0.0,0.0,0,0,0,0,1234,1,1,0,0,0
581050680,49.29959,49.255344,59.315624,59.315624,0.0,991.43884,1.0,1.0,0.0,12,0.0,0.0,0.0,0.0,0.0,0,0,0,0,1234,1,1,0,0,0
581254646,49.23903,49.245544,55.190624,55.190624,0.0,994.6507,1.0,1.0,0.0,12,0.0,0.0,0.0,0.0,0.0,0,0,0,0,1234,1,1,0,0,0
581457880,49.016956,49.22471,57.284374,57.284374,0.0,997.8619,1.0,1.0,0.0,12,0.0,0.0,0.0,0.0,0.0,0,0,0,0,1234,1,1,0,0,0
581661837,49.23903,49.206715,62.471874,62.471874,0.0,1001.25806,1.0,1.0,0.0,12,0.0,0.0,0.0,0.0,0.0,0,0,0,0,1234,1,1,0,0,0
581866238,48.956394,49.18152,59.815624,59.815624,0.0,1004.69025,1.0,1.0,0.0,12,0.0,0.0,0.0,0.0,0.0,0,0,0,0,1234,1,1,0,0,0
582068104,49.138084,49.162785,63.4875,63.4875,0.0,1008.22064,1.0,1.0,0.0,12,0.0,0.0,0.0,0.0,0.0,0,0,0,0,1234,1,1,0,0,0
582272340,49.037144,49.137714,67.05,67.05,0.0,1011.9351,1.0,1.0,0.0,12,0.0,0.0,0.0,0.0,0.0,0,0,0,0,1234,1,1,0,0,0
582475432,48.87564,49.11945,68.14375,68.14375,0.0,1015.6814,1.0,1.0,0.0,12,0.0,0.0,0.0,0.0,0.0,0,0,0,0,1234,1,1,0,0,0
582679277,49.077522,49.121437,63.971874,63.971874,0.0,1019.49396,1.0,1.0,0.0,12,0.0,0.0,0.0,0.0,0.0,0,0,0,0,1234,1,1,0,0,0
582882901,49.077522,49.10531,66.925,66.925,0.0,1023.20685,1.0,1.0,0.0,12,0.0,0.0,0.0,0.0,0.0,0,0,0,0,1234,1,1,0,0,0
583085697,49.09771,49.107323,64.22188,64.22188,0.0,1026.929,1.0,1.0,0.0,12,0.0,0.0,0.0,0.0,0.0,0,0,0,0,1234,1,1,0,0,0
583289870,49.138084,49.119205,65.25313,65.25313,0.0,1030.7114,1.0,1.0,0.0,12,0.0,0.0,0.0,0.0,0.0,0,0,0,0,1234,1,1,0,0,0
583493720,49.259216,49.13407,61.440624,61.440624,0.0,1034.1687,1.0,1.0,0.0,12,0.0,0.0,0.0,0.0,0.0,0,0,0,0,1234,1,1,0,0,0
583697131,49.33997,49.14416,60.175,60.175,0.0,1037.576,1.0,1.0,0.0,12,0.0,0.0,0.0,0.0,0.0,0,0,0,0,1234,1,1,0,0,0
583900284,49.138084,49.14728,60.33125,60.33125,0.0,1040.956,1.0,1.0,0.0,12,0.0,0.0,0.0,0.0,0.0,0,0,0,0,1234,1,1,0,0,0
584104286,49.09771,49.148,59.45625,59.45625,0.0,1044.2805,1.0,1.0,0.0,12,0.0,0.0,0.0,0.0,0.0,0,0,0,0,1234,1,1,0,0,0
584307456,49.057335,49.147762,57.534374,57.534374,0.0,1047.6372,1.0,1.0,0.0,12,0.0,0.0,0.0,0.0,0.0,0,0,0,0,1234,1,1,0,0,0
584510538,49.178463,49.150646,55.64375,55.64375,0.0,1050.7483,1.0,1.0,0.0,12,0.0,0.0,0.0,0.0,0.0,0,0,0,0,1234,1,1,0,0,0
584702519,49.117897,49.154457,56.753124,56.753124,0.0,1053.8549,1.0,1.0,0.0,12,0.0,0.0,0.0,0.0,0.0,0,0,0,0,1234,1,1,0,0,0
584905972,49.117897,49.15916,59.721874,59.721874,0.0,1057.1589,1.0,1.0,0.0,12,0.0,0.0,0.0,0.0,0.0,0,0,0,0,1234,1,1,0,0,0
585109830,49.19865,49.158768,57.64375,57.64375,0.0,1060.4259,1.0,1.0,0.0,12,0.0,0.0,0.0,0.0,0.0,0,0,0,0,1234,1,1,0,0,0
585312919,49.259216,49.1674,53.9875,53.9875,0.0,1063.5953,1.0,1.0,0.0,12,0.0,0.0,0.0,0.0,0.0,0,0,0,0,1234,1,1,0,0,0
585517069,49.218838,49.166775,56.08125,56.08125,0.0,1066.7303,1.0,1.0,0.0,12,0.0,0.0,0.0,0.0,0.0,0,0,0,0,1234,1,1,0,0,0
585720245,49.259216,49.170425,55.659374,55.659374,0.0,1069.8589,1.0,1.0,0.0,12,0.0,0.0,0.0,0.0,0.0,0,0,0,0,1234,1,1,0,0,0
585923448,49.117897,49.175144,56.346874,56.346874,0.0,1072.9961,1.0,1.0,0.0,12,0.0,0.0,0.0,0.0,0.0,0,0,0,0,1234,1,1,0,0,0
586127868,49.138084,49.176785,53.753124,53.753124,0.0,1076.1471,1.0,1.0,0.0,12,0.0,0.0,0.0,0.0,0.0,0,0,0,0,1234,1,1,0,0,0
586330680,49.138084,49.1811,54.565624,54.565624,0.0,1079.2206,1.0,1.0,0.0,12,0.0,0.0,0.0,0.0,0.0,0,0,0,0,1234,1,1,0,0,0
586534640,49.178463,49.18065,57.6125,57.6125,0.0,1082.4644,1.0,1.0,0.0,12,0.0,0.0,0.0,0.0,0.0,0,0,0,0,1234,1,1,0,0,0
586737865,49.218838,49.18737,56.76875,56.76875,0.0,1085.6854,1.0,1.0,0.0,12,0.0,0.0,0.0,0.0,0.0,0,0,0,0,1234,1,1,0,0,0
586941865,49.117897,49.184128,58.45625,58.45625,0.0,1088.9692,1.0,1.0,0.0,12,0.0,0.0,0.0,0.0,0.0,0,0,0,0,1234,1,1,0,0,0
587145043,49.158276,49.188473,56.3,56.3,0.0,1092.2339,1.0,1.0,0.0,12,0.0,0.0,0.0,0.0,0.0,0,0,0,0,1234,1,1,0,0,0
587336238,49.117897,49.18564,55.440624,55.440624,0.0,1095.1924,1.0,1.0,0.0,12,0.0,0.0,0.0,0.0,0.0,0,0,0,0,1234,1,1,0,0,0
587540234,49.158276,49.18649,57.159374,57.159374,0.0,1098.4146,1.0,1.0,0.0,12,0.0,0.0,0.0,0.0,0.0,0,0,0,0,1234,1,1,0,0,0
587743324,49.19865,49.179085,55.721874,55.721874,0.0,1101.6234,1.0,1.0,0.0,12,0.0,0.0,0.0,0.0,0.0,0,0,0,0,1234,1,1,0,0,0
587947836,49.259216,49.18962,54.909374,54.909374,0.0,1104.8419,1.0,1.0,0.0,12,0.0,0.0,0.0,0.0,0.0,0,0,0,0,1234,1,1,0,0,0
588150647,49.259216,49.203224,53.315624,53.315624,0.0,1107.918,1.0,1.0,0.0,12,0.0,0.0,0.0,0.0,0.0,0,0,0,0,1234,1,1,0,0,0
588353891,49.279404,49.213917,48.2375,48.2375,0.0,1110.8727,1.0,1.0,0.0,12,0.0,0.0,0.0,0.0,0.0,0,0,0,0,1234,1,1,0,0,0
588557896,49.19865,49.217735,48.409374,48.409374,0.0,1113.5591,1.0,1.0,0.0,12,0.0,0.0,0.0,0.0,0.0,0,0,0,0,1234,1,1,0,0,0
588761038,49.117897,49.20903,50.89375,50.89375,0.0,1116.3606,1.0,1.0,0.0,12,0.0,0.0,0.0,0.0,0.0,0,0,0,0,1234,1,1,0,0,0
588965114,49.077522,49.20132,53.8,53.8,0.0,1119.3641,1.0,1.0,0.0,12,0.0,0.0,0.0,0.0,0.0,0,0,0,0,1234,1,1,0,0,0
589168306,49.09771,49.189526,53.55,53.55,0.0,1122.4308,1.0,1.0,0.0,12,0.0,0.0,0.0,0.0,0.0,0,0,0,0,1234,1,1,0,0,0
589371546,49.19865,49.178257,58.565624,58.565624,0.0,1125.5874,1.0,1.0,0.0,12,0.0,0.0,0.0,0.0,0.0,0,0,0,0,1234,1,1,0,0,0
589575504,49.09771,49.167137,58.3625,58.3625,0.0,1128.8663,1.0,1.0,0.0,12,0.0,0.0,0.0,0.0,0.0,0,0,0,0,1234,1,1,0,0,0
589778681,49.057335,49.160618,60.1125,60.1125,0.0,1132.1841,1.0,1.0,0.0,12,0.0,0.0,0.0,0.0,0.0,0,0,0,0,1234,1,1,0,0,0
589970700,49.09771,49.149487,61.659374,61.659374,0.0,1135.4336,1.0,1.0,0.0,12,0.0,0.0,0.0,0.0,0.0,0,0,0,0,1234,1,1,0,0,0
590173907,49.077522,49.14237,58.878124,58.878124,0.0,1138.7493,1.0,1.0,0.0,12,0.0,0.0,0.0,0.0,0.0,0,0,0,0,1234,1,1,0,0,0
590377738,49.19865,49.153564,56.378124,56.378124,0.0,1142.0071,1.0,1.0,0.0,12,0.0,0.0,0.0,0.0,0.0,0,0,0,0,1234,1,1,0,0,0
590581074,49.259216,49.16805,50.378124,50.378124,0.0,1144.9801,1.0,1.0,0.0,12,0.0,0.0,0.0,0.0,0.0,0,0,0,0,1234,1,1,0,0,0
590784236,49.138084,49.177322,50.878124,50.878124,0.0,1147.8695,1.0,1.0,0.0,12,0.0,0.0,0.0,0.0,0.0,0,0,0,0,1234,1,1,0,0,0
590988138,49.178463,49.17033,52.253124,52.253124,0.0,1150.7244,1.0,1.0,0.0,12,0.0,0.0,0.0,0.0,0.0,0,0,0,0,1234,1,1,0,0,0
591191510,49.178463,49.15742,57.096874,57.096874,0.0,1153.7628,1.0,1.0,0.0,12,0.0,0.0,0.0,0.0,0.0,0,0,0,0,1234,1,1,0,0,0
591395425,48.75451,49.132164,62.565624,62.565624,0.0,1157.1509,1.0,1.0,0.0,12,0.0,0.0,0.0,0.0,0.0,0,0,0,0,1234,1,1,0,0,0
591598695,49.016956,49.10197,68.90938,68.90938,0.0,1160.8214,1.0,1.0,0.0,12,0.0,0.0,0.0,0.0,0.0,0,0,0,0,1234,1,1,0,0,0
591789712,48.956394,49.07297,70.95625,70.95625,0.0,1164.4573,1.0,1.0,0.0,12,0.0,0.0,0.0,0.0,0.0,0,0,0,0,1234,1,1,0,0,0
591993986,48.835262,49.04158,73.06563,73.06563,0.0,1168.5026,1.0,1.0,0.0,12,0.0,0.0,0.0,0.0,0.0,0,0,0,0,1234,1,1,0,0,0
592197149,48.936203,49.015556,72.22188,72.22188,0.0,1172.6376,1.0,1.0,0.0,12,0.0,0.0,0.0,0.0,0.0,0,0,0,0,1234,1,1,0,0,0
592401081,48.89583,49.006725,71.31563,71.31563,0.0,1176.7307,1.0,1.0,0.0,12,0.0,0.0,0.0,0.0,0.0,0,0,0,0,1234,1,1,0,0,0
592604119,49.117897,49.01087,68.33125,68.33125,0.0,1180.6835,1.0,1.0,0.0,12,0.0,0.0,0.0,0.0,0.0,0,0,0,0,1234,1,1,0,0,0
592807516,49.016956,49.01135,66.62813,66.62813,0.0,1184.4849,1.0,1.0,0.0,12,0.0,0.0,0.0,0.0,0.0,0,0,0,0,1234,1,1,0,0,0
593011445,48.85545,49.005764,67.94063,67.94063,0.0,1188.2684,1.0,1.0,0.0,12,0.0,0.0,0.0,0.0,0.0,0,0,0,0,1234,1,1,0,0,0
593215175,48.85545,48.997246,68.87813,68.87813,0.0,1192.1942,1.0,1.0,0.0,12,0.0,0.0,0.0,0.0,0.0,0,0,0,0,1234,1,1,0,0,0
593418629,48.7747,48.993706,68.37813,68.37813,0.0,1196.1007,1.0,1.0,0.0,12,0.0,0.0,0.0,0.0,0.0,0,0,0,0,1234,1,1,0,0,0
593621847,48.99677,48.98537,71.1125,71.1125,0.0,1200.0841,1.0,1.0,0.0,12,0.0,0.0,0.0,0.0,0.0,0,0,0,0,1234,1,1,0,0,0
593825967,49.057335,48.98544,66.06563,66.06563,0.0,1203.9302,1.0,1.0,0.0,12,0.0,0.0,0.0,0.0,0.0,0,0,0,0,1234,1,1,0,0,0
594029017,49.178463,48.991253,66.75313,66.75313,0.0,1207.675,1.0,1.0,0.0,12,0.0,0.0,0.0,0.0,0.0,0,0,0,0,1234,1,1,0,0,0
594232236,49.09771,48.9972,66.00313,66.00313,0.0,1211.4288,1.0,1.0,0.0,12,0.0,0.0,0.0,0.0,0.0,0,0,0,0,1234,1,1,0,0,0
594436716,48.87564,49.00474,60.721874,60.721874,0.0,1215.0004,1.0,1.0,0.0,12,0.0,0.0,0.0,0.0,0.0,0,0,0,0,1234,1,1,0,0,0
594639460,49.057335,49.022114,58.7375,58.7375,0.0,1218.3237,1.0,1.0,0.0,12,0.0,0.0,0.0,0.0,0.0,0,0,0,0,1234,1,1,0,0,0
594843445,49.259216,49.05026,54.346874,54.346874,0.0,1221.5485,1.0,1.0,0.0,12,0.0,0.0,0.0,0.0,0.0,0,0,0,0,1234,1,1,0,0,0
595046552,49.259216,49.079082,49.784374,49.784374,0.0,1224.5966,1.0,1.0,0.0,12,0.0,0.0,0.0,0.0,0.0,0,0,0,0,1234,1,1,0,0,0
595249718,49.138084,49.112034,45.784374,45.784374,0.0,1227.3094,1.0,1.0,0.0,12,0.0,0.0,0.0,0.0,0.0,0,0,0,0,1234,1,1,0,0,0
595453729,49.259216,49.126495,43.815624,43.815624,0.0,1229.7981,1.0,1.0,0.0,12,0.0,0.0,0.0,0.0,0.0,0,0,0,0,1234,1,1,0,0,0
595657477,49.117897,49.140205,46.83125,46.83125,0.0,1232.3307,1.0,1.0,0.0,12,0.0,0.0,0.0,0.0,0.0,0,0,0,0,1234,1,1,0,0,0
595860887,49.117897,49.14334,49.9875,49.9875,0.0,1235.0688,1.0,1.0,0.0,12,0.0,0.0,0.0,0.0,0.0,0,0,0,0,1234,1,1,0,0,0
596064260,49.259216,49.15209,49.190624,49.190624,0.0,1237.898,1.0,1.0,0.0,12,0.0,0.0,0.0,0.0,0.0,0,0,0,0,1234,1,1,0,0,0
596267540,49.461098,49.18111,45.971874,45.971874,0.0,1240.623,1.0,1.0,0.0,12,0.0,0.0,0.0,0.0,0.0,0,0,0,0,1234,1,1,0,0,0
596471483,49.461098,49.230095,39.565624,39.565624,0.0,1243.0684,1.0,1.0,0.0,12,0.0,0.0,0.0,0.0,0.0,0,0,0,0,1234,1,1,0,0,0
596674906,49.461098,49.274963,28.425,28.425,0.0,1245.0486,1.0,1.0,0.0,12,0.0,0.0,0.0,0.0,0.0,0,0,0,0,1234,1,1,0,0,0
596878927,49.29959,49.287663,32.05,32.05,0.0,1246.6906,1.0,1.0,0.0,12,0.0,0.0,0.0,0.0,0.0,0,0,0,0,1234,1,1,0,0,0
597081951,49.259216,49.28499,35.51875,35.51875,0.0,1248.5942,1.0,1.0,0.0,12,0.0,0.0,0.0,0.0,0.0,0,0,0,0,1234,1,1,0,0,0
597285007,49.259216,49.280354,38.909374,38.909374,0.0,1250.7229,1.0,1.0,0.0,12,0.0,0.0,0.0,0.0,0.0,0,0,0,0,1234,1,1,0,0,0
597489076,49.138084,49.270195,42.8625,42.8625,0.0,1253.0327,1.0,1.0,0.0,12,0.0,0.0,0.0,0.0,0.0,0,0,0,0,1234,1,1,0,0,0
597692125,49.077522,49.2613,44.878124,44.878124,0.0,1255.4307,1.0,1.0,0.0,12,0.0,0.0,0.0,0.0,0.0,0,0,0,0,1234,1,1,0,0,0
597884135,49.29959,49.237,49.3625,49.3625,0.0,1257.936,1.0,1.0,0.0,12,0.0,0.0,0.0,0.0,0.0,0,0,0,0,1234,1,1,0,0,0
598087510,49.158276,49.22495,49.45625,49.45625,0.0,1260.7052,1.0,1.0,0.0,12,0.0,0.0,0.0,0.0,0.0,0,0,0,0,1234,1,1,0,0,0
598290513,49.117897,49.21316,50.940624,50.940624,0.0,1263.537,1.0,1.0,0.0,12,0.0,0.0,0.0,0.0,0.0,0,0,0,0,1234,1,1,0,0,0
598494535,49.09771,49.191288,53.534374,53.534374,0.0,1266.4418,1.0,1.0,0.0,12,0.0,0.0,0.0,0.0,0.0,0,0,0,0,1234,1,1,0,0,0
598697988,49.117897,49.179512,54.58125,54.58125,0.0,1269.5536,1.0,1.0,0.0,12,0.0,0.0,0.0,0.0,0.0,0,0,0,0,1234,1,1,0,0,0
598901888,49.158276,49.172367,55.159374,55.159374,0.0,1272.6562,1.0,1.0,0.0,12,0.0,0.0,0.0,0.0,0.0,0,0,0,0,1234,1,1,0,0,0
599105038,49.259216,49.17339,56.003124,56.003124,0.0,1275.7975,1.0,1.0,0.0,12,0.0,0.0,0.0,0.0,0.0,0,0,0,0,1234,1,1,0,0,0
599308117,49.31978,49.177216,53.784374,53.784374,0.0,1278.8873,1.0,1.0,0.0,12,0.0,0.0,0.0,0.0,0.0,0,0,0,0,1234,1,1,0,0,0
599512260,49.29959,49.182312,49.096874,49.096874,0.0,1281.6996,1.0,1.0,0.0,12,0.0,0.0,0.0,0.0,0.0,0,0,0,0,1234,1,1,0,0,0
599715444,49.279404,49.189625,46.95625,46.95625,0.0,1284.3977,1.0,1.0,0.0,12,0.0,0.0,0.0,0.0,0.0,0,0,0,0,1234,1,1,0,0,0
599919772,49.279404,49.19528,48.221874,48.221874,0.0,1287.0542,1.0,1.0,0.0,12,0.0,0.0,0.0,0.0,0.0,0,0,0,0,1234,1,1,0,0,0
600122658,49.259216,49.205452,46.409374,46.409374,0.0,1289.7257,1.0,1.0,0.0,12,0.0,0.0,0.0,0.0,0.0,0,0,0,0,1234,1,1,0,0,0
600325829,49.279404,49.215523,45.8,45.8,0.0,1292.323,1.0,1.0,0.0,12,0.0,0.0,0.0,0.0,0.0,0,0,0,0,1234,1,1,0,0,0
600529936,49.279404,49.22573,42.534374,42.534374,0.0,1294.8408,1.0,1.0,0.0,12,0.0,0.0,0.0,0.0,0.0,0,0,0,0,1234,1,1,0,0,0
600732931,49.279404,49.232235,41.33125,41.33125,0.0,1297.2289,1.0,1.0,0.0,12,0.0,0.0,0.0,0.0,0.0,0,0,0,0,1234,1,1,0,0,0
600937162,49.31978,49.239216,43.675,43.675,0.0,1299.7076,1.0,1.0,0.0,12,0.0,0.0,0.0,0.0,0.0,0,0,0,0,1234,1,1,0,0,0
601140312,49.178463,49.242416,42.471874,42.471874,0.0,1302.1383,1.0,1.0,0.0,12,0.0,0.0,0.0,0.0,0.0,0,0,0,0,1234,1,1,0,0,0
601344135,49.158276,49.24506,44.753124,44.753124,0.0,1304.6572,1.0,1.0,0.0,12,0.0,0.0,0.0,0.0,0.0,0,0,0,0,1234,1,1,0,0,0
601547557,49.279404,49.24861,42.175,42.175,0.0,1307.113,1.0,1.0,0.0,12,0.0,0.0,0.0,0.0,0.0,0,0,0,0,1234,1,1,0,0,0
601750486,49.31978,49.2524,46.1125,46.1125,0.0,1309.6367,1.0,1.0,0.0,12,0.0,0.0,0.0,0.0,0.0,0,0,0,0,1234,1,1,0,0,0
601954630,49.33997,49.261044,43.2375,43.2375,0.0,1312.1957,1.0,1.0,0.0,12,0.0,0.0,0.0,0.0,0.0,0,0,0,0,1234,1,1,0,0,0
602157877,49.40053,49.269924,43.89375,43.89375,0.0,1314.6843,1.0,1.0,0.0,12,0.0,0.0,0.0,0.0,0.0,0,0,0,0,1234,1,1,0,0,0
602349718,49.54185,49.29864,37.175,37.175,0.0,1316.8483,1.0,1.0,0.0,12,0.0,0.0,0.0,0.0,0.0,0,0,0,0,1234,1,1,0,0,0
602553035,49.44091,49.323524,33.159374,33.159374,0.0,1318.7677,1.0,1.0,0.0,12,0.0,0.0,0.0,0.0,0.0,0,0,0,0,1234,1,1,0,0,0
602756247,49.23903,49.320847,37.675,37.675,0.0,1320.7871,1.0,1.0,0.0,12,0.0,0.0,0.0,0.0,0.0,0,0,0,0,1234,1,1,0,0,0
602960138,49.259216,49.316677,39.721874,39.721874,0.0,1322.9296,1.0,1.0,0.0,12,0.0,0.0,0.0,0.0,0.0,0,0,0,0,1234,1,1,0,0,0
603163532,49.077522,49.299595,43.95625,43.95625,0.0,1325.3184,1.0,1.0,0.0,12,0.0,0.0,0.0,0.0,0.0,0,0,0,0,1234,1,1,0,0,0
603367488,49.117897,49.27897,46.95625,46.95625,0.0,1327.9027,1.0,1.0,0.0,12,0.0,0.0,0.0,0.0,0.0,0,0,0,0,1234,1,1,0,0,0
603570667,49.117897,49.25129,51.346874,51.346874,0.0,1330.5957,1.0,1.0,0.0,12,0.0,0.0,0.0,0.0,0.0,0,0,0,0,1234,1,1,0,0,0
603774961,49.158276,49.243813,50.76875,50.76875,0.0,1333.4957,1.0,1.0,0.0,12,0.0,0.0,0.0,0.0,0.0,0,0,0,0,1234,1,1,0,0,0
603977931,48.956394,49.217392,51.89375,51.89375,0.0,1336.3247,1.0,1.0,0.0,12,0.0,0.0,0.0,0.0,0.0,0,0,0,0,1234,1,1,0,0,0
604181061,49.259216,49.185326,55.596874,55.596874,0.0,1339.3525,1.0,1.0,0.0,12,0.0,0.0,0.0,0.0,0.0,0,0,0,0,1234,1,1,0,0,0
604373124,49.057335,49.17271,55.909374,55.909374,0.0,1342.2731,1.0,1.0,0.0,12,0.0,0.0,0.0,0.0,0.0,0,0,0,0,1234,1,1,0,0,0
604576135,49.057335,49.151234,56.284374,56.284374,0.0,1345.4143,1.0,1.0,0.0,12,0.0,0.0,0.0,0.0,0.0,0,0,0,0,1234,1,1,0,0,0
604779465,49.09771,49.138313,59.14375,59.14375,0.0,1348.7052,1.0,1.0,0.0,12,0.0,0.0,0.0,0.0,0.0,0,0,0,0,1234,1,1,0,0,0
604983339,49.178463,49.137436,58.51875,58.51875,0.0,1352.0474,1.0,1.0,0.0,12,0.0,0.0,0.0,0.0,0.0,0,0,0,0,1234,1,1,0,0,0
605187180,49.158276,49.13955,56.753124,56.753124,0.0,1355.3131,1.0,1.0,0.0,12,0.0,0.0,0.0,0.0,0.0,0,0,0,0,1234,1,1,0,0,0
605390622,49.09771,49.13418,56.2375,56.2375,0.0,1358.4634,1.0,1.0,0.0,12,0.0,0.0,0.0,0.0,0.0,0,0,0,0,1234,1,1,0,0,0
605593751,49.09771,49.13031,57.01875,57.01875,0.0,1361.6742,1.0,1.0,0.0,12,0.0,0.0,0.0,0.0,0.0,0,0,0,0,1234,1,1,0,0,0
605797348,49.19865,49.134678,53.596874,53.596874,0.0,1364.8469,1.0,1.0,0.0,12,0.0,0.0,0.0,0.0,0.0,0,0,0,0,1234,1,1,0,0,0
606000938,49.29959,49.143814,50.33125,50.33125,0.0,1367.7548,1.0,1.0,0.0,12,0.0,0.0,0.0,0.0,0.0,0,0,0,0,1234,1,1,0,0,0
606204345,49.31978,49.156193,49.440624,49.440624,0.0,1370.531,1.0,1.0,0.0,12,0.0,0.0,0.0,0.0,0.0,0,0,0,0,1234,1,1,0,0,0
606396271,49.178463,49.15918,48.8,48.8,0.0,1373.0974,1.0,1.0,0.0,12,0.0,0.0,0.0,0.0,0.0,0,0,0,0,1234,1,1,0,0,0
606599444,49.057335,49.14449,52.45625,52.45625,0.0,1375.9697,1.0,1.0,0.0,12,0.0,0.0,0.0,0.0,0.0,0,0,0,0,1234,1,1,0,0,0
606803457,49.259216,49.134357,55.315624,55.315624,0.0,1379.016,1.0,1.0,0.0,12,0.0,0.0,0.0,0.0,0.0,0,0,0,0,1234,1,1,0,0,0
607006753,49.178463,49.1393,52.675,52.675,0.0,1382.09,1.0,1.0,0.0,12,0.0,0.0,0.0,0.0,0.0,0,0,0,0,1234,1,1,0,0,0
607209675,49.19865,49.148144,48.95625,48.95625,0.0,1384.978,1.0,1.0,0.0,12,0.0,0.0,0.0,0.0,0.0,0,0,0,0,1234,1,1,0,0,0
607413860,49.158276,49.147278,52.003124,52.003124,0.0,1387.8384,1.0,1.0,0.0,12,0.0,0.0,0.0,0.0,0.0,0,0,0,0,1234,1,1,0,0,0
607616914,49.178463,49.151478,53.20625,53.20625,0.0,1390.8009,1.0,1.0,0.0,12,0.0,0.0,0.0,0.0,0.0,0,0,0,0,1234,1,1,0,0,0
607821006,49.360157,49.16283,50.878124,50.878124,0.0,1393.7063,1.0,1.0,0.0,12,0.0,0.0,0.0,0.0,0.0,0,0,0,0,1234,1,1,0,0,0
608024121,49.44091,49.196247,46.596874,46.596874,0.0,1396.4071,1.0,1.0,0.0,12,0.0,0.0,0.0,0.0,0.0,0,0,0,0,1234,1,1,0,0,0
608228538,49.23903,49.217686,41.925,41.925,0.0,1398.8157,1.0,1.0,0.0,12,0.0,0.0,0.0,0.0,0.0,0,0,0,0,1234,1,1,0,0,0
608431490,49.31978,49.23638,40.065624,40.065624,0.0,1401.1158,1.0,1.0,0.0,12,0.0,0.0,0.0,0.0,0.0,0,0,0,0,1234,1,1,0,0,0
608634506,49.31978,49.246098,40.64375,40.64375,0.0,1403.4954,1.0,1.0,0.0,12,0.0,0.0,0.0,0.0,0.0,0,0,0,0,1234,1,1,0,0,0
608838678,49.23903,49.240868,42.175,42.175,0.0,1405.7266,1.0,1.0,0.0,12,0.0,0.0,0.0,0.0,0.0,0,0,0,0,1234,1,1,0,0,0
609041712,49.31978,49.247757,43.128124,43.128124,0.0,1408.2197,1.0,1.0,0.0,12,0.0,0.0,0.0,0.0,0.0,0,0,0,0,1234,1,1,0,0,0
609245889,49.158276,49.252064,40.503124,40.503124,0.0,1410.5856,1.0,1.0,0.0,12,0.0,0.0,0.0,0.0,0.0,0,0,0,0,1234,1,1,0,0,0
609449178,49.19865,49.238503,43.565624,43.565624,0.0,1412.9128,1.0,1.0,0.0,12,0.0,0.0,0.0,0.0,0.0,0,0,0,0,1234,1,1,0,0,0
609652156,49.138084,49.217266,46.89375,46.89375,0.0,1415.4918,1.0,1.0,0.0,12,0.0,0.0,0.0,0.0,0.0,0,0,0,0,1234,1,1,0,0,0
609856305,49.037144,49.198364,51.95625,51.95625,0.0,1418.3298,1.0,1.0,0.0,12,0.0,0.0,0.0,0.0,0.0,0,0,0,0,1234,1,1,0,0,0
610059405,49.117897,49.17785,54.659374,54.659374,0.0,1421.2653,1.0,1.0,0.0,12,0.0,0.0,0.0,0.0,0.0,0,0,0,0,1234,1,1,0,0,0
610263455,49.077522,49.1537,56.596874,56.596874,0.0,1424.3918,1.0,1.0,0.0,12,0.0,0.0,0.0,0.0,0.0,0,0,0,0,1234,1,1,0,0,0
610466575,48.99677,49.126923,59.440624,59.440624,0.0,1427.6382,1.0,1.0,0.0,12,0.0,0.0,0.0,0.0,0.0,0,0,0,0,1234,1,1,0,0,0
610657887,49.037144,49.10836,61.01875,61.01875,0.0,1430.841,1.0,1.0,0.0,12,0.0,0.0,0.0,0.0,0.0,0,0,0,0,1234,1,1,0,0,0
610861734,49.057335,49.09231,61.565624,61.565624,0.0,1434.3085,1.0,1.0,0.0,12,0.0,0.0,0.0,0.0,0.0,0,0,0,0,1234,1,1,0,0,0
611065049,49.057335,49.080738,61.221874,61.221874,0.0,1437.7648,1.0,1.0,0.0,12,0.0,0.0,0.0,0.0,0.0,0,0,0,0,1234,1,1,0,0,0
611269069,49.077522,49.072147,60.409374,60.409374,0.0,1441.2311,1.0,1.0,0.0,12,0.0,0.0,0.0,0.0,0.0,0,0,0,0,1234,1,1,0,0,0
611472299,49.117897,49.06516,60.95625,60.95625,0.0,1444.6531,1.0,1.0,0.0,12,0.0,0.0,0.0,0.0,0.0,0,0,0,0,1234,1,1,0,0,0
611675842,49.158276,49.07571,56.221874,56.221874,0.0,1447.9574,1.0,1.0,0.0,12,0.0,0.0,0.0,0.0,0.0,0,0,0,0,1234,1,1,0,0,0
611867548,49.218838,49.08464,55.440624,55.440624,0.0,1450.9171,1.0,1.0,0.0,12,0.0,0.0,0.0,0.0,0.0,0,0,0,0,1234,1,1,0,0,0
612070633,49.117897,49.091106,52.221874,52.221874,0.0,1453.9618,1.0,1.0,0.0,12,0.0,0.0,0.0,0.0,0.0,0,0,0,0,1234,1,1,0,0,0
612272354,49.117897,49.087086,55.39375,55.39375,0.0,1457.0128,1.0,1.0,0.0,12,0.0,0.0,0.0,0.0,0.0,0,0,0,0,1234,1,1,0,0,0
612474182,49.037144,49.08291,57.55,57.55,0.0,1460.1525,1.0,1.0,0.0,12,0.0,0.0,0.0,0.0,0.0,0,0,0,0,1234,1,1,0,0,0
612676893,49.016956,49.07738,55.159374,55.159374,0.0,1463.309,1.0,1.0,0.0,12,0.0,0.0,0.0,0.0,0.0,0,0,0,0,1234,1,1,0,0,0
612881086,49.117897,49.08163,53.221874,53.221874,0.0,1466.3433,1.0,1.0,0.0,12,0.0,0.0,0.0,0.0,0.0,0,0,0,0,1234,1,1,0,0,0
613084123,49.016956,49.08289,51.7375,51.7375,0.0,1469.321,1.0,1.0,0.0,12,0.0,0.0,0.0,0.0,0.0,0,0,0,0,1234,1,1,0,0,0
613288270,49.037144,49.07633,53.89375,53.89375,0.0,1472.3619,1.0,1.0,0.0,12,0.0,0.0,0.0,0.0,0.0,0,0,0,0,1234,1,1,0,0,0
613491479,49.037144,49.07398,54.503124,54.503124,0.0,1475.4077,1.0,1.0,0.0,12,0.0,0.0,0.0,0.0,0.0,0,0,0,0,1234,1,1,0,0,0
613695202,49.077522,49.07369,54.346874,54.346874,0.0,1478.488,1.0,1.0,0.0,12,0.0,0.0,0.0,0.0,0.0,0,0,0,0,1234,1,1,0,0,0
613898708,49.138084,49.07259,54.8625,54.8625,0.0,1481.5577,1.0,1.0,0.0,12,0.0,0.0,0.0,0.0,0.0,0,0,0,0,1234,1,1,0,0,0
614101738,49.077522,49.07111,53.503124,53.503124,0.0,1484.6327,1.0,1.0,0.0,12,0.0,0.0,0.0,0.0,0.0,0,0,0,0,1234,1,1,0,0,0
614305916,49.016956,49.068157,55.08125,55.08125,0.0,1487.7224,1.0,1.0,0.0,12,0.0,0.0,0.0,0.0,0.0,0,0,0,0,1234,1,1,0,0,0
614508908,49.057335,49.057064,54.8,54.8,0.0,1490.846,1.0,1.0,0.0,12,0.0,0.0,0.0,0.0,0.0,0,0,0,0,1234,1,1,0,0,0
614712174,48.956394,49.04972,55.534374,55.534374,0.0,1494.0221,1.0,1.0,0.0,12,0.0,0.0,0.0,0.0,0.0,0,0,0,0,1234,1,1,0,0,0
614916807,49.016956,49.041775,57.628124,57.628124,0.0,1497.2662,1.0,1.0,0.0,12,0.0,0.0,0.0,0.0,0.0,0,0,0,0,1234,1,1,0,0,0
615119481,49.158276,49.05872,54.971874,54.971874,0.0,1500.4551,1.0,1.0,0.0,12,0.0,0.0,0.0,0.0,0.0,0,0,0,0,1234,1,1,0,0,0
615323337,49.077522,49.065834,52.76875,52.76875,0.0,1503.4364,1.0,1.0,0.0,12,0.0,0.0,0.0,0.0,0.0,0,0,0,0,1234,1,1,0,0,0
615514948,48.916016,49.061974,54.784374,54.784374,0.0,1506.314,1.0,1.0,0.0,12,0.0,0.0,0.0,0.0,0.0,0,0,0,0,1234,1,1,0,0,0
615717911,48.916016,49.051437,56.51875,56.51875,0.0,1509.4537,1.0,1.0,0.0,12,0.0,0.0,0.0,0.0,0.0,0,0,0,0,1234,1,1,0,0,0
615921851,48.97658,49.0434,56.878124,56.878124,0.0,1512.6837,1.0,1.0,0.0,12,0.0,0.0,0.0,0.0,0.0,0,0,0,0,1234,1,1,0,0,0
616125071,48.97658,49.037704,56.3625,56.3625,0.0,1515.8717,1.0,1.0,0.0,12,0.0,0.0,0.0,0.0,0.0,0,0,0,0,1234,1,1,0,0,0
616328927,48.916016,49.030224,57.534374,57.534374,0.0,1519.1313,1.0,1.0,0.0,12,0.0,0.0,0.0,0.0,0.0,0,0,0,0,1234,1,1,0,0,0
616532249,49.016956,49.020073,61.4875,61.4875,0.0,1522.4852,1.0,1.0,0.0,12,0.0,0.0,0.0,0.0,0.0,0,0,0,0,1234,1,1,0,0,0
616735473,48.956394,49.017826,58.596874,58.596874,0.0,1525.8674,1.0,1.0,0.0,12,0.0,0.0,0.0,0.0,0.0,0,0,0,0,1234,1,1,0,0,0
616939540,48.87564,49.0081,61.76875,61.76875,0.0,1529.2266,1.0,1.0,0.0,12,0.0,0.0,0.0,0.0,0.0,0,0,0,0,1234,1,1,0,0,0
617142629,49.117897,48.99674,61.878124,61.878124,0.0,1532.6755,1.0,1.0,0.0,12,0.0,0.0,0.0,0.0,0.0,0,0,0,0,1234,1,1,0,0,0
617346737,48.936203,48.991795,60.05,60.05,0.0,1536.092,1.0,1.0,0.0,12,0.0,0.0,0.0,0.0,0.0,0,0,0,0,1234,1,1,0,0,0
617549721,48.99677,48.98214,60.503124,60.503124,0.0,1539.535,1.0,1.0,0.0,12,0.0,0.0,0.0,0.0,0.0,0,0,0,0,1234,1,1,0,0,0
617752905,48.835262,48.970592,61.58125,61.58125,0.0,1542.9625,1.0,1.0,0.0,12,0.0,0.0,0.0,0.0,0.0,0,0,0,0,1234,1,1,0,0,0
617957374,48.916016,48.956295,65.55,65.55,0.0,1546.6403,1.0,1.0,0.0,12,0.0,0.0,0.0,0.0,0.0,0,0,0,0,1234,1,1,0,0,0
618160315,48.99677,48.93745,67.44063,67.44063,0.0,1550.3368,1.0,1.0,0.0,12,0.0,0.0,0.0,0.0,0.0,0,0,0,0,1234,1,1,0,0,0
618352103,48.714134,48.922886,66.97188,66.97188,0.0,1553.9219,1.0,1.0,0.0,12,0.0,0.0,0.0,0.0,0.0,0,0,0,0,1234,1,1,0,0,0
618555457,48.89583,48.910294,66.37813,66.37813,0.0,1557.7253,1.0,1.0,0.0,12,0.0,0.0,0.0,0.0,0.0,0,0,0,0,1234,1,1,0,0,0
618758972,48.89583,48.899895,68.81563,68.81563,0.0,1561.588,1.0,1.0,0.0,12,0.0,0.0,0.0,0.0,0.0,0,0,0,0,1234,1,1,0,0,0
618962674,48.87564,48.89053,67.53438,67.53438,0.0,1565.437,1.0,1.0,0.0,12,0.0,0.0,0.0,0.0,0.0,0,0,0,0,1234,1,1,0,0,0
619165841,48.87564,48.89362,65.95625,65.95625,0.0,1569.1732,1.0,1.0,0.0,12,0.0,0.0,0.0,0.0,0.0,0,0,0,0,1234,1,1,0,0,0
619369724,48.89583,48.897896,62.58125,62.58125,0.0,1572.8278,1.0,1.0,0.0,12,0.0,0.0,0.0,0.0,0.0,0,0,0,0,1234,1,1,0,0,0
619573077,49.037144,48.913754,58.51875,58.51875,0.0,1576.327,1.0,1.0,0.0,12,0.0,0.0,0.0,0.0,0.0,0,0,0,0,1234,1,1,0,0,0
619777064,48.956394,48.924423,58.45625,58.45625,0.0,1579.6646,1.0,1.0,0.0,12,0.0,0.0,0.0,0.0,0.0,0,0,0,0,1234,1,1,0,0,0
619980326,49.037144,48.935425,55.284374,55.284374,0.0,1582.9235,1.0,1.0,0.0,12,0.0,0.0,0.0,0.0,0.0,0,0,0,0,1234,1,1,0,0,0
620183453,48.936203,48.948193,55.2375,55.2375,0.0,1586.076,1.0,1.0,0.0,12,0.0,0.0,0.0,0.0,0.0,0,0,0,0,1234,1,1,0,0,0
620387514,49.016956,48.96108,53.565624,53.565624,0.0,1589.1646,1.0,1.0,0.0,12,0.0,0.0,0.0,0.0,0.0,0,0,0,0,1234,1,1,0,0,0
620590659,49.037144,48.969067,51.20625,51.20625,0.0,1592.1332,1.0,1.0,0.0,12,0.0,0.0,0.0,0.0,0.0,0,0,0,0,1234,1,1,0,0,0
