timestamp,magnetometer_ga[0],magnetometer_ga[1],magnetometer_ga[2]
519048224,0.20367604,-0.10021137,0.37541804
519059751,0.20618352,-0.102035284,0.37555736
519072242,0.20578471,-0.09795099,0.3753926
519083836,0.20116855,-0.098387435,0.37527865
519096222,0.20869102,-0.10385919,0.37569675
519109277,0.20116855,-0.098387435,0.37527865
519123973,0.19905983,-0.10064787,0.37530407
519136223,0.20187956,-0.102687284,0.37828302
519151238,0.20618352,-0.102035284,0.37555736
519163046,0.20367604,-0.10021137,0.37541804
519175264,0.20578471,-0.09795099,0.3753926
519186811,0.20156734,-0.10247178,0.37544343
519199222,0.20618352,-0.102035284,0.37555736
519211228,0.20609696,-0.0981665,0.37823215
519222232,0.20869102,-0.10385919,0.37569675
519234489,0.20438705,-0.10451122,0.37842238
519247226,0.20398827,-0.100426905,0.37825757
519259229,0.20649576,-0.102250814,0.37839696
519271257,0.20627011,-0.105904065,0.3728826
519282751,0.20618352,-0.102035284,0.37555736
519295226,0.20367604,-0.10021137,0.37541804
519306510,0.19905983,-0.10064787,0.37530407
519319222,0.21361944,-0.103638254,0.37865025
519330646,0.20407484,-0.10429571,0.37558278
519343232,0.20869102,-0.10385919,0.37569675
519355222,0.21111192,-0.101814345,0.3785109
519366227,0.20358944,-0.096342586,0.37809277
519378720,0.20658232,-0.106119595,0.37572217
519391263,0.20438705,-0.10451122,0.37842238
519402949,0.20658232,-0.106119595,0.37572217
519415222,0.20367604,-0.10021137,0.37541804
519426501,0.20156734,-0.10247178,0.37544343
519439222,0.20367604,-0.10021137,0.37541804
519450540,0.21151075,-0.105898626,0.37867567
519463228,0.20367604,-0.10021137,0.37541804
519474267,0.20649576,-0.102250814,0.37839696
519485314,0.20860445,-0.099990435,0.3783715
519497866,0.21401824,-0.107722536,0.37881503
519510233,0.21111192,-0.101814345,0.3785109
519522232,0.20869102,-0.10385919,0.37569675
519533303,0.20869102,-0.10385919,0.37569675
519545731,0.20398827,-0.100426905,0.37825757
519557387,0.20116855,-0.098387435,0.37527865
519570226,0.21111192,-0.101814345,0.3785109
519582229,0.20327723,-0.09612708,0.3752532
519593710,0.20869102,-0.10385919,0.37569675
519606225,0.20367604,-0.10021137,0.37541804
519618150,0.20658232,-0.106119595,0.37572217
519630232,0.20900325,-0.104074724,0.3785363
519642291,0.20148078,-0.098602995,0.37811822
519653300,0.20649576,-0.102250814,0.37839696
519666227,0.20116855,-0.098387435,0.37527865
519677380,0.20367604,-0.10021137,0.37541804
519690222,0.20618352,-0.102035284,0.37555736
519701865,0.21330719,-0.10342272,0.37581065
519714222,0.20327723,-0.09612708,0.3752532
519726240,0.20829223,-0.0997749,0.37553194
519737865,0.21361944,-0.103638254,0.37865025
519750227,0.20618352,-0.102035284,0.37555736
519761914,0.21111192,-0.101814345,0.3785109
519774222,0.20860445,-0.099990435,0.3783715
519785884,0.20658232,-0.106119595,0.37572217
519798222,0.20116855,-0.098387435,0.37527865
519810223,0.20869102,-0.10385919,0.37569675
519821716,0.20187956,-0.102687284,0.37828302
519834228,0.2083788,-0.103643656,0.37285715
519845350,0.20618352,-0.102035284,0.37555736
519857295,0.20649576,-0.102250814,0.37839696
519870251,0.20900325,-0.104074724,0.3785363
519884639,0.20908982,-0.10794353,0.37586153
519897552,0.20829223,-0.0997749,0.37553194
519910234,0.20116855,-0.098387435,0.37527865
519924577,0.21581471,-0.10524663,0.37595
519937298,0.19937208,-0.1008634,0.37814367
519948618,0.20869102,-0.10385919,0.37569675
519961671,0.20658232,-0.106119595,0.37572217
519974225,0.19905983,-0.10064787,0.37530407
519987222,0.21119852,-0.1056831,0.3758361
520001669,0.20900325,-0.104074724,0.3785363
520014228,0.20829223,-0.0997749,0.37553194
520028415,0.20649576,-0.102250814,0.37839696
520042154,0.20829223,-0.0997749,0.37553194
520054263,0.20578471,-0.09795099,0.3753926
520068553,0.20869102,-0.10385919,0.37569675
520081656,0.20116855,-0.098387435,0.37527865
520094232,0.20618352,-0.102035284,0.37555736
520108561,0.21079972,-0.101598814,0.3756713
520122424,0.20869102,-0.10385919,0.37569675
520135228,0.20869102,-0.10385919,0.37569675
520148544,0.20156734,-0.10247178,0.37544343
520161685,0.20618352,-0.102035284,0.37555736
520174243,0.20407484,-0.10429571,0.37558278
520188596,0.20869102,-0.10385919,0.37569675
520202309,0.21401824,-0.107722536,0.37881503
520215229,0.20869102,-0.10385919,0.37569675
520228242,0.20829223,-0.0997749,0.37553194
520240526,0.21612695,-0.105462156,0.3787896
520253311,0.21119852,-0.1056831,0.3758361
520265336,0.19866104,-0.09656355,0.3751393
520278222,0.20578471,-0.09795099,0.3753926
520292267,0.20358944,-0.096342586,0.37809277
520304844,0.20658232,-0.106119595,0.37572217
520317227,0.20900325,-0.104074724,0.3785363
520331772,0.20649576,-0.102250814,0.37839696
520344518,0.20869102,-0.10385919,0.37569675
520357299,0.21119852,-0.1056831,0.3758361
520373305,0.21119852,-0.1056831,0.3758361
520386228,0.20438705,-0.10451122,0.37842238
520400507,0.2133938,-0.10729148,0.3731359
520413339,0.20869102,-0.10385919,0.37569675
520427788,0.19905983,-0.10064787,0.37530407
520440600,0.20829223,-0.0997749,0.37553194
520453301,0.20618352,-0.102035284,0.37555736
520466222,0.20367604,-0.10021137,0.37541804
520480318,0.20658232,-0.106119595,0.37572217
520492275,0.20860445,-0.099990435,0.3783715
520504353,0.20618352,-0.102035284,0.37555736
520517365,0.20148078,-0.098602995,0.37811822
520531631,0.20869102,-0.10385919,0.37569675
520544695,0.20618352,-0.102035284,0.37555736
520557295,0.2129084,-0.099338405,0.37564588
520571784,0.20367604,-0.10021137,0.37541804
520584791,0.21119852,-0.1056831,0.3758361
520597225,0.19826223,-0.09247926,0.37497446
520611734,0.20689455,-0.106335126,0.37856174
520624603,0.2083788,-0.103643656,0.37285715
520637297,0.21190955,-0.109982945,0.37884048
520651223,0.20869102,-0.10385919,0.37569675
520664902,0.20618352,-0.102035284,0.37555736
520679456,0.20407484,-0.10429571,0.37558278
520693223,0.21581471,-0.10524663,0.37595
520707234,0.20438705,-0.10451122,0.37842238
520719570,0.21119852,-0.1056831,0.3758361
520732223,0.21079972,-0.101598814,0.3756713
520746746,0.20116855,-0.098387435,0.37527865
520759295,0.20578471,-0.09795099,0.3753926
520771288,0.20829223,-0.0997749,0.37553194
520783520,0.20618352,-0.102035284,0.37555736
520796256,0.21119852,-0.1056831,0.3758361
520809274,0.20618352,-0.102035284,0.37555736
520823735,0.20085633,-0.098171905,0.37243906
520836259,0.20900325,-0.104074724,0.3785363
520850787,0.20367604,-0.10021137,0.37541804
520864890,0.21151075,-0.105898626,0.37867567
520879545,0.20869102,-0.10385919,0.37569675
520892232,0.20869102,-0.10385919,0.37569675
520904265,0.20367604,-0.10021137,0.37541804
520915268,0.21079972,-0.101598814,0.3756713
520927733,0.20407484,-0.10429571,0.37558278
520940304,0.20900325,-0.104074724,0.3785363
520955002,0.21322066,-0.09955394,0.37848544
520968604,0.20860445,-0.099990435,0.3783715
520981700,0.20658232,-0.106119595,0.37572217
520995222,0.20869102,-0.10385919,0.37569675
521007227,0.20398827,-0.100426905,0.37825757
521018270,0.20578471,-0.09795099,0.3753926
521030746,0.20869102,-0.10385919,0.37569675
521043222,0.20367604,-0.10021137,0.37541804
521054784,0.21119852,-0.1056831,0.3758361
521067223,0.20618352,-0.102035284,0.37555736
521078761,0.20398827,-0.100426905,0.37825757
521091222,0.20398827,-0.100426905,0.37825757
521103529,0.20618352,-0.102035284,0.37555736
521116225,0.20618352,-0.102035284,0.37555736
521129620,0.19404486,-0.09700004,0.37502536
521143217,0.20578471,-0.09795099,0.3753926
521155226,0.20398827,-0.100426905,0.37825757
521167261,0.20618352,-0.102035284,0.37555736
521178225,0.20587131,-0.101819746,0.3727178
521190474,0.20829223,-0.0997749,0.37553194
521203269,0.20618352,-0.102035284,0.37555736
521214705,0.20407484,-0.10429571,0.37558278
521227225,0.20148078,-0.098602995,0.37811822
521238477,0.20327723,-0.09612708,0.3752532
521251222,0.20900325,-0.104074724,0.3785363
521263981,0.20398827,-0.100426905,0.37825757
521277601,0.20116855,-0.098387435,0.37527865
521290263,0.20358944,-0.096342586,0.37809277
521303463,0.20367604,-0.10021137,0.37541804
521316230,0.20538594,-0.093866676,0.37522778
521330338,0.21079972,-0.101598814,0.3756713
521342230,0.20538594,-0.093866676,0.37522778
521354225,0.20578471,-0.09795099,0.3753926
521365499,0.20829223,-0.0997749,0.37553194
521378329,0.20618352,-0.102035284,0.37555736
521390222,0.2176112,-0.10277067,0.37308502
521403056,0.20367604,-0.10021137,0.37541804
521416275,0.21330719,-0.10342272,0.37581065
521429336,0.21330719,-0.10342272,0.37581065
521440224,0.20869102,-0.10385919,0.37569675
521454222,0.21361944,-0.103638254,0.37865025
521465860,0.2129084,-0.099338405,0.37564588
521478223,0.21079972,-0.101598814,0.3756713
521489731,0.21572813,-0.10137785,0.3786248
521502263,0.21330719,-0.10342272,0.37581065
521514225,0.20618352,-0.102035284,0.37555736
521525321,0.20618352,-0.102035284,0.37555736
521537857,0.21151075,-0.105898626,0.37867567
521550222,0.21370602,-0.10750701,0.37597546
521562919,0.20820566,-0.09590609,0.3782067
521576267,0.20860445,-0.099990435,0.3783715
521589339,0.21079972,-0.101598814,0.3756713
521602207,0.20829223,-0.0997749,0.37553194
521613407,0.20900325,-0.104074724,0.3785363
521624303,0.20869102,-0.10385919,0.37569675
521638223,0.20116855,-0.098387435,0.37527865
521650314,0.20829223,-0.0997749,0.37553194
521662222,0.20156734,-0.10247178,0.37544343
521674315,0.20367604,-0.10021137,0.37541804
521687239,0.20578471,-0.09795099,0.3753926
521700512,0.20578471,-0.09795099,0.3753926
521713307,0.21079972,-0.101598814,0.3756713
521725600,0.21079972,-0.101598814,0.3756713
521738267,0.20900325,-0.104074724,0.3785363
521752397,0.20869102,-0.10385919,0.37569675
521765297,0.20829223,-0.0997749,0.37553194
521776418,0.20618352,-0.102035284,0.37555736
521789339,0.20758122,-0.09547503,0.37252757
521801303,0.20578471,-0.09795099,0.3753926
521816606,0.21079972,-0.101598814,0.3756713
521829228,0.20829223,-0.0997749,0.37553194
521841340,0.20358944,-0.096342586,0.37809277
521854222,0.191763,-0.09152291,0.38040033
521867242,0.21040091,-0.097514495,0.37550652
521881302,0.21079972,-0.101598814,0.3756713
521894234,0.21370602,-0.10750701,0.37597546
521907272,0.20618352,-0.102035284,0.37555736
521920386,0.21330719,-0.10342272,0.37581065
521932865,0.21119852,-0.1056831,0.3758361
521945339,0.21079972,-0.101598814,0.3756713
521957117,0.20367604,-0.10021137,0.37541804
521969303,0.20085633,-0.098171905,0.37243906
521980862,0.20658232,-0.106119595,0.37572217
521993300,0.20797998,-0.099559344,0.37269235
522005311,0.20358944,-0.096342586,0.37809277
522018225,0.20327723,-0.09612708,0.3752532
522031222,0.20398827,-0.100426905,0.37825757
522044774,0.21151075,-0.105898626,0.37867567
522057296,0.20789343,-0.095690586,0.37536713
522070307,0.21040091,-0.097514495,0.37550652
522084381,0.20367604,-0.10021137,0.37541804
522096235,0.20860445,-0.099990435,0.3783715
522108339,0.20358944,-0.096342586,0.37809277
522120262,0.20900325,-0.104074724,0.3785363
522133343,0.2129084,-0.099338405,0.37564588
522146222,0.20367604,-0.10021137,0.37541804
522160228,0.20900325,-0.104074724,0.3785363
522172120,0.20578471,-0.09795099,0.3753926
522184241,0.21079972,-0.101598814,0.3756713
522196433,0.20367604,-0.10021137,0.37541804
522209299,0.20797998,-0.099559344,0.37269235
522224401,0.20829223,-0.0997749,0.37553194
522236251,0.20829223,-0.0997749,0.37553194
522248225,0.20900325,-0.104074724,0.3785363
522260247,0.20649576,-0.102250814,0.37839696
522271768,0.20900325,-0.104074724,0.3785363
522285038,0.2083788,-0.103643656,0.37285715
522297339,0.21079972,-0.101598814,0.3756713
522311728,0.20609696,-0.0981665,0.37823215
522325171,0.20829223,-0.0997749,0.37553194
522338258,0.20358944,-0.096342586,0.37809277
522351614,0.2129084,-0.099338405,0.37564588
522365017,0.20829223,-0.0997749,0.37553194
522378234,0.21040091,-0.097514495,0.37550652
522392243,0.21370602,-0.10750701,0.37597546
522405216,0.21119852,-0.1056831,0.3758361
522418245,0.2129084,-0.099338405,0.37564588
522432294,0.21370602,-0.10750701,0.37597546
522445200,0.20367604,-0.10021137,0.37541804
522458229,0.20869102,-0.10385919,0.37569675
522471222,0.21151075,-0.105898626,0.37867567
522484398,0.20327723,-0.09612708,0.3752532
522497282,0.20860445,-0.099990435,0.3783715
522511273,0.20869102,-0.10385919,0.37569675
522524593,0.20618352,-0.102035284,0.37555736
522537223,0.20618352,-0.102035284,0.37555736
522551280,0.21119852,-0.1056831,0.3758361
522565449,0.20578471,-0.09795099,0.3753926
522579296,0.21079972,-0.101598814,0.3756713
522591306,0.20358944,-0.096342586,0.37809277
522604573,0.21151075,-0.105898626,0.37867567
522617310,0.20618352,-0.102035284,0.37555736
522631239,0.20860445,-0.099990435,0.3783715
522644556,0.20609696,-0.0981665,0.37823215
522657302,0.21079972,-0.101598814,0.3756713
522671222,0.20618352,-0.102035284,0.37555736
522684219,0.20438705,-0.10451122,0.37842238
522696320,0.20860445,-0.099990435,0.3783715
522710772,0.21361944,-0.103638254,0.37865025
522724731,0.21111192,-0.101814345,0.3785109
522739565,0.21111192,-0.101814345,0.3785109
522752223,0.20367604,-0.10021137,0.37541804
522765656,0.21111192,-0.101814345,0.3785109
522778739,0.20658232,-0.106119595,0.37572217
522791222,0.20609696,-0.0981665,0.37823215
522803298,0.21111192,-0.101814345,0.3785109
522815223,0.20578471,-0.09795099,0.3753926
522827250,0.21079972,-0.101598814,0.3756713
522838226,0.20900325,-0.104074724,0.3785363
522851019,0.20578471,-0.09795099,0.3753926
522862311,0.21040091,-0.097514495,0.37550652
522874767,0.21330719,-0.10342272,0.37581065
522887222,0.21299501,-0.103207186,0.37297106
522898531,0.20148078,-0.098602995,0.37811822
522911236,0.21119852,-0.1056831,0.3758361
522922715,0.21581471,-0.10524663,0.37595
522935225,0.20860445,-0.099990435,0.3783715
522947243,0.20618352,-0.102035284,0.37555736
522958240,0.21410482,-0.111591324,0.37614027
522971532,0.21079972,-0.101598814,0.3756713
522984705,0.20900325,-0.104074724,0.3785363
522999222,0.21361944,-0.103638254,0.37865025
523011269,0.20618352,-0.102035284,0.37555736
523022258,0.20358944,-0.096342586,0.37809277
523035068,0.21581471,-0.10524663,0.37595
523047229,0.2125962,-0.09912285,0.37280628
523059918,0.20829223,-0.0997749,0.37553194
523074620,0.20900325,-0.104074724,0.3785363
523087269,0.20578471,-0.09795099,0.3753926
523099225,0.20900325,-0.104074724,0.3785363
523111229,0.20587131,-0.101819746,0.3727178
523123124,0.20829223,-0.0997749,0.37553194
523135222,0.20578471,-0.09795099,0.3753926
523146373,0.20829223,-0.0997749,0.37553194
523158225,0.20900325,-0.104074724,0.3785363
523171105,0.20618352,-0.102035284,0.37555736
523184299,0.20367604,-0.10021137,0.37541804
523198227,0.21330719,-0.10342272,0.37581065
523209851,0.2104875,-0.101383254,0.3728317
523222230,0.20609696,-0.0981665,0.37823215
523234225,0.21151075,-0.105898626,0.37867567
523245685,0.20327723,-0.09612708,0.3752532
523258225,0.21079972,-0.101598814,0.3756713
523270271,0.20116855,-0.098387435,0.37527865
523281900,0.21370602,-0.10750701,0.37597546
523294237,0.20829223,-0.0997749,0.37553194
523306678,0.20398827,-0.100426905,0.37825757
523319222,0.20327723,-0.09612708,0.3752532
523332317,0.20116855,-0.098387435,0.37527865
523344317,0.20116855,-0.098387435,0.37527865
523358222,0.21361944,-0.103638254,0.37865025
523370999,0.19826223,-0.09247926,0.37497446
523384298,0.21401824,-0.107722536,0.37881503
523398232,0.20367604,-0.10021137,0.37541804
523409728,0.20327723,-0.09612708,0.3752532
523422223,0.20578471,-0.09795099,0.3753926
523433737,0.20367604,-0.10021137,0.37541804
523446225,0.20578471,-0.09795099,0.3753926
523458222,0.20618352,-0.102035284,0.37555736
523469331,0.21079972,-0.101598814,0.3756713
523481964,0.20829223,-0.0997749,0.37553194
523494222,0.20116855,-0.098387435,0.37527865
523506230,0.21401824,-0.107722536,0.37881503
523518265,0.20367604,-0.10021137,0.37541804
523532533,0.20578471,-0.09795099,0.3753926
523545659,0.20829223,-0.0997749,0.37553194
523558226,0.21079972,-0.101598814,0.3756713
523572538,0.21079972,-0.101598814,0.3756713
523585972,0.20829223,-0.0997749,0.37553194
523599227,0.21079972,-0.101598814,0.3756713
523612588,0.20327723,-0.09612708,0.3752532
523625969,0.21370602,-0.10750701,0.37597546
523639239,0.21330719,-0.10342272,0.37581065
523651224,0.20578471,-0.09795099,0.3753926
523666731,0.20900325,-0.104074724,0.3785363
523679228,0.20578471,-0.09795099,0.3753926
523693352,0.20116855,-0.098387435,0.37527865
523706261,0.20869102,-0.10385919,0.37569675
523719226,0.20148078,-0.098602995,0.37811822
523732657,0.20358944,-0.096342586,0.37809277
523745844,0.21079972,-0.101598814,0.3756713
523758222,0.21581471,-0.10524663,0.37595
523771300,0.20869102,-0.10385919,0.37569675
523786423,0.20578471,-0.09795099,0.3753926
523799236,0.21151075,-0.105898626,0.37867567
523812548,0.20618352,-0.102035284,0.37555736
523825738,0.21401824,-0.107722536,0.37881503
523839228,0.20156734,-0.10247178,0.37544343
523852561,0.20829223,-0.0997749,0.37553194
523866737,0.21111192,-0.101814345,0.3785109
523880107,0.21079972,-0.101598814,0.3756713
523892269,0.19897328,-0.096779086,0.37797883
523904538,0.20869102,-0.10385919,0.37569675
523917347,0.21079972,-0.101598814,0.3756713
523931597,0.21370602,-0.10750701,0.37597546
523944769,0.20869102,-0.10385919,0.37569675
523961159,0.20336382,-0.099995814,0.3725784
523974227,0.20547251,-0.097735435,0.372553
523988257,0.20116855,-0.098387435,0.37527865
524000395,0.20869102,-0.10385919,0.37569675
524012288,0.21330719,-0.10342272,0.37581065
524025180,0.20367604,-0.10021137,0.37541804
524038224,0.21079972,-0.101598814,0.3756713
524052232,0.21322066,-0.09955394,0.37848544
524064829,0.20649576,-0.102250814,0.37839696
524078225,0.20860445,-0.099990435,0.3783715
524092244,0.21872102,-0.11115483,0.3762542
524104833,0.21119852,-0.1056831,0.3758361
524117306,0.20649576,-0.102250814,0.37839696
524130272,0.21119852,-0.1056831,0.3758361
524144850,0.20156734,-0.10247178,0.37544343
524157295,0.21079972,-0.101598814,0.3756713
524171735,0.21119852,-0.1056831,0.3758361
524184785,0.20869102,-0.10385919,0.37569675
524197306,0.19897328,-0.096779086,0.37797883
524211789,0.20618352,-0.102035284,0.37555736
524224924,0.20869102,-0.10385919,0.37569675
524237323,0.20869102,-0.10385919,0.37569675
524251231,0.20327723,-0.09612708,0.3752532
524264750,0.20358944,-0.096342586,0.37809277
524279421,0.21119852,-0.1056831,0.3758361
524292222,0.20116855,-0.098387435,0.37527865
524307206,0.20829223,-0.0997749,0.37553194
524319758,0.20900325,-0.104074724,0.3785363
524332240,0.20618352,-0.102035284,0.37555736
524343848,0.21111192,-0.101814345,0.3785109
524356271,0.20609696,-0.0981665,0.37823215
524369277,0.20829223,-0.0997749,0.37553194
524383322,0.21330719,-0.10342272,0.37581065
524396263,0.21111192,-0.101814345,0.3785109
524408057,0.2129084,-0.099338405,0.37564588
524420234,0.21079972,-0.101598814,0.3756713
524434913,0.21151075,-0.105898626,0.37867567
524447874,0.20618352,-0.102035284,0.37555736
524460222,0.21079972,-0.101598814,0.3756713
524474994,0.20116855,-0.098387435,0.37527865
524487761,0.21079972,-0.101598814,0.3756713
524500248,0.20860445,-0.099990435,0.3783715
524511365,0.20398827,-0.100426905,0.37825757
524524359,0.20829223,-0.0997749,0.37553194
524538786,0.21111192,-0.101814345,0.3785109
524551816,0.21119852,-0.1056831,0.3758361
524564334,0.20618352,-0.102035284,0.37555736
524579251,0.20869102,-0.10385919,0.37569675
524591239,0.21621352,-0.109330945,0.37611485
524604311,0.21079972,-0.101598814,0.3756713
524618222,0.20367604,-0.10021137,0.37541804
524631088,0.21079972,-0.101598814,0.3756713
524643227,0.20076974,-0.09430317,0.37511384
524654327,0.21541592,-0.101162314,0.37578523
524666928,0.20578471,-0.09795099,0.3753926
524679225,0.21581471,-0.10524663,0.37595
524691222,0.21119852,-0.1056831,0.3758361
524703026,0.20869102,-0.10385919,0.37569675
524715226,0.20367604,-0.10021137,0.37541804
524727478,0.20108196,-0.0945187,0.3779534
524740225,0.20367604,-0.10021137,0.37541804
524753965,0.21581471,-0.10524663,0.37595
524765696,0.20618352,-0.102035284,0.37555736
524780245,0.2125962,-0.09912285,0.37280628
524793562,0.20327723,-0.09612708,0.3752532
524807351,0.20829223,-0.0997749,0.37553194
524820238,0.20618352,-0.102035284,0.37555736
524833573,0.20829223,-0.0997749,0.37553194
524847468,0.20829223,-0.0997749,0.37553194
524860256,0.21581471,-0.10524663,0.37595
524874229,0.21079972,-0.101598814,0.3756713
524887851,0.21079972,-0.101598814,0.3756713
524901603,0.21330719,-0.10342272,0.37581065
524913615,0.21581471,-0.10524663,0.37595
524927290,0.21079972,-0.101598814,0.3756713
524940251,0.20829223,-0.0997749,0.37553194
524954277,0.20860445,-0.099990435,0.3783715
524967228,0.20618352,-0.102035284,0.37555736
524982223,0.20578471,-0.09795099,0.3753926
524994266,0.21071315,-0.09773003,0.37834606
525006489,0.21111192,-0.101814345,0.3785109
525019229,0.21151075,-0.105898626,0.37867567
525032223,0.20829223,-0.0997749,0.37553194
525045520,0.20869102,-0.10385919,0.37569675
525058297,0.21361944,-0.103638254,0.37865025
525069375,0.20649576,-0.102250814,0.37839696
525082227,0.21330719,-0.10342272,0.37581065
525093336,0.21040091,-0.097514495,0.37550652
525105980,0.20869102,-0.10385919,0.37569675
525118222,0.20829223,-0.0997749,0.37553194
525130423,0.21361944,-0.103638254,0.37865025
525142239,0.21079972,-0.101598814,0.3756713
525154219,0.21581471,-0.10524663,0.37595
525166296,0.21079972,-0.101598814,0.3756713
525178275,0.20908982,-0.10794353,0.37586153
525190223,0.2083788,-0.103643656,0.37285715
525202321,0.20618352,-0.102035284,0.37555736
525213325,0.20578471,-0.09795099,0.3753926
525227479,0.20860445,-0.099990435,0.3783715
525240228,0.2083788,-0.103643656,0.37285715
525253349,0.20829223,-0.0997749,0.37553194
525268014,0.21119852,-0.1056831,0.3758361
525280229,0.20869102,-0.10385919,0.37569675
525293310,0.20076974,-0.09430317,0.37511384
525305988,0.20618352,-0.102035284,0.37555736
525318232,0.20829223,-0.0997749,0.37553194
525330277,0.20116855,-0.098387435,0.37527865
525342237,0.2129084,-0.099338405,0.37564588
525354224,0.21581471,-0.10524663,0.37595
525365305,0.20367604,-0.10021137,0.37541804
525378225,0.20618352,-0.102035284,0.37555736
525391273,0.20438705,-0.10451122,0.37842238
525404381,0.21119852,-0.1056831,0.3758361
525417340,0.21621352,-0.109330945,0.37611485
525429300,0.20538594,-0.093866676,0.37522778
525441300,0.20829223,-0.0997749,0.37553194
525453362,0.20869102,-0.10385919,0.37569675
525467493,0.21322066,-0.09955394,0.37848544
525481069,0.21079972,-0.101598814,0.3756713
525493306,0.21119852,-0.1056831,0.3758361
525505475,0.20609696,-0.0981665,0.37823215
525518241,0.20618352,-0.102035284,0.37555736
525532530,0.20116855,-0.098387435,0.37527865
525545372,0.20367604,-0.10021137,0.37541804
525558272,0.21079972,-0.101598814,0.3756713
525572415,0.20618352,-0.102035284,0.37555736
525585340,0.2129084,-0.099338405,0.37564588
525597295,0.21079972,-0.101598814,0.3756713
525609339,0.20327723,-0.09612708,0.3752532
525620518,0.20618352,-0.102035284,0.37555736
525633222,0.21541592,-0.101162314,0.37578523
525645392,0.20578471,-0.09795099,0.3753926
525658229,0.20609696,-0.0981665,0.37823215
525671237,0.21111192,-0.101814345,0.3785109
525683265,0.19598037,-0.0870021,0.38034946
525697429,0.20900325,-0.104074724,0.3785363
525710222,0.20618352,-0.102035284,0.37555736
525724385,0.21119852,-0.1056831,0.3758361
525737298,0.20829223,-0.0997749,0.37553194
525750222,0.20578471,-0.09795099,0.3753926
525763708,0.20327723,-0.09612708,0.3752532
525776346,0.20789343,-0.095690586,0.37536713
525788320,0.21541592,-0.101162314,0.37578523
525800323,0.21470492,-0.09686247,0.37278083
525812261,0.21361944,-0.103638254,0.37865025
525824095,0.21501711,-0.097078,0.37562042
525836272,0.21031436,-0.09364569,0.37818125
525848795,0.21501711,-0.097078,0.37562042
525861328,0.21572813,-0.10137785,0.3786248
525876276,0.21071315,-0.09773003,0.37834606
525888874,0.2172124,-0.09868636,0.37292022
525901336,0.21470492,-0.09686247,0.37278083
525915820,0.2100887,-0.097298965,0.37266693
525928800,0.2129084,-0.099338405,0.37564588
525941328,0.21532933,-0.09729353,0.37846
525955742,0.21040091,-0.097514495,0.37550652
525970098,0.21079972,-0.101598814,0.3756713
525984390,0.20829223,-0.0997749,0.37553194
525997295,0.21079972,-0.101598814,0.3756713
526010222,0.2197199,-0.10051027,0.37305954
526024092,0.21572813,-0.10137785,0.3786248
526036264,0.20789343,-0.095690586,0.37536713
526049119,0.2125962,-0.09912285,0.37280628
526062796,0.2168136,-0.09460206,0.3727554
526076619,0.2129084,-0.099338405,0.37564588
526089300,0.2121974,-0.095038556,0.37264147
526103224,0.2125962,-0.09912285,0.37280628
526115591,0.21932109,-0.096426,0.3728948
526127826,0.21963331,-0.09664153,0.37573433
526140298,0.22003213,-0.10072582,0.37589917
526153277,0.21743804,-0.09503313,0.37843454
526168246,0.22003213,-0.10072582,0.37589917
526181289,0.21541592,-0.101162314,0.37578523
526196293,0.21963331,-0.09664153,0.37573433
526209277,0.21932109,-0.096426,0.3728948
526223246,0.2218286,-0.09824989,0.37303415
526235706,0.22111757,-0.09395005,0.37002978
526247785,0.2239373,-0.09598948,0.3730087
526260291,0.21852349,-0.08825738,0.37256515
526272237,0.2221408,-0.09846544,0.3758737
526287286,0.2221408,-0.09846544,0.3758737
526300291,0.22353847,-0.09190519,0.3728439
526312229,0.2221408,-0.09846544,0.3758737
526327225,0.21712579,-0.09481762,0.37559497
526339695,0.21852349,-0.08825738,0.37256515
526352253,0.2221408,-0.09846544,0.3758737
526367177,0.22424951,-0.09620504,0.37584826
526379759,0.22103098,-0.09008129,0.37270454
526392244,0.22103098,-0.09008129,0.37270454
526407108,0.22142978,-0.09416557,0.3728693
526419234,0.21892229,-0.09234166,0.37272996
526431223,0.22282743,-0.08760535,0.36983952
526443288,0.22282743,-0.08760535,0.36983952
526455222,0.22564717,-0.08964479,0.37281844
526468738,0.21781248,-0.08395753,0.36956078
526481614,0.22815467,-0.0914687,0.3729578
526494239,0.2239373,-0.09598948,0.3730087
526507985,0.23316967,-0.095116496,0.37323654
526521614,0.22604598,-0.0937291,0.37298325
526534227,0.22604598,-0.0937291,0.37298325
526547103,0.22322625,-0.09168967,0.37000433
526559257,0.22524837,-0.0855605,0.37265363
526572003,0.22313969,-0.08782089,0.37267905
526585854,0.23074876,-0.0971614,0.3704224
526598230,0.22502273,-0.08921371,0.3671393
526611035,0.22071876,-0.08986575,0.36986494
526623228,0.22824125,-0.09533749,0.37028304
526635414,0.22753024,-0.09103764,0.36727867
526647267,0.22282743,-0.08760535,0.36983952
526659228,0.23074876,-0.0971614,0.3704224
526671222,0.22542153,-0.09329804,0.3673041
526682476,0.22792903,-0.09512193,0.36744344
526695222,0.22502273,-0.08921371,0.3671393
526708394,0.23043653,-0.096945845,0.3675828
526721609,0.23043653,-0.096945845,0.3675828
526734241,0.22573374,-0.09351358,0.37014368
526747040,0.23003775,-0.09286155,0.36741802
526759262,0.23254523,-0.094685435,0.36755738
526771997,0.23074876,-0.0971614,0.3704224
526785233,0.22362506,-0.09577398,0.37016913
526800235,0.22792903,-0.09512193,0.36744344
526813338,0.22331282,-0.095558405,0.36732954
526825666,0.23294403,-0.09876978,0.36772218
526838222,0.22080535,-0.09373451,0.36719015
526849974,0.22832786,-0.099206224,0.36760828
526862262,0.22151636,-0.09803438,0.37019455
526873648,0.22832786,-0.099206224,0.36760828
526886258,0.22573374,-0.09351358,0.37014368
526898267,0.21579035,-0.09008669,0.36691144
526910230,0.22402385,-0.09985827,0.3703339
526922222,0.22371164,-0.09964274,0.36749434
526933296,0.22621913,-0.101466626,0.36763373
526946108,0.22331282,-0.095558405,0.36732954
526958250,0.22864003,-0.09942177,0.37044784
526970280,0.23114754,-0.1012457,0.37058723
526982223,0.21940766,-0.10029474,0.37022
526993931,0.22693016,-0.10576651,0.3706381
527006222,0.22433609,-0.1000738,0.37317348
527018222,0.22120415,-0.09781881,0.367355
527030257,0.22653136,-0.10168218,0.37047327
527042291,0.22433609,-0.1000738,0.37317348
527053321,0.22151636,-0.09803438,0.37019455
527066225,0.22935107,-0.10372162,0.37345222
527078222,0.21940766,-0.10029474,0.37022
527090364,0.22262618,-0.10641849,0.37336373
527102235,0.22231399,-0.10620296,0.37052417
527114673,0.2176112,-0.10277067,0.37308502
527129109,0.21088631,-0.105467565,0.37299654
527142229,0.2155025,-0.105031095,0.37311044
527154892,0.20555909,-0.10160422,0.3698782
527169182,0.2163001,-0.11319968,0.37344006
527181319,0.21097288,-0.10933635,0.37032178
527193734,0.2112851,-0.109551884,0.37316135
527207280,0.21088631,-0.105467565,0.37299654
527221222,0.2163001,-0.11319968,0.37344006
527233874,0.20917642,-0.111812264,0.3731868
527247270,0.2087776,-0.10772795,0.373022
527261228,0.2159013,-0.10911537,0.37327525
527273974,0.21308158,-0.107075945,0.37029633
527287275,0.21669891,-0.11728402,0.37360486
527301332,0.21410482,-0.111591324,0.37614027
527313224,0.2113717,-0.11342064,0.37048656
527324528,0.2137926,-0.11137577,0.37330073
527337340,0.2112851,-0.109551884,0.37316135
527349426,0.2163001,-0.11319968,0.37344006
527362229,0.21308158,-0.107075945,0.37029633
527375241,0.21057408,-0.10525204,0.37015694
527389318,0.2112851,-0.109551884,0.37316135
527401368,0.2163001,-0.11319968,0.37344006
527413300,0.21348037,-0.11116026,0.3704611
527424869,0.2133938,-0.10729148,0.3731359
527437305,0.21348037,-0.11116026,0.3704611
527449960,0.20666891,-0.109988354,0.3730474
527463297,0.21370602,-0.10750701,0.37597546
527476567,0.20917642,-0.111812264,0.3731868
527490108,0.20917642,-0.111812264,0.3731868
527503231,0.2112851,-0.109551884,0.37316135
527516645,0.20666891,-0.109988354,0.3730474
527529883,0.2133938,-0.10729148,0.3731359
527542241,0.21410482,-0.111591324,0.37614027
527557347,0.20658232,-0.106119595,0.37572217
527569981,0.20917642,-0.111812264,0.3731868
527583229,0.20627011,-0.105904065,0.3728826
527597228,0.2137926,-0.11137577,0.37330073
527610222,0.20908982,-0.10794353,0.37586153
527624266,0.21088631,-0.105467565,0.37299654
527636615,0.20948865,-0.112027824,0.37602636
527649314,0.20689455,-0.106335126,0.37856174
527662311,0.20908982,-0.10794353,0.37586153
527677151,0.21088631,-0.105467565,0.37299654
527690222,0.21840881,-0.1109393,0.37341464
527704284,0.20658232,-0.106119595,0.37572217
527717436,0.20658232,-0.106119595,0.37572217
527730257,0.21370602,-0.10750701,0.37597546
527744254,0.21581471,-0.10524663,0.37595
527757178,0.20869102,-0.10385919,0.37569675
527770237,0.20900325,-0.104074724,0.3785363
527785322,0.21401824,-0.107722536,0.37881503
527799631,0.20658232,-0.106119595,0.37572217
527812747,0.21621352,-0.109330945,0.37611485
527825322,0.20578471,-0.09795099,0.3753926
527840260,0.21119852,-0.1056831,0.3758361
527852576,0.21079972,-0.101598814,0.3756713
527865277,0.20649576,-0.102250814,0.37839696
527881222,0.20618352,-0.102035284,0.37555736
527895726,0.20398827,-0.100426905,0.37825757
527908688,0.20829223,-0.0997749,0.37553194
527923476,0.20649576,-0.102250814,0.37839696
527936250,0.21612695,-0.105462156,0.3787896
527950988,0.20900325,-0.104074724,0.3785363
527963340,0.20900325,-0.104074724,0.3785363
527976309,0.21612695,-0.105462156,0.3787896
527990960,0.21111192,-0.101814345,0.3785109
528003274,0.20569815,-0.094082184,0.3780673
528014997,0.21079972,-0.101598814,0.3756713
528027773,0.20860445,-0.099990435,0.3783715
528040223,0.20900325,-0.104074724,0.3785363
528052242,0.21071315,-0.09773003,0.37834606
528065290,0.20820566,-0.09590609,0.3782067
528083472,0.21142417,-0.10202989,0.38135043
528096223,0.21111192,-0.101814345,0.3785109
528111009,0.20931546,-0.10429028,0.3813759
528123331,0.20860445,-0.099990435,0.3783715
528134969,0.20869102,-0.10385919,0.37569675
528148029,0.21071315,-0.09773003,0.37834606
528160231,0.20931546,-0.10429028,0.3813759
528175067,0.20829223,-0.0997749,0.37553194
528188005,0.21111192,-0.101814345,0.3785109
528200234,0.20578471,-0.09795099,0.3753926
528213302,0.20327723,-0.09612708,0.3752532
528227509,0.21040091,-0.097514495,0.37550652
528240223,0.20609696,-0.0981665,0.37823215
528254795,0.21079972,-0.101598814,0.3756713
528268081,0.20680797,-0.10246636,0.38123652
528282948,0.20680797,-0.10246636,0.38123652
528295222,0.20649576,-0.102250814,0.37839696
528306924,0.21142417,-0.10202989,0.38135043
528319223,0.20358944,-0.096342586,0.37809277
528330993,0.20820566,-0.09590609,0.3782067
528343222,0.20860445,-0.099990435,0.3783715
528355696,0.20601037,-0.094297744,0.3809069
528368242,0.20891665,-0.10020598,0.38121107
528383222,0.21071315,-0.09773003,0.37834606
528395471,0.20108196,-0.0945187,0.3779534
528408242,0.20358944,-0.096342586,0.37809277
528422227,0.21071315,-0.09773003,0.37834606
528433610,0.19959769,-0.09721014,0.383658
528447222,0.20569815,-0.094082184,0.3780673
528459223,0.20358944,-0.096342586,0.37809277
528470343,0.20569815,-0.094082184,0.3780673
528482497,0.20569815,-0.094082184,0.3780673
528495222,0.21071315,-0.09773003,0.37834606
528506478,0.21322066,-0.09955394,0.37848544
528519267,0.21823563,-0.10320176,0.37876418
528531465,0.20851788,-0.09612165,0.38104627
528544240,0.21353285,-0.099769466,0.381325
528557669,0.21142417,-0.10202989,0.38135043
528572133,0.20780687,-0.091821805,0.3780419
528585607,0.20851788,-0.09612165,0.38104627
528598257,0.21111192,-0.101814345,0.3785109
528610506,0.20780687,-0.091821805,0.3780419
528623302,0.21031436,-0.09364569,0.37818125
528637356,0.20811908,-0.092037335,0.3808815
528650996,0.20601037,-0.094297744,0.3809069
528664284,0.20279185,-0.08817396,0.37776318
528679228,0.20780687,-0.091821805,0.3780419
528692238,0.20569815,-0.094082184,0.3780673
528705845,0.20601037,-0.094297744,0.3809069
528718222,0.20561159,-0.090213425,0.3807421
528730750,0.21493053,-0.093209244,0.37829518
528743246,0.21322066,-0.09955394,0.37848544
528756222,0.20851788,-0.09612165,0.38104627
528770659,0.20569815,-0.094082184,0.3780673
528783222,0.20780687,-0.091821805,0.3780419
528797400,0.20529936,-0.08999787,0.3779025
528811172,0.20601037,-0.094297744,0.3809069
528824281,0.20991555,-0.0895614,0.37801647
528837342,0.21031436,-0.09364569,0.37818125
528848267,0.20820566,-0.09590609,0.3782067
528862223,0.20108196,-0.0945187,0.3779534
528875469,0.21031436,-0.09364569,0.37818125
528888303,0.21250963,-0.095254116,0.37548104
528902238,0.21111192,-0.101814345,0.3785109
528915472,0.21031436,-0.09364569,0.37818125
528928285,0.21353285,-0.099769466,0.381325
528942222,0.20569815,-0.094082184,0.3780673
528955231,0.20780687,-0.091821805,0.3780419
528970706,0.20609696,-0.0981665,0.37823215
528983227,0.20358944,-0.096342586,0.37809277
528997374,0.20390168,-0.096558146,0.38093233
529009426,0.21743804,-0.09503313,0.37843454
529022236,0.20811908,-0.092037335,0.3808815
529036582,0.20130758,-0.09086547,0.38346773
529049623,0.20569815,-0.094082184,0.3780673
529062226,0.21102536,-0.097945556,0.38118565
529077352,0.20851788,-0.09612165,0.38104627
529090227,0.20569815,-0.094082184,0.3780673
529103223,0.20569815,-0.094082184,0.3780673
529117359,0.20358944,-0.096342586,0.37809277
529129443,0.20851788,-0.09612165,0.38104627
529142298,0.20390168,-0.096558146,0.38093233
529156574,0.21071315,-0.09773003,0.37834606
529169624,0.21322066,-0.09955394,0.37848544
529183271,0.20609696,-0.0981665,0.37823215
529196502,0.20390168,-0.096558146,0.38093233
529209492,0.20712018,-0.10268192,0.38407612
529222225,0.20390168,-0.096558146,0.38093233
529236399,0.20390168,-0.096558146,0.38093233
529249407,0.19959769,-0.09721014,0.383658
529262222,0.21142417,-0.10202989,0.38135043
529277304,0.20390168,-0.096558146,0.38093233
529289486,0.20640919,-0.09838205,0.38107172
529302228,0.20649576,-0.102250814,0.37839696
529316394,0.20538594,-0.093866676,0.37522778
529328788,0.2100887,-0.097298965,0.37266693
529342227,0.2168136,-0.09460206,0.3727554
529356247,0.21823563,-0.10320176,0.37876418
529369568,0.2179234,-0.10298621,0.3759246
529384126,0.21000212,-0.09343016,0.37534168
529396284,0.21940766,-0.10029474,0.37022
529408597,0.21690018,-0.09847085,0.37008062
529422229,0.21940766,-0.10029474,0.37022
529436304,0.22120415,-0.09781881,0.367355
529448853,0.23263177,-0.09855424,0.36488262
529462226,0.23263177,-0.09855424,0.36488262
529476284,0.23231956,-0.09833869,0.36204305
529488285,0.23904449,-0.09564179,0.36213154
529501368,0.23842002,-0.09521073,0.3564524
529515975,0.24625474,-0.100898,0.35971004
529529026,0.24773899,-0.09820653,0.35400546
529542223,0.2505587,-0.10024599,0.35698438
529555748,0.24953549,-0.095730595,0.35114044
529569243,0.25526148,-0.103678256,0.35442355
529582227,0.24882446,-0.09143077,0.34813607
529596255,0.2607375,-0.10011924,0.34315374
529608566,0.26253396,-0.0976433,0.34028873
529621349,0.26433045,-0.09516737,0.3374237
529636241,0.27396163,-0.09837872,0.33781636
529648761,0.2711419,-0.096339256,0.33483744
529661324,0.28006208,-0.09525076,0.3322257
529675576,0.2725396,-0.08977903,0.3318076
529688515,0.28234392,-0.10072789,0.3268507
529703452,0.28414038,-0.098251946,0.3239857
529715222,0.28100845,-0.09599697,0.3181672
529727745,0.29274833,-0.096947916,0.3185344
529740223,0.28992864,-0.094908476,0.31555548
529753116,0.30386376,-0.09746778,0.31322247
529765337,0.30534804,-0.09477632,0.3075179
529780267,0.30292708,-0.09682119,0.30470377
529794899,0.31686226,-0.099380486,0.30237073
529807762,0.31825992,-0.092820235,0.29934093
529820254,0.32085404,-0.09851293,0.29680553
529833275,0.32977417,-0.09742442,0.2941938
529847616,0.3230493,-0.10012129,0.29410532
529860253,0.32946196,-0.09720888,0.29135424
529875281,0.33134502,-0.098601714,0.28581443
529887480,0.3303218,-0.094086334,0.27997047
529900276,0.34206164,-0.09503728,0.2803377
529912315,0.33453918,-0.08956555,0.2799196
529925302,0.33853093,-0.08869799,0.27435437
529939227,0.35035738,-0.0935177,0.2720468
529953305,0.3446314,-0.08557004,0.26876372
529965326,0.34973294,-0.093086615,0.26636767
529980268,0.35506016,-0.096949995,0.26948598
529994971,0.3536381,-0.08835028,0.2634772
530007778,0.3512172,-0.09039515,0.2606631
530020222,0.35270146,-0.08770369,0.2549585
530033986,0.35591996,-0.09382744,0.25810224
530046223,0.36894658,-0.06918947,0.24907582
530057631,0.36159724,-0.071455255,0.24330819
530070267,0.37162724,-0.07875089,0.24386565
530083245,0.36740983,-0.083271705,0.24391651
530094235,0.36481577,-0.077579014,0.24645193
530107225,0.3591141,-0.08479126,0.2522074
530118227,0.36264485,-0.09113057,0.25819075
530130653,0.35865313,-0.09199809,0.26375595
530142270,0.34802303,-0.099431336,0.26655793
530155541,0.34434354,-0.10051442,0.27496272
530167229,0.34576556,-0.10911411,0.2809715
530179455,0.3334537,-0.096341304,0.28578898
530192264,0.33196947,-0.09903279,0.2914936
530206302,0.32695448,-0.09538497,0.29121488
530217617,0.33048522,-0.10172425,0.29719818
530231222,0.319682,-0.10141993,0.30534968
530244008,0.31036302,-0.09842413,0.30779663
530257231,0.30887875,-0.1011156,0.3135012
530270319,0.30027083,-0.102419645,0.3189525
530282665,0.28203171,-0.10051235,0.32401115
530295222,0.27442265,-0.09117186,0.32626784
530306631,0.2740482,-0.10224748,0.3351416
530319284,0.27045524,-0.10719935,0.34087163
530331093,0.2568323,-0.10485555,0.3460442
530343230,0.26176074,-0.10463461,0.34899768
530355540,0.257769,-0.105502166,0.35456294
530368228,0.2513563,-0.1084146,0.35731402
530382236,0.23952986,-0.103594914,0.35962155
530395519,0.23773336,-0.1060708,0.36248657
530408230,0.23585033,-0.104677975,0.36802638
530423250,0.22661793,-0.10555094,0.36779854
530437448,0.22553247,-0.11232674,0.37366793
530450227,0.2205175,-0.1086789,0.37338918
530463222,0.21450365,-0.11567561,0.3763051
530479238,0.20948865,-0.112027824,0.37602636
530492332,0.20096728,-0.11720063,0.3788029
530505746,0.19643766,-0.12150589,0.3760142
530518271,0.18962617,-0.12033399,0.37860048
530530256,0.18854074,-0.12710977,0.38446987
530543222,0.17859733,-0.123682894,0.38123763
530557475,0.17509094,-0.13250352,0.3842929
530570317,0.17728624,-0.1341119,0.3815927
530583241,0.17548974,-0.13658786,0.3844577
530596279,0.17127237,-0.14110865,0.38450858
530610314,0.16634396,-0.14132957,0.38155508
530622273,0.16204,-0.1419816,0.38428074
530634674,0.16603173,-0.14111403,0.37871552
530647222,0.15679935,-0.14198703,0.37848768
530661302,0.1622997,-0.15358794,0.37625644
530674238,0.15266854,-0.15037657,0.37586376
530686234,0.15055986,-0.15263699,0.3758892
530698001,0.14634244,-0.15715776,0.37594008
530710223,0.14252385,-0.16576287,0.3761558
530723230,0.1428361,-0.16597839,0.37899536
530736249,0.14292264,-0.16984718,0.37632057
530750243,0.14292264,-0.16984718,0.37632057
530763894,0.13038518,-0.16072764,0.37562376
530777965,0.13701971,-0.19587259,0.3856003
530790235,0.13833082,-0.18544361,0.38524526
530803225,0.13519889,-0.18318862,0.37942675
530816239,0.1326914,-0.18136472,0.3792874
530831228,0.13659656,-0.1766284,0.37639692
530846231,0.13408905,-0.17480445,0.37625754
530860416,0.13628432,-0.17641284,0.37355733
530874317,0.13979071,-0.16759221,0.37050205
530887227,0.14181283,-0.16146302,0.37315142
530902224,0.15286607,-0.17327404,0.3795528
530916668,0.14642903,-0.16102654,0.37326533
530929229,0.15346614,-0.15854521,0.37619337
530941333,0.15346614,-0.15854521,0.37619337
530954550,0.1626985,-0.15767224,0.3764212
530967230,0.1622997,-0.15358794,0.37625644
530985847,0.1694234,-0.15497534,0.37650973
530999233,0.1783436,-0.15388681,0.373898
531014255,0.1757495,-0.14819416,0.3764334
531028382,0.1778582,-0.14593376,0.37640795
531040896,0.17745937,-0.14184944,0.37624317
531053323,0.17916928,-0.13550475,0.3760529
531065304,0.18378547,-0.13506828,0.37616682
531077222,0.18549536,-0.12872359,0.3759766
531090496,0.19253248,-0.12624222,0.37890464
531105634,0.19002497,-0.1244183,0.37876529
531118230,0.19635108,-0.11763712,0.37868896
531133371,0.20088068,-0.11333187,0.38147765
531145684,0.1979744,-0.10742364,0.38117346
531158248,0.20259058,-0.10698715,0.3812874
531173834,0.20179299,-0.09881854,0.38095778
531186268,0.2063226,-0.09451329,0.38374647
531204232,0.2034163,-0.08860507,0.3834423
531216225,0.20763369,-0.08408429,0.38339144
531228312,0.21014118,-0.08590819,0.3835308
531241222,0.21185109,-0.079563506,0.38334057
531254222,0.20894478,-0.073655255,0.38303638
531269097,0.209257,-0.07387078,0.38587594
531282225,0.21857597,-0.076866604,0.38342905
531294658,0.20845939,-0.065702185,0.38554636
531309580,0.20375665,-0.062269893,0.38810718
531324251,0.2080606,-0.061617892,0.38538152
531335800,0.21008272,-0.055488702,0.3880309
531348413,0.21649541,-0.0525763,0.38527977
531360224,0.21390131,-0.046883605,0.38781518
531373566,0.20919855,-0.043451317,0.39037603
531386223,0.21341594,-0.03893051,0.39032513
531399641,0.21261834,-0.030761905,0.38999552
531413034,0.21683572,-0.02624112,0.38994464
531425295,0.21903099,-0.0278495,0.38724446
531440272,0.21182075,-0.0225933,0.3896659
531454496,0.21353061,-0.016248608,0.38947567
531469869,0.2223642,-0.0112913065,0.3895387
531482270,0.22165318,-0.0069914614,0.38653433
531495737,0.21515395,-0.0060351067,0.3919602
531510477,0.21686384,0.00030958743,0.39176995
531523315,0.21686384,0.00030958743,0.39176995
531534950,0.19975889,-0.021327207,0.40903637
531548277,0.19864906,-0.012943048,0.40586716
531561222,0.20366406,-0.016590869,0.4061459
531575222,0.20967793,-0.009594173,0.40323
531587580,0.19745268,-0.0006901303,0.40537274
531600235,0.19753926,-0.004558913,0.40269798
531614776,0.19933572,-0.0020829788,0.39983296
531628851,0.2003346,0.008561571,0.39663833
531643332,0.20794366,-0.000778907,0.39438167
531655225,0.20361534,0.013728983,0.38806874
531668274,0.21113782,0.00825724,0.38848683
531681279,0.20731923,-0.00034784552,0.3887025
531695222,0.20481172,0.0014760647,0.38856316
531707535,0.20942792,0.0019125581,0.3886771
531720248,0.212022,-0.003780135,0.38614166
531733874,0.20241518,-0.015728721,0.39478758
531747570,0.20281398,-0.019813037,0.39495242
531760259,0.20079187,-0.025942199,0.39230305
531773430,0.19688669,-0.030678537,0.39519352
531788094,0.20158947,-0.034110803,0.39263272
531800287,0.19987959,-0.040455498,0.39282295
531812824,0.1984819,-0.047015768,0.39585274
531828368,0.1984819,-0.047015768,0.39585274
531841650,0.1989673,-0.05496884,0.3933428
531854413,0.1968586,-0.05722922,0.3933682
531869994,0.19435109,-0.05540531,0.39322886
531882529,0.19201674,-0.061318945,0.38773996
531894527,0.20275778,-0.07291443,0.39130184
531907267,0.19061907,-0.067879215,0.39076978
531918252,0.19854037,-0.07743524,0.39135268
531930733,0.19290093,-0.07335634,0.3853948
531943267,0.18899576,-0.078092664,0.38828525
531955600,0.190019,-0.082608044,0.39412922
531969632,0.18298191,-0.08508939,0.39120117
531985689,0.18588819,-0.090997614,0.39150533
531998316,0.1841783,-0.09734233,0.3916956
532010741,0.18167081,-0.095518395,0.3915562
532023222,0.17736682,-0.09617044,0.39428186
532035271,0.17634358,-0.09165507,0.3884379
532046228,0.16961868,-0.09435194,0.38834944
532058491,0.1749459,-0.09821529,0.39146772
532070466,0.16861983,-0.10499648,0.39154404
532083240,0.16602573,-0.09930379,0.39407948
532095223,0.17543128,-0.10616837,0.38895777
532107337,0.16149613,-0.10360906,0.39129075
532119232,0.15978624,-0.10995375,0.391481
532130653,0.16009845,-0.110169314,0.39432058
532143236,0.16009845,-0.110169314,0.39432058
532155916,0.16941741,-0.11316511,0.3918737
532169617,0.1540846,-0.117166005,0.39723647
532184285,0.1561933,-0.114905626,0.39721105
532198402,0.1490696,-0.11351819,0.39695776
532211294,0.1465621,-0.11169428,0.39681837
532225700,0.1448522,-0.11803899,0.39700866
532238227,0.14054821,-0.11869102,0.3997343
532250241,0.1419459,-0.11213077,0.39670447
532262235,0.14023602,-0.11847549,0.39689472
532275206,0.14305574,-0.12051493,0.39987367
532288235,0.13373679,-0.11751911,0.40232056
532303237,0.12701188,-0.120216005,0.40223208
532317654,0.12410558,-0.11430778,0.4019279
532330225,0.122309096,-0.116783716,0.40479293
532341386,0.12199689,-0.116568185,0.40195334
532355316,0.117294095,-0.11313592,0.40451422
532368252,0.11940281,-0.11087552,0.40448877
532384316,0.117692895,-0.11722023,0.404679
532397497,0.11347552,-0.12174102,0.40472987
532410222,0.11088146,-0.1160483,0.4072653
532422228,0.10406998,-0.114876434,0.40985158
532434526,0.09874277,-0.11101306,0.40673327
532447282,0.101961285,-0.11713681,0.40987703
532461439,0.099453785,-0.115312904,0.40973765
532476246,0.0969463,-0.113488995,0.4095983
532489727,0.101961285,-0.11713681,0.40987703
532502252,0.0873151,-0.110277675,0.40920562
532515285,0.0852064,-0.11253808,0.40923107
532528274,0.078394935,-0.11136619,0.41181734
532541310,0.08340993,-0.11501401,0.41209608
532555058,0.06987357,-0.116538994,0.41459388
532571246,0.06556958,-0.11719105,0.41731954
532584930,0.06385969,-0.123535745,0.4175098
532597339,0.063460894,-0.119451426,0.41734496
532608931,0.05855686,-0.13483228,0.42343003
532621295,0.05103436,-0.12936057,0.42301196
532636014,0.051346593,-0.1295761,0.42585152
532648930,0.04892567,-0.13162097,0.4230374
532661310,0.051346593,-0.1295761,0.42585152
532673424,0.050236765,-0.12119194,0.42268234
532686225,0.057048246,-0.12236383,0.42009607
532700567,0.060641184,-0.11741196,0.41436604
532715566,0.061640058,-0.1067674,0.4111714
532730400,0.06406097,-0.104722545,0.41398555
532742270,0.07508983,-0.10137368,0.41134837
532755562,0.088313974,-0.099633105,0.406011
532769878,0.090734884,-0.09758826,0.40882513
532782222,0.093328975,-0.10328093,0.4062897
532796553,0.09965507,-0.09649974,0.4062134
532810449,0.104670055,-0.10014756,0.40649214
532823234,0.108974,-0.09949556,0.4037665
532837344,0.119715035,-0.11109105,0.40732834
532849320,0.119004,-0.1067912,0.40432397
532861338,0.1236202,-0.106354706,0.40443787
532877830,0.12783758,-0.101833925,0.404387
532890236,0.14647552,-0.10782553,0.3994932
532903262,0.14356922,-0.1019173,0.399189
532916679,0.15257595,-0.10469758,0.3939025
532928569,0.15428583,-0.09835289,0.39371225
532941226,0.16391705,-0.10156419,0.3941049
532958435,0.15468465,-0.102437176,0.39387706
532974812,0.17072852,-0.10273607,0.39151862
532989328,0.17753997,-0.10390801,0.38893232
533002223,0.18506247,-0.109379716,0.3893504
533017340,0.1770546,-0.09595489,0.3914423
533030278,0.18364042,-0.100780025,0.38334167
533044143,0.1928728,-0.09990704,0.3835695
533056248,0.20501147,-0.1049423,0.38410154
533068412,0.19888666,-0.09291033,0.3806536
533080113,0.20367604,-0.10021137,0.37541804
533092587,0.20829223,-0.0997749,0.37553194
533105295,0.2104875,-0.101383254,0.3728317
533119777,0.21541592,-0.101162314,0.37578523
533132546,0.21932109,-0.096426,0.3728948
533145295,0.23405382,-0.10715391,0.3708914
533159613,0.2301243,-0.09673031,0.36474326
533173415,0.22761682,-0.0949064,0.36460388
533190260,0.23223302,-0.09446993,0.3647178
533204499,0.2373346,-0.101986505,0.36232176
533217340,0.24195075,-0.101550035,0.3624357
533230222,0.24203734,-0.1054188,0.3597609
533244106,0.24805121,-0.09842206,0.35684502
533256273,0.24383382,-0.10294286,0.3568959
533268930,0.24061532,-0.0968191,0.35375217
533281277,0.252754,-0.10185437,0.3542842
533293855,0.24289717,-0.102296226,0.34837717
533308309,0.24500586,-0.10003587,0.34835178
533320263,0.24859881,-0.09508398,0.3426217
533332332,0.25572246,-0.09647142,0.342875
533345274,0.26675135,-0.09312252,0.34023786
533359222,0.2668379,-0.09699128,0.33756307
533371437,0.2707431,-0.092254944,0.33467263
533384262,0.2753593,-0.09181845,0.33478653
533399046,0.27513367,-0.09547167,0.3292722
533413216,0.28436604,-0.09459871,0.32950005
533427452,0.28687355,-0.09642264,0.3296394
533439261,0.28585026,-0.09190725,0.32379544
533451295,0.28342938,-0.09395212,0.32098132
533464233,0.28553808,-0.09169172,0.32095587
533476394,0.29024082,-0.095124006,0.31839505
533489299,0.2970523,-0.09629589,0.31580874
533503222,0.29634127,-0.091996066,0.31280437
533517345,0.3009575,-0.09155955,0.3129183
533532832,0.30534804,-0.09477632,0.3075179
533547421,0.30965203,-0.09412431,0.30479223
533560283,0.3163769,-0.091427416,0.3048807
533575749,0.32068083,-0.090775385,0.30215508
533588254,0.32036865,-0.09055986,0.2993155
533600273,0.3200564,-0.09034433,0.2964759
533615539,0.3197442,-0.09012877,0.29363632
533628224,0.33037424,-0.082695566,0.29083437
533641334,0.33294398,-0.073228315,0.27926037
533655597,0.33585027,-0.07913654,0.27956456
533668222,0.3263057,-0.079793975,0.27649713
533681301,0.33132064,-0.083441794,0.27677584
533696269,0.32992297,-0.09000202,0.27980566
533710222,0.3260178,-0.09473836,0.28269613
533721232,0.32812652,-0.092477955,0.28267068
533734250,0.32664225,-0.095169425,0.2883753
533748739,0.32624346,-0.09108513,0.28821048
533761608,0.315128,-0.09056524,0.29352242
533774225,0.31865874,-0.09690455,0.29950574
533787533,0.32147846,-0.09894399,0.30248466
533800239,0.30865312,-0.10476885,0.30798686
533813730,0.30035743,-0.106288426,0.31627774
533826595,0.29063967,-0.09920832,0.31855983
533839227,0.29266176,-0.093079135,0.32120916
533852011,0.2840538,-0.09438318,0.32666045
533865577,0.28006208,-0.09525076,0.3322257
533878393,0.2671258,-0.082046896,0.33136407
533890709,0.27387506,-0.09450994,0.34049112
533903229,0.2648683,-0.09172967,0.34577763
533918787,0.2577446,-0.09034225,0.34552434
533931227,0.24953549,-0.095730595,0.35114044
533943228,0.25015992,-0.096161656,0.3568196
533956341,0.2472536,-0.09025345,0.3565154
533969614,0.24163854,-0.10133449,0.3595961
533985584,0.2347405,-0.09629384,0.36485717
533998730,0.23325622,-0.09898531,0.37056175
534013469,0.2246483,-0.10028935,0.37601307
534026235,0.21712579,-0.09481762,0.37559497
534037514,0.2175246,-0.09890191,0.37575978
534050222,0.20569815,-0.094082184,0.3780673
534061297,0.20609696,-0.0981665,0.37823215
534077897,0.20601037,-0.094297744,0.3809069
534091269,0.19709021,-0.09538625,0.38351864
534104238,0.1899665,-0.093998834,0.38326535
534117913,0.19358383,-0.10420689,0.3865739
534130226,0.18574913,-0.098519646,0.38331622
534141326,0.18597475,-0.094866395,0.38883057
534154202,0.17243841,-0.09639136,0.39132836
534166222,0.17525813,-0.09843082,0.39430732
534178966,0.17446052,-0.09026222,0.3939777
534192242,0.17887545,-0.10863889,0.39761588
534205396,0.17064193,-0.09886732,0.39419338
534218245,0.16633798,-0.09951932,0.39691904
534230225,0.17166519,-0.10338269,0.40003735
534242990,0.16383046,-0.09769543,0.3967797
534256228,0.16172178,-0.099955834,0.3968051
534272233,0.16172178,-0.099955834,0.3968051
534288312,0.15741779,-0.100607865,0.39953074
534303259,0.1549103,-0.098783955,0.39939138
534316815,0.1549103,-0.098783955,0.39939138
534329834,0.1549103,-0.098783955,0.39939138
534342227,0.15271503,-0.09717557,0.40209162
534354887,0.14809884,-0.097612016,0.4019777
534368314,0.14348264,-0.09804853,0.40186375
534381341,0.1506929,-0.10330476,0.39944226
534392249,0.15311383,-0.10125986,0.4022564
534405335,0.13909209,-0.09483177,0.40726417
534417842,0.14809884,-0.097612016,0.4019777
534430228,0.14889644,-0.10578067,0.4023073
534447223,0.14599015,-0.09987244,0.4020031
534460610,0.15311383,-0.10125986,0.4022564
534474982,0.14379486,-0.09826406,0.40470335
534488971,0.14388146,-0.10213282,0.40202856
534501343,0.14841107,-0.09782757,0.40481725
534513713,0.14419368,-0.10234836,0.40486816
534527272,0.14419368,-0.10234836,0.40486816
534542222,0.13846765,-0.09440072,0.40158504
534557187,0.1419984,-0.10073998,0.40756837
534569868,0.14348264,-0.09804853,0.40186375
534583225,0.14419368,-0.10234836,0.40486816
534597164,0.13627237,-0.092792355,0.40428522
534610454,0.15091856,-0.09965148,0.40495664
534623241,0.14379486,-0.09826406,0.40470335
534637189,0.14128736,-0.09644015,0.40456396
534650311,0.14268504,-0.08987993,0.40153414
534663235,0.14841107,-0.09782757,0.40481725
534677711,0.14017755,-0.08805602,0.40139478
534691228,0.14559135,-0.09578813,0.4018383
534707048,0.14599015,-0.09987244,0.4020031
534720245,0.14339606,-0.09417977,0.4045385
534731731,0.14841107,-0.09782757,0.40481725
534744939,0.14379486,-0.09826406,0.40470335
534758230,0.15051974,-0.09556719,0.40479183
534771754,0.14410709,-0.0984796,0.40754288
534784314,0.14088856,-0.09235586,0.40439916
534796610,0.14730124,-0.08944344,0.40164804
534809813,0.14801225,-0.09374328,0.40465245
534822344,0.14550476,-0.09191937,0.4045131
534836558,0.14761345,-0.08965896,0.40448764
534849303,0.15864234,-0.08631005,0.40185046
534862239,0.15684585,-0.088786,0.4047155
534877208,0.16106324,-0.08426522,0.40466464
534891825,0.16106324,-0.08426522,0.40466464
534906094,0.16106324,-0.08426522,0.40466464
534920646,0.16317193,-0.082004815,0.40463915
534933228,0.16528064,-0.079744406,0.40461373
534947815,0.16567943,-0.083828725,0.40477854
534960499,0.1699834,-0.08317668,0.40205288
534973222,0.16707711,-0.07726848,0.4017487
534989348,0.1695846,-0.07909239,0.40188807
535003704,0.17420079,-0.0786559,0.402002
535017191,0.17599724,-0.07617998,0.399137
535030268,0.17779373,-0.07370404,0.39627197
535046242,0.17067005,-0.07231661,0.39601868
535060229,0.17357634,-0.07822483,0.39632288
535077210,0.17348976,-0.07435607,0.39899763
535090228,0.17819253,-0.07778836,0.39643678
535103222,0.17859134,-0.08187265,0.3966016
535117373,0.17679486,-0.08434859,0.3994666
535132130,0.18109885,-0.08369656,0.39674094
535144242,0.18391857,-0.08573601,0.39971986
535157381,0.190019,-0.082608044,0.39412922
535171444,0.1875115,-0.080784135,0.39398986
535184231,0.1896202,-0.078523725,0.3939644
535196659,0.1828953,-0.08122066,0.39387593
535209247,0.194323,-0.08195602,0.3914036
535223222,0.1871127,-0.076699845,0.39382505
535239777,0.18939455,-0.08217698,0.3884501
535252263,0.19150324,-0.07991658,0.38842463
535264252,0.19691703,-0.08764871,0.38886815
535280226,0.1879103,-0.084868446,0.39415467
535293277,0.19190206,-0.08400089,0.38858947
535308133,0.19660482,-0.08743318,0.3860286
535320230,0.19409733,-0.08560927,0.38588923
535335282,0.19409733,-0.08560927,0.38588923
535347511,0.18908234,-0.08196142,0.38561052
535360240,0.19480835,-0.08990912,0.3888936
535372398,0.20301749,-0.08452078,0.3832775
535387419,0.20019777,-0.08248132,0.38029855
535400266,0.20059657,-0.08656561,0.38046336
535412703,0.2109388,-0.0940768,0.3838604
535427446,0.2063226,-0.09451329,0.38374647
535439567,0.20811908,-0.092037335,0.3808815
535451552,0.20521277,-0.08612914,0.3805773
535464224,0.20780687,-0.091821805,0.3780419
535479232,0.21282184,-0.095469624,0.37832063
535491438,0.20601037,-0.094297744,0.3809069
535504262,0.21142417,-0.10202989,0.38135043
535519241,0.20569815,-0.094082184,0.3780673
535532226,0.20529936,-0.08999787,0.3779025
535545234,0.21031436,-0.09364569,0.37818125
535558667,0.20358944,-0.096342586,0.37809277
535571320,0.20398827,-0.100426905,0.37825757
535583275,0.20860445,-0.099990435,0.3783715
535595565,0.21501711,-0.097078,0.37562042
535609610,0.21501711,-0.097078,0.37562042
535623227,0.20829223,-0.0997749,0.37553194
535637069,0.20649576,-0.102250814,0.37839696
535650515,0.20869102,-0.10385919,0.37569675
535663234,0.20829223,-0.0997749,0.37553194
535675227,0.21040091,-0.097514495,0.37550652
535689617,0.21079972,-0.101598814,0.3756713
535702244,0.21330719,-0.10342272,0.37581065
535716059,0.20438705,-0.10451122,0.37842238
535728313,0.21370602,-0.10750701,0.37597546
535741606,0.21330719,-0.10342272,0.37581065
535755575,0.20407484,-0.10429571,0.37558278
535769635,0.20327723,-0.09612708,0.3752532
535782232,0.20900325,-0.104074724,0.3785363
535794768,0.20940207,-0.108159035,0.37870112
535807222,0.20869102,-0.10385919,0.37569675
535819229,0.2083788,-0.103643656,0.37285715
535832231,0.21079972,-0.101598814,0.3756713
535846237,0.21370602,-0.10750701,0.37597546
535860277,0.21401824,-0.107722536,0.37881503
535872289,0.20869102,-0.10385919,0.37569675
535886245,0.20869102,-0.10385919,0.37569675
535898926,0.21330719,-0.10342272,0.37581065
535912286,0.21159734,-0.109767415,0.3760009
535926306,0.21410482,-0.111591324,0.37614027
535938486,0.20940207,-0.108159035,0.37870112
535951235,0.20658232,-0.106119595,0.37572217
535965316,0.21119852,-0.1056831,0.3758361
535978691,0.21330719,-0.10342272,0.37581065
535991222,0.21159734,-0.109767415,0.3760009
536005415,0.21159734,-0.109767415,0.3760009
536018765,0.20869102,-0.10385919,0.37569675
536031225,0.21079972,-0.101598814,0.3756713
536045318,0.21088631,-0.105467565,0.37299654
536056278,0.20627011,-0.105904065,0.3728826
536070224,0.21119852,-0.1056831,0.3758361
536082229,0.20698114,-0.11020391,0.375887
536093333,0.2191198,-0.11523917,0.376419
536106142,0.21079972,-0.101598814,0.3756713
536118275,0.21088631,-0.105467565,0.37299654
536130231,0.21872102,-0.11115483,0.3762542
536142223,0.21370602,-0.10750701,0.37597546
536154400,0.2041614,-0.108164445,0.37290806
536166222,0.2191198,-0.11523917,0.376419
536178818,0.21308158,-0.107075945,0.37029633
536193736,0.21370602,-0.10750701,0.37597546
536206222,0.2112851,-0.109551884,0.37316135
536220545,0.2159013,-0.10911537,0.37327525
536233304,0.21088631,-0.105467565,0.37299654
536245307,0.21801,-0.10685499,0.3732498
536257916,0.21268277,-0.10299166,0.37013152
536271229,0.2133938,-0.10729148,0.3731359
536284416,0.21880758,-0.11502361,0.37357944
536298010,0.21199612,-0.11385171,0.37616572
536311237,0.2087776,-0.10772795,0.373022
536325371,0.21088631,-0.105467565,0.37299654
536338318,0.2204309,-0.10481014,0.37606394
536351223,0.20917642,-0.111812264,0.3731868
536365227,0.2195186,-0.119323455,0.3765838
536378245,0.204959,-0.11633305,0.37323764
536390319,0.20285033,-0.118593454,0.3732631
536405349,0.21208271,-0.11772049,0.37349096
536418636,0.20316255,-0.11880901,0.37610266
536431273,0.2178953,-0.12953691,0.37409928
536445304,0.20316255,-0.11880901,0.37610266
536457543,0.2050456,-0.12020183,0.37056288
536470222,0.20535782,-0.120417364,0.37340248
536485300,0.2025381,-0.11837792,0.37042353
536497945,0.19823411,-0.11902995,0.37314916
536511229,0.20285033,-0.118593454,0.3732631
536524410,0.20755309,-0.12202574,0.37070227
536537445,0.20715429,-0.11794145,0.37053746
536550228,0.2054444,-0.124286145,0.3707277
536564390,0.2103728,-0.12406518,0.37368122
536576823,0.2025381,-0.11837792,0.37042353
536590229,0.2050456,-0.12020183,0.37056288
536604225,0.2004294,-0.120638326,0.37044898
536616585,0.20324913,-0.122677766,0.3734279
536629295,0.20535782,-0.120417364,0.37340248
536642267,0.2124815,-0.1218048,0.37365574
536656792,0.20786533,-0.12224127,0.37354183
536669227,0.2025381,-0.11837792,0.37042353
536683707,0.20285033,-0.118593454,0.3732631
536696416,0.20826411,-0.12632559,0.37370664
536709222,0.20826411,-0.12632559,0.37370664
536723746,0.20034282,-0.116769545,0.37312374
536736636,0.20857634,-0.12654117,0.3765462
536749370,0.20105383,-0.12106938,0.3761281
536763761,0.20105383,-0.12106938,0.3761281
536776327,0.20396015,-0.12697761,0.3764323
536789336,0.20857634,-0.12654117,0.3765462
536803737,0.20396015,-0.12697761,0.3764323
536816771,0.20817754,-0.122456826,0.3763814
536829375,0.19894515,-0.12332979,0.37615356
