timestamp,roll,pitch,yaw,thrust_body[0],thrust_body[1],thrust_body[2]
519054353,-0.043056104,-0.044634506,-0.78305465,0.0,0.0,0.0
519086386,-0.043076556,-0.04465679,-0.7829967,0.0,0.0,0.0
519118437,-0.043103054,-0.044641722,-0.78296274,0.0,0.0,0.0
519149622,-0.043071248,-0.044655945,-0.7829034,0.0,0.0,0.0
519181554,-0.04307227,-0.04469029,-0.78296363,0.0,0.0,0.0
519213578,-0.0430752,-0.044664193,-0.783017,0.0,0.0,0.0
519245601,-0.043079868,-0.044618987,-0.7829558,0.0,0.0,0.0
519277621,-0.04305395,-0.044625603,-0.78284234,0.0,0.0,0.0
519309546,-0.043007903,-0.044624165,-0.7828057,0.0,0.0,0.0
519337639,-0.04302609,-0.04464444,-0.7829667,0.0,0.0,0.0
519369553,-0.043017287,-0.044603486,-0.78322244,0.0,0.0,0.0
519401618,-0.04300094,-0.0445883,-0.7833659,0.0,0.0,0.0
519433587,-0.04301471,-0.04462231,-0.78334075,0.0,0.0,0.0
519465644,-0.04301509,-0.044600796,-0.7831333,0.0,0.0,0.0
519496734,-0.042922165,-0.044545885,-0.78275925,0.0,0.0,0.0
519528783,-0.042824376,-0.044487916,-0.7824591,0.0,0.0,0.0
519560824,-0.042849604,-0.044468462,-0.78236663,0.0,0.0,0.0
519592767,-0.042825606,-0.04449911,-0.78261703,0.0,0.0,0.0
519620871,-0.04286515,-0.044523947,-0.78296185,0.0,0.0,0.0
519652750,-0.042917773,-0.04448807,-0.78338283,0.0,0.0,0.0
519684770,-0.042856775,-0.044534832,-0.7835153,0.0,0.0,0.0
519716776,-0.042839263,-0.044499166,-0.7833966,0.0,0.0,0.0
519748785,-0.042772356,-0.04446523,-0.7831054,0.0,0.0,0.0
519780854,-0.04269428,-0.044442993,-0.78273547,0.0,0.0,0.0
519812738,-0.042718753,-0.04445444,-0.782624,0.0,0.0,0.0
519844841,-0.042746976,-0.044458393,-0.782824,0.0,0.0,0.0
519876012,-0.042778283,-0.044458795,-0.78317547,0.0,0.0,0.0
519907948,-0.04278403,-0.044494756,-0.7834937,0.0,0.0,0.0
519936036,-0.042829722,-0.044458732,-0.7836305,0.0,0.0,0.0
519967948,-0.042880207,-0.044384282,-0.78349024,0.0,0.0,0.0
520000071,-0.04285612,-0.044323303,-0.7832084,0.0,0.0,0.0
520031981,-0.04285933,-0.044275932,-0.78289515,0.0,0.0,0.0
520067953,-0.042896684,-0.04420747,-0.78265697,0.0,0.0,0.0
520100048,-0.042942565,-0.044177596,-0.78264016,0.0,0.0,0.0
520132005,-0.042991053,-0.04420494,-0.7827125,0.0,0.0,0.0
520160037,-0.04297838,-0.04423459,-0.7827638,0.0,0.0,0.0
520191931,-0.043026865,-0.044233244,-0.78279454,0.0,0.0,0.0
520223934,-0.04298599,-0.044200826,-0.78282815,0.0,0.0,0.0
520255208,-0.04304431,-0.044325624,-0.7829564,0.0,0.0,0.0
520287267,-0.042968012,-0.044408184,-0.7832398,0.0,0.0,0.0
520319205,-0.043005027,-0.044471566,-0.7836708,0.0,0.0,0.0
520351172,-0.043202322,-0.04455819,-0.7840617,0.0,0.0,0.0
520383218,-0.043341845,-0.04469348,-0.7841464,0.0,0.0,0.0
520415198,-0.04339593,-0.044690266,-0.7837861,0.0,0.0,0.0
520447310,-0.04318658,-0.04450827,-0.7829711,0.0,0.0,0.0
520479138,-0.042932983,-0.044315044,-0.78188974,0.0,0.0,0.0
520511169,-0.042843074,-0.044213325,-0.78121936,0.0,0.0,0.0
520543197,-0.04292801,-0.044086337,-0.7814077,0.0,0.0,0.0
520575170,-0.043157317,-0.044034813,-0.78279746,0.0,0.0,0.0
520607203,-0.043318797,-0.04402831,-0.78473115,0.0,0.0,0.0
520638437,-0.043404236,-0.044120573,-0.786153,0.0,0.0,0.0
520670393,-0.04335443,-0.044082914,-0.7861665,0.0,0.0,0.0
520702453,-0.043083478,-0.043872513,-0.7845568,0.0,0.0,0.0
520734362,-0.042706348,-0.043569293,-0.7818568,0.0,0.0,0.0
520766427,-0.042546164,-0.04360237,-0.7797134,0.0,0.0,0.0
520798391,-0.042647153,-0.043648425,-0.77962685,0.0,0.0,0.0
520830351,-0.042859476,-0.043723416,-0.7821551,0.0,0.0,0.0
520862449,-0.04327551,-0.04407787,-0.78560466,0.0,0.0,0.0
520894384,-0.043542784,-0.04449645,-0.78769594,0.0,0.0,0.0
520926404,-0.04339439,-0.044325758,-0.7872075,0.0,0.0,0.0
520958354,-0.042781275,-0.04409781,-0.7845656,0.0,0.0,0.0
520989559,-0.0421564,-0.043805134,-0.7814783,0.0,0.0,0.0
521021668,-0.041985262,-0.043490805,-0.77964854,0.0,0.0,0.0
521053588,-0.04252399,-0.043589246,-0.780072,0.0,0.0,0.0
521085597,-0.04349038,-0.044046678,-0.78238094,0.0,0.0,0.0
521117583,-0.044026002,-0.043882966,-0.7852806,0.0,0.0,0.0
521149644,-0.043760706,-0.04368359,-0.7872871,0.0,0.0,0.0
521181602,-0.042930692,-0.043828845,-0.7873655,0.0,0.0,0.0
521213546,-0.042174708,-0.04354434,-0.7849143,0.0,0.0,0.0
521245561,-0.04218209,-0.043316558,-0.7815876,0.0,0.0,0.0
521277572,-0.042891018,-0.04311349,-0.77965736,0.0,0.0,0.0
521309591,-0.043304328,-0.04281769,-0.7797917,0.0,0.0,0.0
521340840,-0.04311188,-0.043483827,-0.781791,0.0,0.0,0.0
521372776,-0.043486018,-0.04396636,-0.7851371,0.0,0.0,0.0
521404884,-0.04299636,-0.04393593,-0.7871159,0.0,0.0,0.0
521436741,-0.04278756,-0.043911107,-0.7873972,0.0,0.0,0.0
521468749,-0.043374598,-0.043929465,-0.7868791,0.0,0.0,0.0
521496760,-0.043228123,-0.04405106,-0.78584075,0.0,0.0,0.0
521528763,-0.042481005,-0.043979254,-0.7843509,0.0,0.0,0.0
521560825,-0.042488124,-0.043236703,-0.7852373,0.0,0.0,0.0
521592812,-0.0426916,-0.043059293,-0.7847588,0.0,0.0,0.0
521624795,-0.04270818,-0.042119205,-0.78657687,0.0,0.0,0.0
521656741,-0.043973,-0.042223375,-0.7864957,0.0,0.0,0.0
521688791,-0.043259002,-0.041086886,-0.7870105,0.0,0.0,0.0
521720023,-0.043115042,-0.040363513,-0.7865172,0.0,0.0,0.0
521751931,-0.042481102,-0.039404094,-0.7853855,0.0,0.0,0.0
521783990,-0.041590758,-0.038980715,-0.7852875,0.0,0.0,0.0
521811941,-0.050198197,-0.029340131,0.00051419914,0.0,0.0,-0.0
521844012,-0.04932775,-0.029387336,0.00038153224,0.0,0.0,-0.0
521875980,-0.051518396,-0.029375494,0.00046165584,0.0,0.0,-0.0
521908041,-0.05040581,-0.029865678,0.00021238504,0.0,0.0,-0.0
521939949,-0.050726302,-0.030469706,0.00089623465,0.0,0.0,-0.0
521971964,-0.0502023,-0.03164396,0.00023479888,0.0,0.0,-0.0
522004012,-0.049183343,-0.03193595,0.00041338266,0.0,0.0,-0.0
522036029,-0.051130183,-0.0333405,0.0007031031,0.0,0.0,-0.0
522066420,-0.049595647,-0.033385072,0.0003708267,0.0,0.0,-0.0
522099190,-0.052195806,-0.034408297,0.00077613705,0.0,0.0,-0.0
522131176,-0.05008834,-0.034105387,7.783225e-05,0.0,0.0,-0.0
522163289,-0.051034473,-0.03421734,0.00066519267,0.0,0.0,-0.0
522195147,-0.0505481,-0.03409044,0.00022146452,0.0,0.0,-0.0
522227310,-0.049760576,-0.032911528,0.0007181249,0.0,0.0,-0.0
522259169,-0.051471524,-0.032932524,0.00082540297,0.0,0.0,-0.0
522291199,-0.049523834,-0.030917378,0.0002991716,0.0,0.0,-0.0
522323208,-0.051480494,-0.030814856,0.0011066806,0.0,0.0,-0.0
522355218,-0.049090013,-0.029666595,-0.00025467112,0.0,0.0,-0.0
522387248,-0.05050151,-0.029599603,0.00039337302,0.0,0.0,-0.0
522419247,-0.049874187,-0.029358888,-6.337411e-05,0.0,0.0,-0.0
522451183,-0.04979062,-0.02919787,0.0006074471,0.0,0.0,-0.0
522482462,-0.05141003,-0.03045796,0.00090489804,0.0,0.0,-0.0
522514366,-0.049418624,-0.030121565,0.0004835012,0.0,0.0,-0.0
522546411,-0.05112899,-0.03163347,0.00042552082,0.0,0.0,-0.0
522578369,-0.048732925,-0.03192516,-2.6351014e-05,0.0,0.0,-0.0
522606370,-0.050339047,-0.03292068,0.00043622844,0.0,0.0,-0.0
522638375,-0.050708536,-0.034058698,0.00012208853,0.0,0.0,-0.0
522670396,-0.0503031,-0.03400952,0.00039211495,0.0,0.0,-0.0
522702442,-0.052040875,-0.034815617,0.00076475594,0.0,0.0,-0.0
522734384,-0.049498994,-0.03386563,0.00028621667,0.0,0.0,-0.0
522765628,-0.05154979,-0.03416536,0.0004636283,0.0,0.0,-0.0
522797586,-0.049530104,-0.03308205,0.00022379456,0.0,0.0,-0.0
522829551,-0.05034489,-0.032134123,0.00056477526,0.0,0.0,-0.0
522861547,-0.05075818,-0.031223904,0.00029411123,0.0,0.0,-0.0
522893569,-0.0494752,-0.02976138,0.000365576,0.0,0.0,-0.0
522921555,-0.051431105,-0.030075306,0.0006381719,0.0,0.0,-0.0
522953630,-0.04868122,-0.02884935,1.1235491e-05,0.0,0.0,-0.0
522985609,-0.05037547,-0.02911626,0.00038612256,0.0,0.0,-0.0
523017538,-0.04933137,-0.029108774,0.00022574664,0.0,0.0,-0.0
523049557,-0.04967156,-0.029462397,0.00040454796,0.0,0.0,-0.0
523081589,-0.05079927,-0.030740526,0.0007185106,0.0,0.0,-0.0
523113605,-0.04885582,-0.030759556,0.00027541732,0.0,0.0,-0.0
523144929,-0.051035497,-0.032309286,0.00078436674,0.0,0.0,-0.0
523176795,-0.04869813,-0.0325378,3.3756685e-05,0.0,0.0,-0.0
523208829,-0.050642375,-0.03387096,0.0006643646,0.0,0.0,-0.0
523240765,-0.050005794,-0.03439268,0.0003055557,0.0,0.0,-0.0
523272802,-0.05028888,-0.034300905,0.00053365086,0.0,0.0,-0.0
523304839,-0.05118354,-0.034699664,0.0008613266,0.0,0.0,-0.0
523336800,-0.04915323,-0.033600193,0.00013373817,0.0,0.0,-0.0
523368802,-0.05140649,-0.03377441,0.0004674204,0.0,0.0,-0.0
523400758,-0.04869015,-0.03197581,5.601444e-06,0.0,0.0,-0.0
523428749,-0.05037561,-0.03129718,0.0004656888,0.0,0.0,-0.0
523460783,-0.049980357,-0.030468315,0.0003266679,0.0,0.0,-0.0
523492784,-0.049237333,-0.02948963,0.0004158044,0.0,0.0,-0.0
523527256,-0.05046941,-0.029748498,0.0003952108,0.0,0.0,-0.0
523559947,-0.048309855,-0.028893309,0.00016796966,0.0,0.0,-0.0
523592026,-0.05083105,-0.030007165,0.00045300066,0.0,0.0,-0.0
523623943,-0.04856936,-0.029881623,9.708715e-05,0.0,0.0,-0.0
523655928,-0.05082893,-0.031326182,0.0006338643,0.0,0.0,-0.0
523687985,-0.049756147,-0.03229217,0.00042295395,0.0,0.0,-0.0
523715987,-0.04918706,-0.03277997,0.00035632477,0.0,0.0,-0.0
523747989,-0.05092325,-0.0341885,0.0004582954,0.0,0.0,-0.0
523780038,-0.048683565,-0.03406077,0.00016734724,0.0,0.0,-0.0
523811942,-0.051147044,-0.035286043,0.00061174313,0.0,0.0,-0.0
523844000,-0.049659602,-0.034903515,0.00026479104,0.0,0.0,-0.0
523875171,-0.050613344,-0.03435293,0.00067229284,0.0,0.0,-0.0
523907313,-0.050282843,-0.033845402,0.00044800647,0.0,0.0,-0.0
523939192,-0.049107727,-0.032901276,0.0001289774,0.0,0.0,-0.0
523971190,-0.05092319,-0.03256823,0.00039449875,0.0,0.0,-0.0
523999173,-0.04847292,-0.031046921,4.1583193e-05,0.0,0.0,-0.0
524031163,-0.05081312,-0.03056563,0.00044299738,0.0,0.0,-0.0
524063238,-0.04957951,-0.02981991,0.0003419978,0.0,0.0,-0.0
524095269,-0.049637105,-0.029344065,0.00059008965,0.0,0.0,-0.0
524127207,-0.049841445,-0.029569212,0.00038788802,0.0,0.0,-0.0
524159205,-0.048715923,-0.029305976,0.000169961,0.0,0.0,-0.0
524191174,-0.050561354,-0.02998155,0.0005352295,0.0,0.0,-0.0
524223223,-0.048448157,-0.030313922,1.1365207e-06,0.0,0.0,-0.0
524254347,-0.05100515,-0.031634737,0.00053498166,0.0,0.0,-0.0
524286405,-0.04966936,-0.032143164,0.00042016726,0.0,0.0,-0.0
524318407,-0.049667086,-0.03274642,0.00031451415,0.0,0.0,-0.0
524350362,-0.05038933,-0.03373116,0.00047758035,0.0,0.0,-0.0
524382354,-0.049287245,-0.034023378,0.0002144468,0.0,0.0,-0.0
524414434,-0.05123612,-0.034404304,0.00075875776,0.0,0.0,-0.0
524446384,-0.048721276,-0.03349705,0.00042949687,0.0,0.0,-0.0
524478415,-0.05078856,-0.033447072,0.00073227,0.0,0.0,-0.0
524510358,-0.049514346,-0.03285426,0.00041864955,0.0,0.0,-0.0
524538369,-0.049141746,-0.032256644,9.396173e-05,0.0,0.0,-0.0
524570351,-0.05071507,-0.03193216,0.00039684965,0.0,0.0,-0.0
524602425,-0.048700318,-0.030695364,6.0748025e-05,0.0,0.0,-0.0
524633612,-0.05079638,-0.030698886,0.00054486946,0.0,0.0,-0.0
524665590,-0.04903942,-0.030213969,0.00042266038,0.0,0.0,-0.0
524697626,-0.050132077,-0.030402057,0.00064614526,0.0,0.0,-0.0
524729604,-0.04989114,-0.030427447,0.00037627172,0.0,0.0,-0.0
524761586,-0.04875342,-0.030484505,0.00022153989,0.0,0.0,-0.0
524793534,-0.050879534,-0.031445473,0.00039144792,0.0,0.0,-0.0
524825606,-0.04900222,-0.03171819,-3.705888e-05,0.0,0.0,-0.0
524857589,-0.051175795,-0.032572765,0.0006031474,0.0,0.0,-0.0
524889600,-0.049581945,-0.032735974,0.00042727773,0.0,0.0,-0.0
524921561,-0.05044029,-0.03327326,0.0006810009,0.0,0.0,-0.0
524952822,-0.05040677,-0.033556633,0.0004946717,0.0,0.0,-0.0
524984925,-0.04907402,-0.033422895,0.000359188,0.0,0.0,-0.0
525016736,-0.051305354,-0.033697214,0.0004713814,0.0,0.0,-0.0
525048774,-0.049268737,-0.03306059,0.00042859805,0.0,0.0,-0.0
525080755,-0.05113326,-0.03281258,0.00060248084,0.0,0.0,-0.0
525108760,-0.049852394,-0.032350708,0.00042449692,0.0,0.0,-0.0
525140815,-0.049649168,-0.03184389,0.00044824352,0.0,0.0,-0.0
525172782,-0.050703157,-0.03126811,0.00043810718,0.0,0.0,-0.0
525205041,-0.04878213,-0.03069558,0.0003935965,0.0,0.0,-0.0
525236738,-0.05090649,-0.030482039,0.0004201489,0.0,0.0,-0.0
525268737,-0.04881225,-0.030044753,0.00038594828,0.0,0.0,-0.0
525300776,-0.050347067,-0.030144742,0.00063556555,0.0,0.0,-0.0
525332758,-0.04966949,-0.030370284,0.00037077142,0.0,0.0,-0.0
525364021,-0.049234066,-0.03061987,0.0002919095,0.0,0.0,-0.0
525396040,-0.05066085,-0.030937444,0.00043981228,0.0,0.0,-0.0
525423957,-0.04886085,-0.031197371,0.0002199815,0.0,0.0,-0.0
525456023,-0.05068332,-0.031736493,0.0004631711,0.0,0.0,-0.0
525487941,-0.04935918,-0.032169297,0.00041797696,0.0,0.0,-0.0
525519978,-0.05005664,-0.032312967,0.00067537185,0.0,0.0,-0.0
525551949,-0.05041424,-0.032589637,0.00038415592,0.0,0.0,-0.0
525584020,-0.049346816,-0.03268258,0.00021056988,0.0,0.0,-0.0
525615990,-0.051346403,-0.03265881,0.0003975109,0.0,0.0,-0.0
525648002,-0.04932268,-0.032649316,0.0004238514,0.0,0.0,-0.0
525679970,-0.051085405,-0.03264666,0.0006233533,0.0,0.0,-0.0
525712026,-0.049662996,-0.03263254,0.00038001547,0.0,0.0,-0.0
525743141,-0.050837412,-0.04763795,0.0009648842,0.0,0.0,-0.12000382
525775178,-0.0538181,-0.012726388,0.00071122416,0.0,0.0,-0.120006554
525807401,-0.00457021,-0.022160547,0.00080091174,0.0,0.0,-0.1200347
525839204,-0.07587108,-0.011138367,0.00043726005,0.0,0.0,-0.12001735
525871148,-0.06156943,-0.04961621,-0.00013927708,0.0,0.0,-0.12000753
525903238,-0.06876689,-0.01131836,-0.0014721251,0.0,0.0,-0.12001228
525935233,-0.03839315,-0.019723479,-0.002584281,0.0,0.0,-0.121212624
525967329,-0.08158103,-0.017070029,-0.0040029483,0.0,0.0,-0.13081768
525999147,-0.11386605,-0.088013135,-0.00433271,0.0,0.0,-0.15078521
526031190,-0.033240806,-0.046844408,-0.0029806716,0.0,0.0,-0.16933148
526062383,-0.10358485,-0.059733693,-0.0032273133,0.0,0.0,-0.18258257
526094447,-0.12343106,-0.06275148,-0.0040297466,0.0,0.0,-0.20227201
526126357,0.033122167,0.030162433,-0.0054702167,0.0,0.0,-0.21306357
526158413,-0.03869607,0.016850857,-0.0057897763,0.0,0.0,-0.23174585
526190415,-0.10568266,-0.029791214,-0.00609851,0.0,0.0,-0.25384432
526218398,0.0072158896,0.012214946,-0.009100369,0.0,0.0,-0.26381192
526250405,0.014521868,0.02884378,-0.009324379,0.0,0.0,-0.28432393
526282448,-0.11446608,-0.069175355,-0.009072072,0.0,0.0,-0.29765233
526314344,-0.081315905,-0.04702683,-0.008397938,0.0,0.0,-0.31347978
526346485,-0.029659092,0.004603526,-0.0089549525,0.0,0.0,-0.3244756
526378402,-0.048835557,-0.0044179354,-0.010280948,0.0,0.0,-0.34246317
526410416,-0.06578767,-0.0074833063,-0.012909739,0.0,0.0,-0.364467
526441545,-0.060360447,0.0019971025,-0.015635619,0.0,0.0,-0.37240908
526473577,-0.06254423,0.011178315,-0.017436057,0.0,0.0,-0.38366076
526505639,-0.081867844,-0.0028575354,-0.018839993,0.0,0.0,-0.39290723
526537638,-0.07948432,0.009057848,-0.019919021,0.0,0.0,-0.40629864
526569565,-0.07751011,0.020280916,-0.020651504,0.0,0.0,-0.4129874
526601567,-0.06879712,0.018976316,-0.02082417,0.0,0.0,-0.41848722
526633603,-0.071103364,0.02967921,-0.020737926,0.0,0.0,-0.41904944
526669551,-0.07153818,0.03253888,-0.020223256,0.0,0.0,-0.4235329
526701581,-0.057000745,0.043175597,-0.020022392,0.0,0.0,-0.42459658
526729631,-0.05233466,0.045895994,-0.019824408,0.0,0.0,-0.42823935
526761571,-0.049908046,0.04110287,-0.019132022,0.0,0.0,-0.42271984
526793627,-0.05316604,0.05471822,-0.018193422,0.0,0.0,-0.42573634
526824773,-0.038672958,0.052916765,-0.017723119,0.0,0.0,-0.4247687
526856804,-0.03440131,0.04567359,-0.017332645,0.0,0.0,-0.42317498
526888781,-0.034047928,0.05514052,-0.016779296,0.0,0.0,-0.4254645
526920749,-0.02004267,0.05129564,-0.016359203,0.0,0.0,-0.42727256
526952738,-0.02667347,0.05803116,-0.015654547,0.0,0.0,-0.4263409
526984839,-0.018777195,0.04283962,-0.014948513,0.0,0.0,-0.43199423
527016772,-0.023183916,0.04469516,-0.013982528,0.0,0.0,-0.43204096
527048787,-0.020223444,0.03985124,-0.01304089,0.0,0.0,-0.4327069
527080742,-0.0058946824,0.025242567,-0.012157245,0.0,0.0,-0.41177103
527112806,-0.010251756,0.03261559,-0.011184041,0.0,0.0,-0.39750218
527144799,-0.01161468,0.025804685,-0.010324381,0.0,0.0,-0.38886708
527175935,0.0015520294,0.017239945,-0.009489139,0.0,0.0,-0.3730012
527208003,0.0011062152,0.017590145,-0.008523949,0.0,0.0,-0.36920673
527239995,0.015784599,0.015251095,-0.0078257155,0.0,0.0,-0.36218902
527272004,0.02297033,0.028970096,-0.0069346116,0.0,0.0,-0.35774386
527303986,0.025191497,0.015217998,-0.0063165035,0.0,0.0,-0.35923225
527335927,0.03853964,0.02954065,-0.005645974,0.0,0.0,-0.36068445
527368051,0.033668123,0.01513455,-0.005118373,0.0,0.0,-0.36177707
527403944,0.03780652,0.010243596,-0.005126087,0.0,0.0,-0.36047137
527436020,0.048617043,0.03145387,-0.004758894,0.0,0.0,-0.36295822
527467995,0.043266818,0.01273569,-0.0043499926,0.0,0.0,-0.36033767
527496042,0.059143208,0.035073325,-0.003319606,0.0,0.0,-0.36262608
527528046,0.05426981,0.015586943,-0.0029858258,0.0,0.0,-0.3628109
527559973,0.048308767,0.016445601,-0.0024436617,0.0,0.0,-0.3580761
527591192,0.055010617,0.033885382,-0.0023181085,0.0,0.0,-0.36079144
527623200,0.048580866,0.0048393896,-0.0016387788,0.0,0.0,-0.35841942
527655181,0.06454003,0.02030778,-0.0015040563,0.0,0.0,-0.36038724
527687508,0.042363197,0.0107463645,-0.0011231636,0.0,0.0,-0.36131188
527719160,0.064146824,0.021642996,-0.0007679334,0.0,0.0,-0.3641616
527751226,0.041266747,0.021511726,-0.00035282125,0.0,0.0,-0.36492708
527779169,0.03872254,0.0072771846,0.00033611472,0.0,0.0,-0.3646518
527811248,0.05506029,0.01896273,0.00054887496,0.0,0.0,-0.3661648
527843153,0.026309486,0.007333913,0.098131165,0.0,0.0,-0.36473948
527875193,0.04679112,0.01287773,0.0013500298,0.0,0.0,-0.36691248
527906441,0.03179345,0.014349376,0.0016975274,0.0,0.0,-0.36670136
527938395,0.020099558,0.008007419,0.002260684,0.0,0.0,-0.36636975
527970356,0.03260386,0.017027348,0.0024480242,0.0,0.0,-0.3694479
528002351,0.013222067,0.006920942,0.003083129,0.0,0.0,-0.3672237
528034389,0.030331422,0.016856954,0.0031261847,0.0,0.0,-0.3715997
528070385,0.025103483,0.010979208,0.0034085135,0.0,0.0,-0.37046644
528098357,0.011302679,0.004622982,0.00441617,0.0,0.0,-0.36845413
528130376,0.021769924,0.021066826,0.004459136,0.0,0.0,-0.37338915
528162407,0.007434619,0.0012440926,0.0053531127,0.0,0.0,-0.36727247
528194405,0.024492579,0.018412447,0.0053292634,0.0,0.0,-0.37225014
528226355,0.020231841,0.0070894435,0.006061379,0.0,0.0,-0.37031463
528257571,0.012562791,-0.002545302,0.006880957,0.0,0.0,-0.36461464
528289726,0.024156533,0.008387385,0.0072428943,0.0,0.0,-0.3690859
528321584,0.01183676,-0.0024629629,0.008037357,0.0,0.0,-0.36392674
528353549,0.019459527,0.015999706,0.007936571,0.0,0.0,-0.36549821
528385586,0.015989477,0.0023141133,0.008777979,0.0,0.0,-0.36661685
528417592,0.016138112,-0.0024963948,0.009302716,0.0,0.0,-0.36433855
528449659,0.010385982,0.0014039312,0.009444056,0.0,0.0,-0.36669418
528481555,0.013258994,-0.004466733,0.009748528,0.0,0.0,-0.36556602
528513576,0.002561489,0.013658761,0.009320728,0.0,0.0,-0.3647594
528545596,-0.0006328744,0.0024636923,0.009574819,0.0,0.0,-0.36729315
528577622,0.006867433,0.0076995566,0.00922349,0.0,0.0,-0.36823723
528608769,-0.008976172,0.0018834148,0.009371576,0.0,0.0,-0.36830762
528640755,0.003690088,0.008517103,0.008884226,0.0,0.0,-0.36770383
528672781,-0.005005615,0.01939975,0.0084656235,0.0,0.0,-0.36631674
528704801,0.004352182,0.011231702,0.008544868,0.0,0.0,-0.36848536
528736728,-0.010284399,0.018839732,0.008224379,0.0,0.0,-0.36647245
528768814,-0.006514115,0.005141968,0.00838639,0.0,0.0,-0.36565635
528800778,-0.0036795633,0.017885402,0.0077796457,0.0,0.0,-0.366018
528832808,-0.002728505,0.019790871,0.0076311613,0.0,0.0,-0.36320043
528864772,-0.00487447,0.015335204,0.00761941,0.0,0.0,-0.36266708
528896793,-0.0012155664,0.011822587,0.007632548,0.0,0.0,-0.36312327
528928828,0.002747195,0.005859414,0.0077459374,0.0,0.0,-0.3646663
528959927,-0.0069627096,0.022254238,0.007082648,0.0,0.0,-0.3614917
528991940,0.0027759427,0.017764434,0.0070009776,0.0,0.0,-0.36326596
529024004,-0.009602227,0.015823068,0.0068337237,0.0,0.0,-0.36172456
529055979,0.0057121487,0.0109253405,0.006683362,0.0,0.0,-0.36427853
529087955,0.003074033,0.004429412,0.0066185077,0.0,0.0,-0.36517474
529119950,-0.008028846,0.013779929,0.0060759094,0.0,0.0,-0.36294052
529152028,0.001356042,0.012391004,0.0056454036,0.0,0.0,-0.36604562
529183989,-0.02854095,-0.0912293,0.00684838,0.0,0.0,-0.36271378
529216036,-0.016449139,-0.19372672,0.008363261,0.0,0.0,-0.36769885
529247944,-0.013876105,-0.24936216,0.00887069,0.0,0.0,-0.36876357
529279987,-0.02142292,-0.3257728,0.008723607,0.0,0.0,-0.36701685
529311986,-0.014770461,-0.4183555,0.009666015,0.0,0.0,-0.37233707
529343170,-0.0135310665,-0.45581037,0.009026871,0.0,0.0,-0.37012073
529374447,-0.004987345,-0.5194651,0.009718001,0.0,0.0,-0.3747012
529407281,-0.0016756334,-0.5436497,0.0091234455,0.0,0.0,-0.37679195
529439201,0.000118484895,-0.58346677,0.0086258855,0.0,0.0,-0.37959737
529471301,0.0020467888,-0.59040433,0.007608066,0.0,0.0,-0.381572
529503151,0.006402667,-0.6153056,0.0073478734,0.0,0.0,-0.38693032
529535223,0.005260604,-0.66439277,0.006746136,0.0,0.0,-0.38817832
529567243,0.008186997,-0.6505627,0.0062149935,0.0,0.0,-0.3901266
529599272,0.004272235,-0.6638011,0.0051705907,0.0,0.0,-0.39641154
529631227,0.0074541853,-0.6563198,0.005315562,0.0,0.0,-0.39306244
529663236,0.00015509428,-0.6721223,0.0040967166,0.0,0.0,-0.39260772
529697568,0.0160817,-0.6821755,0.007818817,0.0,0.0,-0.395899
529726369,0.0020232464,-0.6728686,0.0053092036,0.0,0.0,-0.39314204
529758351,0.017931258,-0.6661164,0.00873869,0.0,0.0,-0.40472144
529790470,0.0138716865,-0.63940525,0.00845376,0.0,0.0,-0.41001734
529822390,-0.008403309,-0.6314406,0.005407396,0.0,0.0,-0.40430883
529854406,0.0020228545,-0.58829635,0.007652008,0.0,0.0,-0.40029427
529886351,0.0017152019,-0.5458997,0.008246695,0.0,0.0,-0.40806672
529914401,-0.016022036,-0.48649833,0.005836902,0.0,0.0,-0.4207374
529946400,-0.019293128,-0.40858057,0.00542568,0.0,0.0,-0.4197096
529978405,-0.008974673,-0.22589134,0.004651109,0.0,0.0,-0.41077116
530010435,-0.0006001392,-0.10373059,0.00410227,0.0,0.0,-0.40862292
530040779,-0.026426412,0.9032772,-0.006015142,0.0,0.0,-0.38225132
530073606,-0.015301128,1.0028428,-0.010033336,0.0,0.0,-0.39780858
530105585,-0.028060718,1.0556407,-0.006505108,0.0,0.0,-0.40812945
530137535,-0.025518404,1.0967487,-0.0068688607,0.0,0.0,-0.41467637
530169606,-0.031164685,1.0566763,-0.004069461,0.0,0.0,-0.4153272
530201570,-0.03557388,1.0569952,-0.0025377143,0.0,0.0,-0.40568247
530229679,-0.02120064,1.0693156,-0.005604392,0.0,0.0,-0.39598787
530261618,-0.12944534,1.0495808,0.02629289,0.0,0.0,-0.3844993
530293557,-0.21371394,1.0235279,0.049082626,0.0,0.0,-0.3673781
530325538,-0.25045824,0.9418574,0.055946436,0.0,0.0,-0.36423245
530357551,-0.33248818,0.8814406,0.07430849,0.0,0.0,-0.3673257
530389680,-0.3490457,0.77329016,0.07180614,0.0,0.0,-0.37177405
530420763,-0.40219375,0.70576376,0.079264686,0.0,0.0,-0.36629793
530452789,-0.47371367,0.63821566,0.08955752,0.0,0.0,-0.36581725
530484812,-0.4858474,0.5705079,0.087971985,0.0,0.0,-0.36329088
530512803,-0.53498834,0.5028858,0.08957721,0.0,0.0,-0.36627036
530544841,-0.5440291,0.45082226,0.08729971,0.0,0.0,-0.3676851
530576812,-0.51111555,0.43544847,0.08680903,0.0,0.0,-0.37288344
530608739,-0.4335812,0.4187171,0.080928184,0.0,0.0,-0.37426132
530640772,-0.34113824,0.39884585,0.07332572,0.0,0.0,-0.3705826
530672768,-0.19114105,0.33833355,0.053092986,0.0,0.0,-0.36393738
530704874,-0.07902314,0.28482008,0.039317485,0.0,0.0,-0.36360115
530736754,0.32925814,-0.5216267,-0.044801068,0.0,0.0,-0.33659318
530768782,0.36208346,-0.5123486,-0.04516932,0.0,0.0,-0.34168282
530800741,0.41520408,-0.5147945,-0.041981746,0.0,0.0,-0.3460914
530832090,0.4484709,-0.52557975,-0.04106721,0.0,0.0,-0.33743754
530863947,0.46739498,-0.4883441,-0.03935972,0.0,0.0,-0.3380758
530895982,0.5058066,-0.4090866,-0.03372418,0.0,0.0,-0.3544322
530928003,0.5060237,-0.35815793,-0.034927208,0.0,0.0,-0.36216646
530960040,0.556729,-0.30441275,-0.03091684,0.0,0.0,-0.372885
530991995,0.5571181,-0.2777503,-0.031248089,0.0,0.0,-0.37376633
531023997,0.5870388,-0.25226438,-0.029590018,0.0,0.0,-0.37387905
531055996,0.6393428,-0.21148653,-0.027481474,0.0,0.0,-0.3684947
531088028,0.6203382,-0.18857412,-0.02846871,0.0,0.0,-0.3664004
531119945,0.61248386,-0.16261561,-0.028744606,0.0,0.0,-0.3769381
531151195,0.59206605,-0.13516901,-0.030231468,0.0,0.0,-0.38572076
531183194,0.5870543,-0.109393276,-0.031512838,0.0,0.0,-0.39152375
531215240,0.5889515,-0.07475223,-0.03481346,0.0,0.0,-0.397088
531247197,0.5813466,-0.060216177,-0.035035778,0.0,0.0,-0.39265776
531279190,0.59440285,-0.052407473,-0.033353485,0.0,0.0,-0.37960964
531307220,0.6216176,-0.040420886,-0.034212325,0.0,0.0,-0.3767561
531339177,0.5989451,-0.0133144725,-0.03920982,0.0,0.0,-0.37265483
531371179,0.59631157,0.0040141726,-0.041878797,0.0,0.0,-0.3779666
531403246,0.6151727,0.021503828,-0.04563801,0.0,0.0,-0.3868945
531435170,0.5660207,0.1351219,-0.08523387,0.0,0.0,-0.38866276
531467305,0.5114138,0.16299354,-0.09437576,0.0,0.0,-0.3904283
531499183,-0.49781063,-0.019848267,-0.024693184,0.0,0.0,-0.3325943
531534382,-0.59791994,0.02401776,-0.027968774,0.0,0.0,-0.3316593
531566412,-0.6583713,0.03174861,-0.027353827,0.0,0.0,-0.33284575
531594405,-0.67259043,0.07149197,-0.031228412,0.0,0.0,-0.33890358
531626410,-0.71798635,0.08543297,-0.03147511,0.0,0.0,-0.342753
531658368,-0.69335866,0.12108908,-0.034132957,0.0,0.0,-0.35774946
531690359,-0.63433725,0.1378281,-0.033507224,0.0,0.0,-0.3607659
531722422,-0.5748611,0.1842662,-0.033613853,0.0,0.0,-0.36521363
531758313,-0.5373412,0.21492735,-0.029752182,0.0,0.0,-0.37033054
531790436,-0.47880912,0.2390126,-0.026612146,0.0,0.0,-0.36630544
531818357,-0.44596034,0.27116072,-0.02307273,0.0,0.0,-0.36893392
531853676,-0.37467098,0.27823332,-0.019692238,0.0,0.0,-0.3729422
531881579,-0.3124851,0.29664004,-0.018414086,0.0,0.0,-0.38328135
531913568,-0.2695961,0.29183617,-0.0146129085,0.0,0.0,-0.39529327
531945551,-0.21128194,0.26765314,-0.012580106,0.0,0.0,-0.39507005
531977595,-0.16969554,0.33136138,-0.0089601,0.0,0.0,-0.39473522
532009617,-0.14586502,0.3568389,-0.004369747,0.0,0.0,-0.3914365
532041559,-0.119942,0.4016752,6.981967e-05,0.0,0.0,-0.3843694
532073607,-0.091874875,0.39206126,0.0024673282,0.0,0.0,-0.3795852
532105625,-0.08656166,0.43756342,0.00786885,0.0,0.0,-0.37699082
532137588,-0.069125235,0.46447787,0.011443465,0.0,0.0,-0.37373528
532169588,-0.048768524,0.49129486,0.013781157,0.0,0.0,-0.36964902
532200792,-0.04309463,0.51249146,0.017370503,0.0,0.0,-0.36762038
532232838,-0.015710518,0.49734876,0.016272,0.0,0.0,-0.36786097
532264803,-0.020156277,0.49736166,0.019417465,0.0,0.0,-0.37313914
532300819,-0.0058914926,0.50067234,0.02031537,0.0,0.0,-0.37785864
532332847,-0.0050099753,0.4916636,0.02173154,0.0,0.0,-0.37744907
532364850,0.003760072,0.51050234,0.022392977,0.0,0.0,-0.3834339
532396731,0.007824635,0.51032394,0.022864392,0.0,0.0,-0.38941142
532428807,0.011888613,0.5260365,0.023206148,0.0,0.0,-0.39196974
532460785,0.022192823,0.50694734,0.021647358,0.0,0.0,-0.40292597
532492866,0.030897394,0.5068611,0.020898899,0.0,0.0,-0.4019955
532524785,0.032099485,0.3836544,0.018711243,0.0,0.0,-0.3811201
532556786,0.032027766,0.28119412,0.016961336,0.0,0.0,-0.35589996
532587992,0.101247415,-0.68222046,0.012951162,0.0,0.0,-0.30280915
532615993,0.058377076,-0.7250773,0.0056481063,0.0,0.0,-0.3023284
532648010,0.01972749,-0.7918478,-0.002256221,0.0,0.0,-0.3029686
532675991,0.02128764,-0.8391449,-0.0025021653,0.0,0.0,-0.31313518
532707937,0.031861514,-0.8139212,-0.00034917888,0.0,0.0,-0.31935182
532739955,0.03287097,-0.78811425,-0.0015929443,0.0,0.0,-0.3388439
532772088,0.017627666,-0.7592477,-0.0058775614,0.0,0.0,-0.35043973
532804001,0.02585092,-0.72391057,-0.0058657634,0.0,0.0,-0.36090437
532835944,0.022352153,-0.6481398,-0.0064323386,0.0,0.0,-0.36322236
532867965,0.02066038,-0.6152521,-0.0064340807,0.0,0.0,-0.36468935
532895988,0.024947716,-0.5923319,-0.0061569693,0.0,0.0,-0.3653258
532931185,0.010816872,-0.56286234,-0.00871962,0.0,0.0,-0.3602214
532959218,0.024651466,-0.5848559,-0.0069343676,0.0,0.0,-0.3690751
532991201,0.0036599596,-0.5639413,-0.009842816,0.0,0.0,-0.37894002
533023180,0.027320644,-0.5788409,-0.0057019945,0.0,0.0,-0.38545665
533055163,0.0052917274,-0.58485115,-0.007990551,0.0,0.0,-0.38481086
533087269,0.011465824,-0.56054795,-0.0063182726,0.0,0.0,-0.3818348
533119199,0.015245441,-0.5654975,-0.0045041475,0.0,0.0,-0.39740703
533151185,0.014618721,-0.5424295,-0.0038763555,0.0,0.0,-0.3946056
533183192,-0.0005203424,-0.5660511,-0.004635556,0.0,0.0,-0.39413714
533211208,-0.0035606436,-0.5630611,-0.0041865157,0.0,0.0,-0.38772386
533243177,0.011145161,-0.614008,-4.2558284e-05,0.0,0.0,-0.37263155
533275229,0.009980683,-0.65492713,0.0022493515,0.0,0.0,-0.35169414
533307267,0.006465896,-0.6312918,0.0027514577,0.0,0.0,-0.3562909
533338400,0.012981121,-0.60661364,0.0053852135,0.0,0.0,-0.36510321
533370397,0.0012078567,-0.60293907,0.004905807,0.0,0.0,-0.36601153
533402435,-0.008252352,-0.5969748,0.005092004,0.0,0.0,-0.3739747
533438463,0.009271063,-0.60146534,0.009876782,0.0,0.0,-0.367655
533470442,-0.014934126,-0.5865172,0.0075257206,0.0,0.0,-0.3634416
533498413,0.006331041,-0.57632464,0.012360546,0.0,0.0,-0.36915442
533530434,-0.0026386266,-0.5548878,0.01237827,0.0,0.0,-0.37879872
533562369,-0.017449424,-0.55180013,0.011712757,0.0,0.0,-0.3855204
533594413,-0.0029779384,-0.47646198,0.013979918,0.0,0.0,-0.36783993
533626374,-0.002537564,0.74073035,-0.0071599022,0.0,0.0,-0.2914115
533658417,-0.0044419165,0.8576858,-0.0079888785,0.0,0.0,-0.2764287
533693643,0.0065062805,0.91915625,-0.009966639,0.0,0.0,-0.28818524
533725621,-0.010212998,0.9351284,-0.0044309646,0.0,0.0,-0.31414106
533757554,-0.019120554,0.92904216,-0.0015541011,0.0,0.0,-0.3068524
533785627,-0.022658253,0.87729794,0.00027181377,0.0,0.0,-0.30455175
533817539,-0.024927624,0.80201876,0.002481529,0.0,0.0,-0.3199319
533849590,-0.0023153902,0.7728875,-0.0017651655,0.0,0.0,-0.31803662
533881602,-0.0022919674,0.74394286,-0.0018479713,0.0,0.0,-0.3058454
533917544,-0.025109673,0.6491637,0.005977601,0.0,0.0,-0.3047863
533949567,-0.011062317,0.58717847,0.004104304,0.0,0.0,-0.29582173
533981590,-0.021781411,0.54008126,0.007656056,0.0,0.0,-0.2791416
534012800,-0.016701134,0.5198542,0.009847464,0.0,0.0,-0.27270323
534044838,0.011768717,0.44634452,0.009590683,0.0,0.0,-0.26863012
534076771,0.009870969,0.41937366,0.010324863,0.0,0.0,-0.26145232
534108801,0.022666536,0.35601205,0.011865256,0.0,0.0,-0.26110658
534140746,0.012644915,0.31933087,0.016392758,0.0,0.0,-0.255592
534172803,0.01346046,0.27084884,0.017508006,0.0,0.0,-0.249617
534204800,0.020159733,0.24325949,0.017805312,0.0,0.0,-0.24942842
534232791,0.019577375,0.22779003,0.019293513,0.0,0.0,-0.24499598
534264806,0.026060482,0.20528567,0.018165242,0.0,0.0,-0.24363633
534292832,0.020652138,0.16928956,0.020482939,0.0,0.0,-0.24925168
534324798,0.0208029,0.14714147,0.019673282,0.0,0.0,-0.2491884
534356787,0.013652962,0.12444387,0.01999772,0.0,0.0,-0.24949244
534388730,0.054467376,0.12073783,0.018724652,0.0,0.0,-0.24606852
534419991,0.055960592,0.104498215,0.018453,0.0,0.0,-0.24741676
534451982,0.007829374,0.068077,0.020269224,0.0,0.0,-0.24891876
534483948,0.0056291916,0.049200412,0.019803856,0.0,0.0,-0.24736694
534516003,0.055440333,0.072223306,0.018277038,0.0,0.0,-0.24779402
534548032,0.05180661,0.059522923,0.018585378,0.0,0.0,-0.2473181
534576075,0.013695845,0.03811596,0.018162087,0.0,0.0,-0.24607806
534608008,0.016881041,0.039762247,0.0186937,0.0,0.0,-0.2468536
534639945,0.023771692,0.033333544,0.016984856,0.0,0.0,-0.24665616
534676081,0.030832183,0.03461323,0.015527531,0.0,0.0,-0.24352975
534708000,0.023384714,0.022127567,0.016407324,0.0,0.0,-0.24156633
534739159,-0.00052986544,-0.002867872,0.017773218,0.0,0.0,-0.24290821
534771158,0.024058457,0.029463148,0.015715653,0.0,0.0,-0.246348
534803184,0.00881,-0.004478643,0.018517382,0.0,0.0,-0.26665854
534835204,-0.011040825,-0.06399075,0.02015706,0.0,0.0,-0.28821084
534863199,-0.025945818,-0.1032133,0.020414842,0.0,0.0,-0.3350822
534895290,-0.017241938,-0.10218707,0.021876248,0.0,0.0,-0.35300788
534927227,-0.024490565,-0.13832432,0.022064691,0.0,0.0,-0.39128953
534959242,-0.03194191,-0.15779547,0.021731583,0.0,0.0,-0.42009136
534991185,-0.058038685,-0.16231377,0.020445662,0.0,0.0,-0.43398687
535023148,-0.045734465,-0.18096016,0.02141153,0.0,0.0,-0.44631314
535055144,-0.050783888,-0.16080512,0.017823977,0.0,0.0,-0.4538914
535087246,-0.0651903,-0.1696168,0.050666995,0.0,0.0,-0.4533827
535118420,-0.06642643,-0.15574102,0.08078165,0.0,0.0,-0.45840946
535150390,-0.060467128,-0.14771098,0.09020914,0.0,0.0,-0.4586773
535182319,-0.062849104,-0.12782773,0.10677132,0.0,0.0,-0.4612479
535210414,-0.07702992,-0.12609182,0.11025298,0.0,0.0,-0.45376056
535242367,-0.07328123,-0.106614076,0.121161744,0.0,0.0,-0.45245904
535278343,-0.058789976,-0.097325176,0.12035815,0.0,0.0,-0.45396015
535310345,-0.054558836,-0.09151697,0.12422162,0.0,0.0,-0.45009148
535342387,-0.0482697,-0.07768985,0.12357696,0.0,0.0,-0.45148745
535374488,-0.0528429,-0.08258382,0.1101974,0.0,0.0,-0.45034426
535402442,-0.030822678,-0.07373344,0.094026245,0.0,0.0,-0.45571762
535438354,-0.02915283,-0.0627795,0.08197806,0.0,0.0,-0.4581239
535470399,-0.021866819,-0.05781271,0.07189628,0.0,0.0,-0.46430382
535502430,-0.02739339,-0.05341061,0.06377125,0.0,0.0,-0.46528336
535533605,-0.005677892,-0.06373669,0.059902076,0.0,0.0,-0.4636531
535565571,0.009405713,-0.049005114,0.055930488,0.0,0.0,-0.46614978
535597673,-0.001308729,-0.06326673,0.056074366,0.0,0.0,-0.46373582
535629606,0.009926912,-0.04410668,0.05329068,0.0,0.0,-0.46634582
535661566,0.00049787527,-0.06306039,0.052714415,0.0,0.0,-0.46635792
535689548,0.002270895,-0.06545708,0.051538505,0.0,0.0,-0.45614567
535721580,0.004709228,-0.057196375,0.052371442,0.0,0.0,-0.45511517
535753544,0.012979681,-0.06885815,0.050453536,0.0,0.0,-0.4583807
535785625,0.011017744,-0.05653172,0.05092012,0.0,0.0,-0.45727456
535816804,0.013384306,-0.06934488,0.04851983,0.0,0.0,-0.46218997
535847983,0.014696298,-0.053144578,0.049465176,0.0,0.0,-0.4611985
535880785,0.017765546,-0.07319339,0.051943675,0.0,0.0,-0.46172795
535912847,0.013146179,-0.05911863,0.049550973,0.0,0.0,-0.46421558
535944782,0.017748276,-0.07982818,0.051407516,0.0,0.0,-0.4648593
535976839,0.024544207,-0.068959706,0.050748922,0.0,0.0,-0.46075815
536008782,0.016747927,-0.0705973,0.05135732,0.0,0.0,-0.4631006
536040818,0.00656127,-0.070785,0.05176955,0.0,0.0,-0.46703812
536072726,0.015979297,-0.068061054,0.05066565,0.0,0.0,-0.46736562
536104813,0.009782901,-0.067155726,0.052365243,0.0,0.0,-0.47147033
536136834,0.0035119145,-0.06840647,0.051267,0.0,0.0,-0.46801642
536168013,0.01715128,-0.074880406,0.05231223,0.0,0.0,-0.4731087
536199948,0.020967439,-0.058406938,0.047411516,0.0,0.0,-0.4765461
536231990,0.016884547,-0.059046846,0.043491285,0.0,0.0,-0.47086853
536259964,0.0015097994,-0.0599364,0.046011698,0.0,0.0,-0.4735958
536292012,0.012947459,-0.05784482,0.046191167,0.0,0.0,-0.47723025
536323987,0.004630221,-0.059312902,0.048603065,0.0,0.0,-0.45370334
536356077,-0.008886413,-0.055175576,0.048494425,0.0,0.0,-0.4290219
536387937,-0.002075266,-0.058534715,0.047178973,0.0,0.0,-0.38411894
536420014,0.017176127,-0.05760089,0.031145282,0.0,0.0,-0.34908736
536451998,0.01948041,-0.058880363,0.02370163,0.0,0.0,-0.3338628
536484025,0.026168363,-0.044888962,0.015690729,0.0,0.0,-0.31754562
536511997,0.0294949,-0.039982367,0.012726521,0.0,0.0,-0.3101412
536543973,0.027216429,-0.0441167,0.008310152,0.0,0.0,-0.29376093
536575210,0.026423374,-0.044478722,0.0065405983,0.0,0.0,-0.2895524
536607237,0.0287982,-0.038855635,0.0056642904,0.0,0.0,-0.2803567
536639180,0.050657596,-0.034755807,0.012569579,0.0,0.0,-0.27518827
536671141,0.028699445,-0.04054543,0.031534534,0.0,0.0,-0.27204826
536703154,0.026881116,-0.026840644,0.106901035,0.0,0.0,-0.27209902
536735179,0.03628803,-0.030573908,0.15090385,0.0,0.0,-0.26924673
536767255,0.042803284,-0.027287865,0.27911627,0.0,0.0,-0.26316094
536799169,0.052635755,-0.013000742,0.43364412,0.0,0.0,-0.2656417
536827304,0.019507458,-0.004673185,0.50504905,0.0,0.0,-0.26773807
536859163,0.022885252,0.012732154,0.797684,0.0,0.0,-0.26345545
536891178,0.026026089,-0.0026711784,0.94515276,0.0,0.0,-0.26162064
536923190,0.030051142,0.02009863,1.1711192,0.0,0.0,-0.2647182
536954399,0.011461676,0.04132024,1.2366129,0.0,0.0,-0.2604813
536986354,0.029762456,0.041034736,1.3554282,0.0,0.0,-0.25650153
537018613,0.02478993,0.033490147,1.3771844,0.0,0.0,-0.25208715
537050397,0.041720126,0.06632036,1.4459779,0.0,0.0,-0.24851823
537078478,0.06987311,0.044513572,1.4505771,0.0,0.0,-0.2483694
537110428,0.06474898,0.053681847,1.402184,0.0,0.0,-0.24280417
537138477,0.076383136,0.059521757,1.1866345,0.0,0.0,-0.23948926
537170413,0.061739765,0.060421377,0.8546583,0.0,0.0,-0.23518524
537202392,0.07258119,0.029381264,0.55923754,0.0,0.0,-0.23869964
537234384,0.056227323,0.04626517,0.42583966,0.0,0.0,-0.23904067
537266409,0.010802034,0.032102205,0.2788487,0.0,0.0,-0.24215567
537297588,0.068926215,0.026413422,0.20795874,0.0,0.0,-0.25664526
537329542,0.031038249,0.032202173,0.13807374,0.0,0.0,-0.27964407
537361573,0.024541207,0.02071408,0.09452614,0.0,0.0,-0.2998019
537393570,-0.009436145,-0.03390789,0.06442463,0.0,0.0,-0.31031227
537425546,-0.021036085,-0.019990066,0.04524833,0.0,0.0,-0.32678336
537457583,0.0033479868,-0.0043583913,0.026578119,0.0,0.0,-0.33145824
537489568,-0.0015217809,-0.038779546,0.016202906,0.0,0.0,-0.34035507
537521579,-0.0023896731,-0.029867752,-0.054508515,0.0,0.0,-0.3458639
537557619,-0.021456212,-0.035760447,-0.12615526,0.0,0.0,-0.34816957
537589606,0.0020848073,-0.02521937,-0.21565153,0.0,0.0,-0.35283524
537620744,-0.009076426,-0.024658937,-0.16965888,0.0,0.0,-0.35818562
537652778,-0.01279128,-0.03678056,-0.13831447,0.0,0.0,-0.35459083
537680747,-0.0010696857,-0.029778985,-0.086413205,0.0,0.0,-0.3541628
537712739,0.0057807853,-0.02936451,-0.07123992,0.0,0.0,-0.3595452
537744811,0.0024256147,-0.026716815,-0.04390947,0.0,0.0,-0.35680932
537776848,0.00479366,-0.019665856,-0.038745884,0.0,0.0,-0.36000746
537808750,-0.00043193978,-0.020841356,-0.027110886,0.0,0.0,-0.35451353
537840774,0.001273109,-0.026583456,-0.026115825,0.0,0.0,-0.35106754
537872764,-0.0031485725,-0.030107262,-0.024768949,0.0,0.0,-0.36568582
537904860,-0.013221035,-0.032656845,-0.0151827745,0.0,0.0,-0.39344162
537936741,-0.002786492,-0.015594257,-0.0129329,0.0,0.0,-0.40627927
537968762,-0.014248168,-0.02424021,-0.007708058,0.0,0.0,-0.372844
538000055,-0.0023586995,-0.03058209,-0.004072763,0.0,0.0,-0.3374447
538031970,-0.022864738,-0.02534395,-0.0035715697,0.0,0.0,-0.33338308
538063954,0.0034093366,-0.026415216,-0.0010678376,0.0,0.0,-0.33243498
538095974,-0.004926131,-0.019475857,-0.001369853,0.0,0.0,-0.33439186
538127995,-0.017066322,-0.021414703,-0.00011404406,0.0,0.0,-0.3379961
538160069,-0.017652178,-0.02105515,-0.00022304896,0.0,0.0,-0.338558
538191949,-0.008001448,-0.014087575,1.1975644e-06,0.0,0.0,-0.3467743
538223976,-0.023117475,-0.012791104,0.00022875477,0.0,0.0,-0.3469028
538255986,-0.022067314,-0.015990226,0.0011088859,0.0,0.0,-0.34905064
538288029,-0.005965419,-0.020226207,0.0008617921,0.0,0.0,-0.34993976
538319938,-0.0127736395,-0.014977553,0.0018212574,0.0,0.0,-0.34980163
538351162,-0.007990138,-0.018014267,0.0014273945,0.0,0.0,-0.34882316
538383198,-0.019720625,-0.012951761,0.00029426237,0.0,0.0,-0.35197195
538415187,-0.017771218,-0.0064767078,0.0017124531,0.0,0.0,-0.3529274
538447220,-0.013363704,-0.005951209,0.0008788208,0.0,0.0,-0.35335737
538475146,-0.016675336,-0.007118973,0.0018839535,0.0,0.0,-0.3523259
538507261,-0.014113624,-0.008074271,0.00093390525,0.0,0.0,-0.35341918
538539254,-0.017430259,-0.0019218292,0.0017913978,0.0,0.0,-0.3517932
538571181,0.0015040842,0.0013018978,0.0017349564,0.0,0.0,-0.35394478
538603162,-0.014242776,0.004000299,-0.00011303338,0.0,0.0,-0.3539179
538635166,0.008756686,0.004546248,0.001526885,0.0,0.0,-0.35441524
538667238,-0.018250778,0.013771873,0.0007841767,0.0,0.0,-0.3532703
538701626,-0.0071498463,0.012502862,-0.0003592338,0.0,0.0,-0.35285553
538734409,-0.00097633735,0.016788695,0.0016205423,0.0,0.0,-0.35523137
538766396,-0.005395261,0.009630395,0.0007012223,0.0,0.0,-0.3571948
538798603,-0.0047733597,0.0081008915,0.0016120396,0.0,0.0,-0.35605833
538830340,-0.015944999,0.028455779,0.00088700355,0.0,0.0,-0.3576716
538862446,-0.0015678043,0.021608783,-0.000722871,0.0,0.0,-0.359913
538894399,-0.029789472,0.03329121,0.0005124478,0.0,0.0,-0.35807723
538926431,0.0022786579,0.024151865,-8.8052155e-05,0.0,0.0,-0.35869566
538958425,-0.003825114,0.012119281,0.0014418428,0.0,0.0,-0.35730955
538986368,-0.023791045,0.029967055,0.0025883187,0.0,0.0,-0.35597995
539018443,0.0029422052,0.024367964,0.0071061663,0.0,0.0,-0.35494405
539050397,-0.025498582,0.030985912,0.01145577,0.0,0.0,-0.35535556
539082395,8.638113e-06,0.03475239,0.01525888,0.0,0.0,-0.35341004
539113559,-0.0033934836,0.027988194,0.019658756,0.0,0.0,-0.3535066
539145631,-0.004663162,0.03802854,0.02286608,0.0,0.0,-0.35018298
539177577,-0.007976658,0.027521012,0.026654555,0.0,0.0,-0.35409465
539209585,0.0037766541,0.036459483,0.02950824,0.0,0.0,-0.3521589
539241562,-0.017915182,0.032123603,0.032561295,0.0,0.0,-0.35317773
539269620,-0.0107074715,0.028742408,0.03478654,0.0,0.0,-0.35385615
539301580,0.004862389,0.033350684,0.03722334,0.0,0.0,-0.36475775
539333611,-0.012938832,0.030945815,0.039808996,0.0,0.0,-0.36964202
539365571,-0.00075163756,0.029291118,0.04168652,0.0,0.0,-0.39994907
539397621,-0.0063967453,0.02498116,0.043597057,0.0,0.0,-0.41059798
539429539,-0.014343175,0.032652047,0.044546366,0.0,0.0,-0.43011886
539461552,-0.0154406205,0.024268067,0.045233283,0.0,0.0,-0.44413763
539492785,-0.0006571565,0.010123658,0.046103306,0.0,0.0,-0.44867402
539524867,-0.013979012,0.028219955,0.046201702,0.0,0.0,-0.45359054
539560818,-0.0012309036,0.030177247,0.04594213,0.0,0.0,-0.45985126
539592738,-0.01859908,0.016310332,0.04557019,0.0,0.0,-0.45891085
539624783,-0.015001642,0.011349623,0.04513944,0.0,0.0,-0.46382907
539656740,0.02124246,0.013632677,0.042768843,0.0,0.0,-0.46400264
539688800,0.014739484,0.033970926,0.04024343,0.0,0.0,-0.46221352
539720843,0.013381122,0.013841588,0.03973524,0.0,0.0,-0.4569806
539752793,0.011732774,0.032192253,0.037158806,0.0,0.0,-0.45940593
539780892,-0.00039565004,0.006057736,0.03581574,0.0,0.0,-0.45057154
539812734,0.020883307,0.025639178,0.031820327,0.0,0.0,-0.42261085
539844032,0.03479124,0.037562765,0.02860296,0.0,0.0,-0.3794399
539875978,0.025941089,0.03362135,0.025303721,0.0,0.0,-0.37033588
539907964,0.052455693,0.01690062,0.02251721,0.0,0.0,-0.35200796
539939973,0.05295823,0.027537644,0.018597152,0.0,0.0,-0.35686323
539972028,0.047392,0.040490024,0.014933277,0.0,0.0,-0.3579801
540004028,0.050802182,0.030725272,0.012227264,0.0,0.0,-0.35785136
540035984,0.057010908,0.03250365,0.009001824,0.0,0.0,-0.34869474
540067937,0.06733551,0.02833232,0.006104109,0.0,0.0,-0.34134668
540100081,0.06661726,0.03445298,0.0031204422,0.0,0.0,-0.34496617
540131990,0.055116847,0.024333192,0.00096470676,0.0,0.0,-0.36249232
540162407,0.066806525,0.014704551,-0.0008642185,0.0,0.0,-0.36535633
540195143,0.047187172,0.023946758,-0.0033425437,0.0,0.0,-0.36028084
540227282,0.07255975,0.022384003,-0.005347661,0.0,0.0,-0.36202142
540259186,0.063329235,0.018704012,-0.006927596,0.0,0.0,-0.36095598
540291190,0.03896233,0.02137219,-0.008581698,0.0,0.0,-0.36668968
540323230,0.05764081,0.012595581,-0.009751064,0.0,0.0,-0.36875218
540355227,0.03001648,0.02425124,-0.011478358,0.0,0.0,-0.36508715
540387255,0.05214754,0.0028346858,-0.011473948,0.0,0.0,-0.36226317
540419144,0.04219459,0.007977956,-0.0122243995,0.0,0.0,-0.3579133
540451185,0.031287726,0.018611819,-0.013167694,0.0,0.0,-0.35963106
540483188,0.038782552,0.0018722024,-0.012304242,0.0,0.0,-0.36577386
540515204,0.025631214,0.013435128,-0.012573373,0.0,0.0,-0.36594105
540547209,0.028853862,-0.0033457992,-0.011253912,0.0,0.0,-0.36079028
540578386,0.022586621,0.004119157,-0.010632071,0.0,0.0,-0.35649496
540610454,0.016251538,0.012566784,-0.010250867,0.0,0.0,-0.3591453
540642453,0.0062476825,0.0009641029,-0.0086152805,0.0,0.0,-0.36010996
540674391,0.0021699101,0.0072169476,-0.007827112,0.0,0.0,-0.36836475
540706385,-0.0023607404,-0.0030685926,-0.006221497,0.0,0.0,-0.37572542
540738439,-0.0077967234,-0.0041796938,-0.005007302,0.0,0.0,-0.373697
540770346,-0.01671743,-0.00056916184,-0.0039538583,0.0,0.0,-0.38813332
540802515,-0.01268538,-0.0066927746,-0.0024401224,0.0,0.0,-0.38403434
540834394,-0.02739285,-0.0043508243,-0.0013869442,0.0,0.0,-0.37724128
540865613,-0.009532654,-0.0008841419,-0.00042733736,0.0,0.0,-0.37722528
540897570,-0.031671263,-0.007196967,0.00090616173,0.0,0.0,-0.37490386
540929587,-0.01682178,-0.0022664315,0.0018152184,0.0,0.0,-0.3733874
540961636,-0.024117315,0.0023491099,0.002577813,0.0,0.0,-0.3723248
540993610,-0.017369622,-0.0049935575,0.003992233,0.0,0.0,-0.3773757
541025540,-0.023644311,0.003209658,0.0046007335,0.0,0.0,-0.37423337
541057562,-0.012437913,-0.0023817022,0.0059159817,0.0,0.0,-0.37676817
541089575,-0.020896807,0.013416245,0.0062798914,0.0,0.0,-0.37585774
541121635,-0.019319901,0.01118046,0.007404216,0.0,0.0,-0.37593937
541153541,-0.017544879,0.0069161765,0.008434655,0.0,0.0,-0.37203842
541185557,-0.007853374,-0.0049227867,0.009677361,0.0,0.0,-0.36919615
541216784,-0.01993471,0.0040431074,0.009984666,0.0,0.0,-0.36919647
541248826,-0.0017338957,-0.0051828153,0.010800865,0.0,0.0,-0.36887673
541280803,-0.0017251142,0.0031861465,0.010776778,0.0,0.0,-0.36930436
541312742,-0.0110224085,0.009802374,0.010863394,0.0,0.0,-0.36910933
541344807,0.0018914376,-0.003300052,0.011525197,0.0,0.0,-0.37425986
541376788,-0.011998448,0.013109693,0.011054994,0.0,0.0,-0.37330276
541408741,0.008545504,-0.0031777404,0.011618514,0.0,0.0,-0.3686615
541444784,0.0052617253,-0.0010012247,0.011184394,0.0,0.0,-0.3538801
541476818,0.010620624,0.008588831,0.0111516565,0.0,0.0,-0.34996316
541508774,0.009784061,-0.0022926196,0.011810943,0.0,0.0,-0.35049805
541540872,0.018721707,-0.00068525836,0.012101945,0.0,0.0,-0.34909004
541571978,0.0063444027,-0.001410187,0.012498622,0.0,0.0,-0.35047057
541603997,0.018002886,0.0025617215,0.012723165,0.0,0.0,-0.35600966
541631927,0.0038382171,-0.0006747396,0.01315661,0.0,0.0,-0.36525998
541663947,-0.0015061322,-0.008136355,0.014070295,0.0,0.0,-0.38496554
541695979,-0.0045995475,-0.0016169923,0.01428001,0.0,0.0,-0.38875183
541727995,-0.015519764,-0.006439855,0.014766165,0.0,0.0,-0.39859158
541763905,-0.0020214946,-0.0024015617,0.015186278,0.0,0.0,-0.38817424
541791939,-0.007837026,-0.008756118,0.0158147,0.0,0.0,-0.3831313
541823959,-0.018546456,0.0018274148,0.01583731,0.0,0.0,-0.36504787
541855988,-0.01041558,-0.008252421,0.016477816,0.0,0.0,-0.35724726
541888003,-0.012832108,-0.008365706,0.016865926,0.0,0.0,-0.3512599
541923270,-0.011871811,-0.016499339,0.018041333,0.0,0.0,-0.35068458
541955203,-0.019567927,-0.012025116,0.01820759,0.0,0.0,-0.35850438
541987263,-0.008278779,-0.009780092,0.018641267,0.0,0.0,-0.36102942
542019174,-0.0146666,-0.009445683,0.019236716,0.0,0.0,-0.3594785
542051236,-0.0018583543,-0.014680657,0.020025376,0.0,0.0,-0.36121798
542083244,-0.0032721988,-0.014641925,0.020726059,0.0,0.0,-0.36151642
542115251,-0.0090474505,-0.020390183,0.02164359,0.0,0.0,-0.3600577
542143264,0.0040607,-0.016210016,0.02267419,0.0,0.0,-0.3636096
542175178,-0.008762807,-0.024542024,0.023753596,0.0,0.0,-0.36470133
542207225,-0.0053577563,-0.021470042,0.024215363,0.0,0.0,-0.3777864
542239207,-0.0056260377,-0.019264333,0.024806635,0.0,0.0,-0.37803367
542271138,-0.012697287,-0.0223738,0.025492685,0.0,0.0,-0.37486765
542301649,-0.02023594,-0.011569744,0.025530793,0.0,0.0,-0.3718388
542334388,-0.005809718,-0.033660255,0.02679953,0.0,0.0,-0.3802847
542366355,-0.033817496,-0.015352842,0.026298154,0.0,0.0,-0.38355026
542398343,-0.024945268,-0.016715804,0.026674211,0.0,0.0,-0.38551345
542430374,-0.01950614,-0.023312267,0.027105251,0.0,0.0,-0.38463384
542458399,-0.0125748,-0.012878839,0.026862526,0.0,0.0,-0.3778532
542490364,-0.023433793,-0.026340643,0.027159708,0.0,0.0,-0.37010747
542522460,-0.021507628,-0.020381164,0.02704043,0.0,0.0,-0.36771765
542554377,0.00078870915,-0.018333813,0.02693875,0.0,0.0,-0.3703229
542586356,-0.014611626,-0.027703052,0.027234176,0.0,0.0,-0.37106776
542617548,0.0053287707,-0.011564053,0.026991813,0.0,0.0,-0.38600293
542650392,-0.0052286033,-0.022952717,0.027312575,0.0,0.0,-0.40404338
542682455,-0.0033258225,-0.0059513105,0.026791764,0.0,0.0,-0.40461162
542713582,-0.0072008367,-0.007943282,0.026772542,0.0,0.0,-0.40552652
542745575,-0.0013229147,-0.015258766,0.027009778,0.0,0.0,-0.40578496
542777634,-0.013789189,-0.014524321,0.026493555,0.0,0.0,-0.39315963
542809578,-0.014845167,-0.017560245,0.026203876,0.0,0.0,-0.39185807
542841535,-0.010363273,0.0010016648,0.025514405,0.0,0.0,-0.394399
542873566,-0.003568661,-0.013289626,0.025813079,0.0,0.0,-0.40447372
542905584,-0.0141731445,-0.0054033534,0.025564061,0.0,0.0,-0.41484007
542937591,-0.022062372,-0.010439503,0.02563904,0.0,0.0,-0.41626915
542969546,-0.0057227607,-0.004752981,0.0253917,0.0,0.0,-0.40904143
543001583,-0.014920134,-0.0038846834,0.024842752,0.0,0.0,-0.40532967
543033575,-0.011818405,0.0062176147,0.023752086,0.0,0.0,-0.39672598
543064870,-0.035082545,-0.004117855,0.023630096,0.0,0.0,-0.39061728
543096783,-0.017452588,0.004293441,0.02323403,0.0,0.0,-0.38788402
543128787,-0.018736089,0.026036374,0.02232378,0.0,0.0,-0.38285667
543160860,-0.018725265,0.015345472,0.022117745,0.0,0.0,-0.38718322
543192738,-0.036721315,0.012550042,0.02163045,0.0,0.0,-0.3820004
543224878,-0.016848784,0.021284016,0.020553038,0.0,0.0,-0.38666365
543256774,-0.021144457,0.016791834,0.019779366,0.0,0.0,-0.3926662
543288789,-0.033168048,0.0151297245,0.019160522,0.0,0.0,-0.41281673
543320797,-0.023063835,0.011464687,0.018911608,0.0,0.0,-0.4127832
543352740,-0.019114207,0.02025952,0.018426882,0.0,0.0,-0.4050681
543385012,-0.0010825483,0.0061919815,0.018104324,0.0,0.0,-0.39478648
543419942,-0.009093933,0.016058404,0.017476687,0.0,0.0,-0.38583338
543451985,0.00075584016,0.025588129,0.016876291,0.0,0.0,-0.3901537
543484014,0.007407444,0.014943521,0.016850593,0.0,0.0,-0.3923608
543516035,0.0049438337,0.016183188,0.016596751,0.0,0.0,-0.3772383
543547945,0.029445836,0.018359901,0.016443964,0.0,0.0,-0.3563677
543579978,0.026197959,0.028934263,0.01615199,0.0,0.0,-0.3429413
543611996,0.03225494,0.030450022,0.015628697,0.0,0.0,-0.32345954
543644040,0.026083143,0.02324889,0.015071148,0.0,0.0,-0.32654652
543675940,0.032421604,0.02449868,0.014478578,0.0,0.0,-0.35639775
543707292,0.022283636,0.01324975,0.014123352,0.0,0.0,-0.39608628
543739168,0.023696821,0.0046055927,0.0139973825,0.0,0.0,-0.3864234
543767270,0.018134696,0.010033111,0.013332358,0.0,0.0,-0.3955801
543799227,0.017007148,-0.0043393974,0.012985106,0.0,0.0,-0.4096024
543831145,0.010012406,0.008893591,0.012363539,0.0,0.0,-0.4266057
543863314,0.008204915,0.0012965964,0.0117896525,0.0,0.0,-0.4351939
543895183,-0.008566694,-0.00548391,0.010876592,0.0,0.0,-0.41494128
543927298,0.00035477433,-0.0067105438,0.009635304,0.0,0.0,-0.40069863
543959178,0.0053269365,-0.0051176944,0.008321944,0.0,0.0,-0.39569262
543991142,-0.007907453,-0.0013402198,0.007680315,0.0,0.0,-0.40239018
544023245,-0.0075386353,-0.009873057,0.007374036,0.0,0.0,-0.40347624
544055193,-0.016899543,-0.016207434,0.0072088777,0.0,0.0,-0.42136905
544087278,-0.005161547,-0.016731877,0.0068668807,0.0,0.0,-0.43915024
544118432,-0.007110387,-0.01833098,0.0064776065,0.0,0.0,-0.44757324
544150408,-0.009971694,-0.018722406,0.0056325966,0.0,0.0,-0.4609936
544182407,-0.0088579375,-0.0050968924,0.0049968874,0.0,0.0,-0.44017833
544214355,-0.016134828,-0.028204693,0.0052412185,0.0,0.0,-0.4192792
544246393,-0.006151151,-0.020037388,0.005118382,0.0,0.0,-0.4080752
544274338,-0.011915255,-0.026248211,0.004831318,0.0,0.0,-0.4003982
544306442,-0.005432056,-0.021322917,0.0049544484,0.0,0.0,-0.39672604
544338385,-0.004011152,-0.023820667,0.0049410313,0.0,0.0,-0.40536335
544370388,-0.026609955,-0.022354072,0.0048361835,0.0,0.0,-0.41532004
544402373,-0.017458992,-0.017259374,0.00445032,0.0,0.0,-0.41055122
544434381,-0.019732632,-0.017353332,0.0037712704,0.0,0.0,-0.40701658
544469507,-0.0072215833,-0.013951958,0.0022549992,0.0,0.0,-0.39952922
544501572,-0.026595933,-0.0078198295,0.001600227,0.0,0.0,-0.38776663
544533584,-0.01469525,-0.0058157477,0.0010299841,0.0,0.0,-0.3730185
544565633,-0.023728387,-0.014711629,0.0006182718,0.0,0.0,-0.38273728
544597589,-0.020579942,-0.006287612,-0.00018586344,0.0,0.0,-0.4126735
544629565,-0.026403809,-0.004007688,-0.0012590181,0.0,0.0,-0.43239424
544661623,-0.032732345,-0.0056791753,-0.0022903539,0.0,0.0,-0.44045892
544693552,-0.019033404,-0.0075492417,-0.003745016,0.0,0.0,-0.43483818
544725642,-0.025720643,-0.0003115583,-0.004938836,0.0,0.0,-0.43478364
544757575,-0.029684132,-0.0017385021,-0.0055541443,0.0,0.0,-0.4123302
544788774,-0.024079412,0.0049803145,-0.0065364656,0.0,0.0,-0.3844797
544820752,-0.030137401,-0.0005202257,-0.007603596,0.0,0.0,-0.38290513
544848795,-0.02867847,0.0054590167,-0.008748478,0.0,0.0,-0.3880152
544880775,-0.032468032,0.0016471179,-0.009619238,0.0,0.0,-0.39898324
544912784,-0.03414952,0.010698722,-0.010854387,0.0,0.0,-0.42864865
544944888,-0.036398683,0.0026202418,-0.011801364,0.0,0.0,-0.42887422
544976796,-0.032921147,0.014814216,-0.012909624,0.0,0.0,-0.40866044
545008803,-0.027985735,0.02400236,-0.014191169,0.0,0.0,-0.38802975
545040765,-0.030367842,0.018405909,-0.014863372,0.0,0.0,-0.3932386
545072785,-0.034473233,-0.060777012,-0.013889658,0.0,0.0,-0.40334162
545104868,-0.035993442,-0.09882639,-0.013811615,0.0,0.0,-0.40338755
545136735,-0.029886743,-0.17776898,-0.012855166,0.0,0.0,-0.42807832
545167965,-0.037148014,-0.24671033,-0.012579985,0.0,0.0,-0.44924814
545200009,-0.030302854,-0.28672943,-0.012361492,0.0,0.0,-0.43555623
545231939,-0.02536562,-0.36963233,-0.011355367,0.0,0.0,-0.42342505
545263984,-0.026411017,-0.3989914,-0.011633966,0.0,0.0,-0.4130165
545295955,-0.030835878,-0.50013834,-0.011160097,0.0,0.0,-0.38852382
545328019,-0.030986857,-0.5442306,-0.011423539,0.0,0.0,-0.3913106
545359991,-0.020816725,-0.56323934,-0.01032458,0.0,0.0,-0.3958825
545388053,-0.032313302,-0.60189563,-0.011757762,0.0,0.0,-0.39939559
545419957,-0.031999327,-0.6113607,-0.0122145135,0.0,0.0,-0.40339914
545451997,-0.02377447,-0.6229953,-0.011131582,0.0,0.0,-0.4126051
545483958,-0.023363717,-0.5938918,-0.01184329,0.0,0.0,-0.42514962
545515192,-0.03450295,-0.6055955,-0.013736009,0.0,0.0,-0.43387872
545547259,-0.03158222,-0.6075985,-0.012956541,0.0,0.0,-0.43664426
545579208,-0.02142551,-0.6359171,-0.01066744,0.0,0.0,-0.42948204
545611227,-0.022671238,-0.607163,-0.010997807,0.0,0.0,-0.41464227
545643243,-0.03593696,-0.5105219,-0.01431578,0.0,0.0,-0.4013003
545671194,-0.0250073,-0.43155408,-0.014288521,0.0,0.0,-0.39075527
545703186,-0.027074208,-0.4095118,-0.014831681,0.0,0.0,-0.39287007
545735142,-0.023475463,-0.37742352,-0.0149551425,0.0,0.0,-0.39727625
545767446,-0.030834338,-0.29749134,-0.016766047,0.0,0.0,-0.39265454
545799169,-0.030642884,-0.19232103,-0.017967816,0.0,0.0,-0.4020007
545831246,-0.013816994,-0.040489618,-0.019514034,0.0,0.0,-0.3923408
545861632,-0.017056815,0.020424338,-0.020296177,0.0,0.0,-0.39120176
545894391,-0.014340327,0.14491123,-0.02186675,0.0,0.0,-0.3913473
545926508,-0.0037019544,0.2301754,-0.02297943,0.0,0.0,-0.3957493
545958368,-0.01595082,0.3334834,-0.02278162,0.0,0.0,-0.39199033
545986483,-0.0043018353,0.3673888,-0.023311682,0.0,0.0,-0.38656604
546018350,-0.004261365,0.48022726,-0.024501676,0.0,0.0,-0.363502
546050384,-0.009567334,0.5993867,-0.024525223,0.0,0.0,-0.34381983
546082397,0.007812424,0.63214976,-0.027019087,0.0,0.0,-0.3379074
546114436,0.009163885,0.6227795,-0.026168114,0.0,0.0,-0.33284682
546146345,0.007926873,0.5346975,-0.024394117,0.0,0.0,-0.34569347
546178379,-0.015029225,0.4031859,-0.019803932,0.0,0.0,-0.37079936
546210405,0.009124652,0.3519955,-0.021028569,0.0,0.0,-0.38687044
546245723,-0.020810548,0.35402903,-0.018052788,0.0,0.0,-0.38533193
546273532,0.0018721413,0.32100728,-0.01887602,0.0,0.0,-0.3989724
546305733,0.001023281,0.28547582,-0.017418623,0.0,0.0,-0.39975646
546337577,0.0025665872,0.21730979,-0.015737144,0.0,0.0,-0.423711
546369635,0.0025840842,0.23895572,-0.015020402,0.0,0.0,-0.45198825
546405675,0.00078768394,0.20933649,-0.014164737,0.0,0.0,-0.45565242
546437572,0.006270428,0.16569231,-0.012776384,0.0,0.0,-0.4422173
546465621,0.00601498,0.129734,-0.012041634,0.0,0.0,-0.43783528
546497589,0.014025398,0.12431577,-0.011738493,0.0,0.0,-0.43045822
546529578,0.029279992,0.15158316,-0.012554299,0.0,0.0,-0.417227
546561546,0.015671626,0.15598555,-0.012518236,0.0,0.0,-0.4118568
546593615,0.021748252,0.22922987,-0.013784958,0.0,0.0,-0.39030004
546628746,0.045687165,0.25091246,-0.015900195,0.0,0.0,-0.3875222
546660792,0.03414097,0.23842832,-0.015459544,0.0,0.0,-0.38854986
546692781,0.023732781,0.27186033,-0.015790813,0.0,0.0,-0.38870794
546724810,0.018374521,0.28753376,-0.016429454,0.0,0.0,-0.38875127
546756764,0.035054613,0.2997006,-0.018698746,0.0,0.0,-0.39777267
546784773,0.029314235,0.27823278,-0.01844582,0.0,0.0,-0.39881217
546816772,0.016710946,0.26134098,-0.018052034,0.0,0.0,-0.39800715
546848811,0.0146131,0.23510727,-0.018226635,0.0,0.0,-0.39146292
546880750,0.026915293,0.22307074,-0.019248614,0.0,0.0,-0.39531517
546911944,0.010425756,0.24865772,-0.018913412,0.0,0.0,-0.40881506
546943993,0.015006536,0.25622612,-0.019681916,0.0,0.0,-0.4137353
546975993,0.021543505,0.25621364,-0.020661628,0.0,0.0,-0.41642064
547008019,0.0064101047,0.26164988,-0.020052103,0.0,0.0,-0.4186368
547039941,0.009162905,0.26966935,-0.020322382,0.0,0.0,-0.42063975
547071984,0.014638242,0.2438229,-0.02018429,0.0,0.0,-0.42420304
547103968,0.0068498156,0.2430496,-0.019596973,0.0,0.0,-0.43631825
547135941,0.005640689,0.21441717,-0.019089673,0.0,0.0,-0.44731537
547167964,-0.004615974,0.18092026,-0.017708238,0.0,0.0,-0.45524168
547199955,0.0049162065,0.16809675,-0.017254844,0.0,0.0,-0.44650796
547231993,0.0042914613,0.16797565,-0.01623671,0.0,0.0,-0.43499324
547263949,0.0063104182,0.17527743,-0.015908033,0.0,0.0,-0.42019227
547295975,0.00353744,0.16918328,-0.015725529,0.0,0.0,-0.38262755
547327484,0.00024683453,0.16529153,-0.015282186,0.0,0.0,-0.3767707
547359182,0.020148026,0.12976581,-0.015038593,0.0,0.0,-0.3636036
547395218,0.0049188226,0.118011676,-0.013363987,0.0,0.0,-0.36937043
547427423,0.010566272,0.09536917,-0.012911376,0.0,0.0,-0.3735192
547459139,0.0035817786,0.08083932,-0.012226709,0.0,0.0,-0.36771595
547491220,0.0013428418,0.06608545,-0.011727147,0.0,0.0,-0.36642733
547519149,-0.0016753448,0.06402627,-0.011643377,0.0,0.0,-0.3680424
547551188,6.2880754e-05,0.06144824,-0.011251334,0.0,0.0,-0.36717486
547583179,-0.00928708,0.035302117,-0.010135514,0.0,0.0,-0.369843
547615226,-0.0018116035,-0.022870785,-0.008499318,0.0,0.0,-0.38027114
547645614,-0.0031074516,-0.027374782,-0.0074641486,0.0,0.0,-0.38424397
547678379,-0.008175477,-0.07267204,-0.005469737,0.0,0.0,-0.3878566
547710445,-0.012430707,-0.046402402,-0.004401328,0.0,0.0,-0.39301133
547742399,-0.010701482,-0.018299635,-0.0030362187,0.0,0.0,-0.39114124
547774349,-0.00507459,-0.013555366,-0.0011986354,0.0,0.0,-0.39039934
547806392,-0.014351809,-0.017961767,0.0007727341,0.0,0.0,-0.38347983
547834386,-0.0038841444,-0.06622401,0.0036124354,0.0,0.0,-0.39089763
547866396,0.00097295945,-0.060071982,0.005940228,0.0,0.0,-0.40050253
547898446,0.0042507043,-0.05628099,0.008215626,0.0,0.0,-0.4032376
547930346,-0.0057315244,-0.024532901,0.010150934,0.0,0.0,-0.39404345
547962354,0.019843401,-0.028343538,0.012917318,0.0,0.0,-0.39518684
547993594,0.0064771622,-0.045246135,0.015468299,0.0,0.0,-0.3999154
548025619,0.013422648,-0.04410156,0.018073412,0.0,0.0,-0.40845457
548057529,0.014336301,-0.05803394,0.020547647,0.0,0.0,-0.41793522
548089677,0.027427,-0.046782386,0.022495545,0.0,0.0,-0.41728196
548121572,0.021651298,0.0027627882,0.02349162,0.0,0.0,-0.40697813
548153614,0.033666283,0.01960901,0.02464275,0.0,0.0,-0.40488085
548185548,0.028804617,0.015975289,0.026161224,0.0,0.0,-0.41315556
548217535,0.026031747,-0.0018421471,0.027630532,0.0,0.0,-0.4354954
548249655,0.034478933,-0.024929816,0.029211275,0.0,0.0,-0.43872938
