timestamp,voltage_v,voltage_filtered_v,current_a,current_filtered_a,average_current_a,discharged_mah,remaining,scale,temperature,cell_count,voltage_cell_v[0],voltage_cell_v[1],voltage_cell_v[2],voltage_cell_v[3],max_cell_voltage_delta,capacity,cycle_count,run_time_to_empty,average_time_to_empty,serial_number,connected,system_source,priority,is_powering_off,warning
519050777,50.753143,50.761597,0.51411355,0.76652193,0.0,108.12203,1.0,1.0,0.0,12,0.0,0.0,0.0,0.0,0.0,0,0,0,0,0,1,1,0,0,0
519253737,50.77333,50.76001,0.77117026,0.77097356,0.0,108.165886,1.0,1.0,0.0,12,0.0,0.0,0.0,0.0,0.0,0,0,0,0,0,1,1,0,0,0
519457732,50.813705,50.75801,0.77117026,0.770915,0.0,108.20956,1.0,1.0,0.0,12,0.0,0.0,0.0,0.0,0.0,0,0,0,0,0,1,1,0,0,0
519661316,50.813705,50.7565,0.77117026,0.77137375,0.0,108.25317,1.0,1.0,0.0,12,0.0,0.0,0.0,0.0,0.0,0,0,0,0,0,1,1,0,0,0
519864263,50.732956,50.753693,0.77117026,0.76499945,0.0,108.29536,1.0,1.0,0.0,12,0.0,0.0,0.0,0.0,0.0,0,0,0,0,0,1,1,0,0,0
520056113,50.67239,50.751476,0.6426419,0.7685363,0.0,108.33691,1.0,1.0,0.0,12,0.0,0.0,0.0,0.0,0.0,0,0,0,0,0,1,1,0,0,0
520259516,50.753143,50.75102,0.77117026,0.75687236,0.0,108.377914,1.0,1.0,0.0,12,0.0,0.0,0.0,0.0,0.0,0,0,0,0,0,1,1,0,0,0
520463424,50.732956,50.745197,0.77117026,0.7499782,0.0,108.419464,1.0,1.0,0.0,12,0.0,0.0,0.0,0.0,0.0,0,0,0,0,0,1,1,0,0,0
520666533,50.793518,50.74419,0.38558513,0.75979,0.0,108.46386,1.0,1.0,0.0,12,0.0,0.0,0.0,0.0,0.0,0,0,0,0,0,1,1,0,0,0
520870675,50.753143,50.743317,0.77117026,0.7493057,0.0,108.505035,1.0,1.0,0.0,12,0.0,0.0,0.0,0.0,0.0,0,0,0,0,0,1,1,0,0,0
521073726,50.732956,50.74447,0.6426419,0.7647687,0.0,108.550255,1.0,1.0,0.0,12,0.0,0.0,0.0,0.0,0.0,0,0,0,0,0,1,1,0,0,0
521277866,50.712765,50.741722,0.77117026,0.7621099,0.0,108.593124,1.0,1.0,0.0,12,0.0,0.0,0.0,0.0,0.0,0,0,0,0,0,1,1,0,0,0
521481324,50.57145,50.713875,0.77117026,0.75164133,0.0,108.63421,1.0,1.0,0.0,12,0.0,0.0,0.0,0.0,0.0,0,0,0,0,0,1,1,0,0,0
521685033,50.67239,50.70441,1.0282271,0.7575673,0.0,108.67785,1.0,1.0,0.0,12,0.0,0.0,0.0,0.0,0.0,0,0,0,0,0,1,1,0,0,0
521888282,50.611824,50.698803,0.77117026,0.7565692,0.0,108.72041,1.0,1.0,0.0,12,0.0,0.0,0.0,0.0,0.0,0,0,0,0,0,1,1,0,0,0
522091319,50.652203,50.692574,0.77117026,0.74449277,0.0,108.76052,1.0,1.0,0.0,12,0.0,0.0,0.0,0.0,0.0,0,0,0,0,0,1,1,0,0,0
522295454,50.652203,50.688866,1.0282271,0.7704075,0.0,108.807724,1.0,1.0,0.0,12,0.0,0.0,0.0,0.0,0.0,0,0,0,0,0,1,1,0,0,0
522498553,50.591637,50.686756,0.77117026,0.7658358,0.0,108.850365,1.0,1.0,0.0,12,0.0,0.0,0.0,0.0,0.0,0,0,0,0,0,1,1,0,0,0
522702787,50.712765,50.685616,0.77117026,0.7790671,0.0,108.89625,1.0,1.0,0.0,12,0.0,0.0,0.0,0.0,0.0,0,0,0,0,0,1,1,0,0,0
522905859,50.712765,50.68433,0.77117026,0.7725206,0.0,108.93886,1.0,1.0,0.0,12,0.0,0.0,0.0,0.0,0.0,0,0,0,0,0,1,1,0,0,0
523109794,50.652203,50.682987,0.77117026,0.7703832,0.0,108.98211,1.0,1.0,0.0,12,0.0,0.0,0.0,0.0,0.0,0,0,0,0,0,1,1,0,0,0
523313028,50.652203,50.68432,0.77117026,0.771314,0.0,109.02561,1.0,1.0,0.0,12,0.0,0.0,0.0,0.0,0.0,0,0,0,0,0,1,1,0,0,0
523516139,50.732956,50.683907,0.77117026,0.7529644,0.0,109.065254,1.0,1.0,0.0,12,0.0,0.0,0.0,0.0,0.0,0,0,0,0,0,1,1,0,0,0
523708135,50.692577,50.680893,0.77117026,0.76007843,0.0,109.10679,1.0,1.0,0.0,12,0.0,0.0,0.0,0.0,0.0,0,0,0,0,0,1,1,0,0,0
523911458,50.692577,50.67954,0.77117026,0.76143247,0.0,109.1499,1.0,1.0,0.0,12,0.0,0.0,0.0,0.0,0.0,0,0,0,0,0,1,1,0,0,0
524115444,50.652203,50.679,0.77117026,0.76901966,0.0,109.19446,1.0,1.0,0.0,12,0.0,0.0,0.0,0.0,0.0,0,0,0,0,0,1,1,0,0,0
524318673,50.652203,50.67741,0.77117026,0.76312697,0.0,109.236725,1.0,1.0,0.0,12,0.0,0.0,0.0,0.0,0.0,0,0,0,0,0,1,1,0,0,0
524522643,50.652203,50.67578,0.77117026,0.74906623,0.0,109.27741,1.0,1.0,0.0,12,0.0,0.0,0.0,0.0,0.0,0,0,0,0,0,1,1,0,0,0
524726297,50.652203,50.674908,0.89969873,0.7538265,0.0,109.320656,1.0,1.0,0.0,12,0.0,0.0,0.0,0.0,0.0,0,0,0,0,0,1,1,0,0,0
524929978,50.712765,50.673992,0.77117026,0.7588358,0.0,109.364235,1.0,1.0,0.0,12,0.0,0.0,0.0,0.0,0.0,0,0,0,0,0,1,1,0,0,0
525133038,50.652203,50.672264,0.77117026,0.75966334,0.0,109.40727,1.0,1.0,0.0,12,0.0,0.0,0.0,0.0,0.0,0,0,0,0,0,1,1,0,0,0
525336928,50.712765,50.672813,0.77117026,0.77001506,0.0,109.452286,1.0,1.0,0.0,12,0.0,0.0,0.0,0.0,0.0,0,0,0,0,0,1,1,0,0,0
525540270,50.652203,50.670677,1.0282271,0.7711603,0.0,109.49584,1.0,1.0,0.0,12,0.0,0.0,0.0,0.0,0.0,0,0,0,0,0,1,1,0,0,0
525743436,50.611824,50.67126,0.77117026,0.7643766,0.0,109.5381,1.0,1.0,0.0,12,0.0,0.0,0.0,0.0,0.0,0,0,0,0,0,1,1,0,0,0
525947966,50.45032,50.630424,0.77117026,0.7613526,0.0,109.58108,1.0,1.0,0.0,12,0.0,0.0,0.0,0.0,0.0,0,0,0,0,0,1,1,0,0,0
526150633,50.248436,50.58399,0.77117026,0.77145976,0.0,109.62573,1.0,1.0,0.0,12,0.0,0.0,0.0,0.0,0.0,0,0,0,0,0,1,1,0,0,0
526354644,49.885048,50.497707,0.89969873,0.76803344,0.0,109.66858,1.0,1.0,0.0,12,0.0,0.0,0.0,0.0,0.0,0,0,0,0,0,1,1,0,0,0
526557818,49.64279,50.380676,0.77117026,0.7693752,0.0,109.712166,1.0,1.0,0.0,12,0.0,0.0,0.0,0.0,0.0,0,0,0,0,0,1,1,0,0,0
526749859,49.683167,50.26801,0.77117026,0.75463176,0.0,109.75031,1.0,1.0,0.0,12,0.0,0.0,0.0,0.0,0.0,0,0,0,0,0,1,1,0,0,0
526952876,49.703358,50.174423,0.77117026,0.761108,0.0,109.794174,1.0,1.0,0.0,12,0.0,0.0,0.0,0.0,0.0,0,0,0,0,0,1,1,0,0,0
527156272,49.9658,50.104145,0.77117026,0.76684326,0.0,109.83818,1.0,1.0,0.0,12,0.0,0.0,0.0,0.0,0.0,0,0,0,0,0,1,1,0,0,0
527360226,49.885048,50.08668,0.77117026,0.7567405,0.0,109.879745,1.0,1.0,0.0,12,0.0,0.0,0.0,0.0,0.0,0,0,0,0,0,1,1,0,0,0
527564161,49.90524,50.052887,0.77117026,0.7495251,0.0,109.92131,1.0,1.0,0.0,12,0.0,0.0,0.0,0.0,0.0,0,0,0,0,0,1,1,0,0,0
527767600,49.844673,50.02434,0.77117026,0.74961936,0.0,109.963554,1.0,1.0,0.0,12,0.0,0.0,0.0,0.0,0.0,0,0,0,0,0,1,1,0,0,0
527970623,49.8043,49.999054,1.0282271,0.75999224,0.0,110.007935,1.0,1.0,0.0,12,0.0,0.0,0.0,0.0,0.0,0,0,0,0,0,1,1,0,0,0
528174711,49.76392,49.97328,1.0282271,0.76228577,0.0,110.05123,1.0,1.0,0.0,12,0.0,0.0,0.0,0.0,0.0,0,0,0,0,0,1,1,0,0,0
528377737,49.824486,49.954983,0.77117026,0.76052284,0.0,110.09385,1.0,1.0,0.0,12,0.0,0.0,0.0,0.0,0.0,0,0,0,0,0,1,1,0,0,0
528581864,49.784107,49.934715,0.77117026,0.763519,0.0,110.13761,1.0,1.0,0.0,12,0.0,0.0,0.0,0.0,0.0,0,0,0,0,0,1,1,0,0,0
528785059,49.86486,49.91615,0.77117026,0.7496704,0.0,110.17816,1.0,1.0,0.0,12,0.0,0.0,0.0,0.0,0.0,0,0,0,0,0,1,1,0,0,0
528988576,49.885048,49.898914,0.77117026,0.7426647,0.0,110.21924,1.0,1.0,0.0,12,0.0,0.0,0.0,0.0,0.0,0,0,0,0,0,1,1,0,0,0
529192233,49.743732,49.88305,0.6426419,0.739712,0.0,110.26073,1.0,1.0,0.0,12,0.0,0.0,0.0,0.0,0.0,0,0,0,0,0,1,1,0,0,0
529395433,49.784107,49.86798,0.6426419,0.7369654,0.0,110.30214,1.0,1.0,0.0,12,0.0,0.0,0.0,0.0,0.0,0,0,0,0,0,1,1,0,0,0
529599544,49.703358,49.842945,0.77117026,0.7387849,0.0,110.344124,1.0,1.0,0.0,12,0.0,0.0,0.0,0.0,0.0,0,0,0,0,0,1,1,0,0,0
529802624,49.521664,49.81369,0.6426419,0.73657644,0.0,110.38549,1.0,1.0,0.0,12,0.0,0.0,0.0,0.0,0.0,0,0,0,0,0,1,1,0,0,0
529994507,49.56204,49.775856,0.77117026,0.75214845,0.0,110.42787,1.0,1.0,0.0,12,0.0,0.0,0.0,0.0,0.0,0,0,0,0,0,1,1,0,0,0
530197919,49.54185,49.74282,0.77117026,0.7521234,0.0,110.47034,1.0,1.0,0.0,12,0.0,0.0,0.0,0.0,0.0,0,0,0,0,0,1,1,0,0,0
530401025,49.743732,49.747627,0.77117026,0.757857,0.0,110.513824,1.0,1.0,0.0,12,0.0,0.0,0.0,0.0,0.0,0,0,0,0,0,1,1,0,0,0
530605108,49.64279,49.741325,0.77117026,0.74810815,0.0,110.55498,1.0,1.0,0.0,12,0.0,0.0,0.0,0.0,0.0,0,0,0,0,0,1,1,0,0,0
530809083,49.743732,49.742718,0.89969873,0.74301183,0.0,110.59609,1.0,1.0,0.0,12,0.0,0.0,0.0,0.0,0.0,0,0,0,0,0,1,1,0,0,0
531012728,49.501472,49.738136,0.6426419,0.7463911,0.0,110.63885,1.0,1.0,0.0,12,0.0,0.0,0.0,0.0,0.0,0,0,0,0,0,1,1,0,0,0
531215515,49.56204,49.71839,0.77117026,0.7269294,0.0,110.67703,1.0,1.0,0.0,12,0.0,0.0,0.0,0.0,0.0,0,0,0,0,0,1,1,0,0,0
531419416,49.521664,49.710922,0.89969873,0.7365087,0.0,110.71983,1.0,1.0,0.0,12,0.0,0.0,0.0,0.0,0.0,0,0,0,0,0,1,1,0,0,0
531622624,49.945614,49.715908,0.51411355,0.7300947,0.0,110.760376,1.0,1.0,0.0,12,0.0,0.0,0.0,0.0,0.0,0,0,0,0,0,1,1,0,0,0
531826621,49.743732,49.708633,0.77117026,0.73788744,0.0,110.8032,1.0,1.0,0.0,12,0.0,0.0,0.0,0.0,0.0,0,0,0,0,0,1,1,0,0,0
532029754,49.64279,49.686954,0.77117026,0.74547696,0.0,110.84633,1.0,1.0,0.0,12,0.0,0.0,0.0,0.0,0.0,0,0,0,0,0,1,1,0,0,0
532233051,49.683167,49.690453,0.6426419,0.744432,0.0,110.8882,1.0,1.0,0.0,12,0.0,0.0,0.0,0.0,0.0,0,0,0,0,0,1,1,0,0,0
532436925,49.582226,49.67778,0.89969873,0.7455864,0.0,110.93057,1.0,1.0,0.0,12,0.0,0.0,0.0,0.0,0.0,0,0,0,0,0,1,1,0,0,0
532640290,50.00618,49.683895,0.77117026,0.75049466,0.0,110.9737,1.0,1.0,0.0,12,0.0,0.0,0.0,0.0,0.0,0,0,0,0,0,1,1,0,0,0
532844128,49.521664,49.687344,0.77117026,0.7498319,0.0,111.0161,1.0,1.0,0.0,12,0.0,0.0,0.0,0.0,0.0,0,0,0,0,0,1,1,0,0,0
533035463,49.582226,49.67608,0.77117026,0.7495085,0.0,111.05574,1.0,1.0,0.0,12,0.0,0.0,0.0,0.0,0.0,0,0,0,0,0,1,1,0,0,0
533239230,49.66298,49.656544,0.6426419,0.7441054,0.0,111.097275,1.0,1.0,0.0,12,0.0,0.0,0.0,0.0,0.0,0,0,0,0,0,1,1,0,0,0
533442659,49.582226,49.666172,0.77117026,0.73653656,0.0,111.13787,1.0,1.0,0.0,12,0.0,0.0,0.0,0.0,0.0,0,0,0,0,0,1,1,0,0,0
533646631,49.683167,49.659027,0.77117026,0.7560573,0.0,111.183266,1.0,1.0,0.0,12,0.0,0.0,0.0,0.0,0.0,0,0,0,0,0,1,1,0,0,0
533849819,49.64279,49.695515,0.77117026,0.7647714,0.0,111.227615,1.0,1.0,0.0,12,0.0,0.0,0.0,0.0,0.0,0,0,0,0,0,1,1,0,0,0
534053036,50.00618,49.73096,0.77117026,0.7619534,0.0,111.27028,1.0,1.0,0.0,12,0.0,0.0,0.0,0.0,0.0,0,0,0,0,0,1,1,0,0,0
534257150,50.066742,49.778435,1.0282271,0.76707065,0.0,111.31443,1.0,1.0,0.0,12,0.0,0.0,0.0,0.0,0.0,0,0,0,0,0,1,1,0,0,0
534460239,50.00618,49.81172,0.77117026,0.74877995,0.0,111.35408,1.0,1.0,0.0,12,0.0,0.0,0.0,0.0,0.0,0,0,0,0,0,1,1,0,0,0
534664132,50.066742,49.84363,0.6426419,0.7439701,0.0,111.395676,1.0,1.0,0.0,12,0.0,0.0,0.0,0.0,0.0,0,0,0,0,0,1,1,0,0,0
534867529,49.360157,49.858025,0.77117026,0.7475046,0.0,111.4384,1.0,1.0,0.0,12,0.0,0.0,0.0,0.0,0.0,0,0,0,0,0,1,1,0,0,0
535071423,49.178463,49.75249,0.6426419,0.73713875,0.0,111.47864,1.0,1.0,0.0,12,0.0,0.0,0.0,0.0,0.0,0,0,0,0,0,1,1,0,0,0
535274965,49.420723,49.68887,0.77117026,0.727348,0.0,111.518326,1.0,1.0,0.0,12,0.0,0.0,0.0,0.0,0.0,0,0,0,0,0,1,1,0,0,0
535477718,49.259216,49.634953,1.0282271,0.7492954,0.0,111.56338,1.0,1.0,0.0,12,0.0,0.0,0.0,0.0,0.0,0,0,0,0,0,1,1,0,0,0
535681844,49.29959,49.563377,0.6426419,0.7471969,0.0,111.60536,1.0,1.0,0.0,12,0.0,0.0,0.0,0.0,0.0,0,0,0,0,0,1,1,0,0,0
535885025,49.259216,49.51642,1.1567554,0.7641011,0.0,111.65062,1.0,1.0,0.0,12,0.0,0.0,0.0,0.0,0.0,0,0,0,0,0,1,1,0,0,0
536088911,49.178463,49.466038,0.6426419,0.74604034,0.0,111.69046,1.0,1.0,0.0,12,0.0,0.0,0.0,0.0,0.0,0,0,0,0,0,1,1,0,0,0
536292203,49.117897,49.41648,0.77117026,0.74659324,0.0,111.73271,1.0,1.0,0.0,12,0.0,0.0,0.0,0.0,0.0,0,0,0,0,0,1,1,0,0,0
536496277,50.026367,49.466396,0.77117026,0.7531986,0.0,111.776405,1.0,1.0,0.0,12,0.0,0.0,0.0,0.0,0.0,0,0,0,0,0,1,1,0,0,0
536699508,49.844673,49.538574,0.77117026,0.75204426,0.0,111.818596,1.0,1.0,0.0,12,0.0,0.0,0.0,0.0,0.0,0,0,0,0,0,1,1,0,0,0
536903445,49.66298,49.58051,0.6426419,0.7607918,0.0,111.86271,1.0,1.0,0.0,12,0.0,0.0,0.0,0.0,0.0,0,0,0,0,0,1,1,0,0,0
537094480,49.824486,49.60069,0.77117026,0.7459434,0.0,111.900215,1.0,1.0,0.0,12,0.0,0.0,0.0,0.0,0.0,0,0,0,0,0,1,1,0,0,0
537297949,49.683167,49.643257,0.77117026,0.75336677,0.0,111.9438,1.0,1.0,0.0,12,0.0,0.0,0.0,0.0,0.0,0,0,0,0,0,1,1,0,0,0
537501781,49.582226,49.62865,1.0282271,0.7516973,0.0,111.98619,1.0,1.0,0.0,12,0.0,0.0,0.0,0.0,0.0,0,0,0,0,0,1,1,0,0,0
537705082,49.54185,49.615158,0.77117026,0.7559323,0.0,112.0293,1.0,1.0,0.0,12,0.0,0.0,0.0,0.0,0.0,0,0,0,0,0,1,1,0,0,0
537908929,49.279404,49.613937,0.77117026,0.7652164,0.0,112.073845,1.0,1.0,0.0,12,0.0,0.0,0.0,0.0,0.0,0,0,0,0,0,1,1,0,0,0
538112148,49.703358,49.625633,0.77117026,0.7637348,0.0,112.11689,1.0,1.0,0.0,12,0.0,0.0,0.0,0.0,0.0,0,0,0,0,0,1,1,0,0,0
538316267,49.582226,49.62632,0.6426419,0.75862396,0.0,112.15931,1.0,1.0,0.0,12,0.0,0.0,0.0,0.0,0.0,0,0,0,0,0,1,1,0,0,0
538519514,49.683167,49.62803,1.0282271,0.76799905,0.0,112.20371,1.0,1.0,0.0,12,0.0,0.0,0.0,0.0,0.0,0,0,0,0,0,1,1,0,0,0
538721814,49.66298,49.629333,0.6426419,0.74030167,0.0,112.24147,1.0,1.0,0.0,12,0.0,0.0,0.0,0.0,0.0,0,0,0,0,0,1,1,0,0,0
538926707,49.64279,49.627235,0.77117026,0.74290746,0.0,112.284004,1.0,1.0,0.0,12,0.0,0.0,0.0,0.0,0.0,0,0,0,0,0,1,1,0,0,0
539129912,49.582226,49.628555,0.77117026,0.73463553,0.0,112.3241,1.0,1.0,0.0,12,0.0,0.0,0.0,0.0,0.0,0,0,0,0,0,1,1,0,0,0
539321866,49.582226,49.62661,0.77117026,0.7408136,0.0,112.364365,1.0,1.0,0.0,12,0.0,0.0,0.0,0.0,0.0,0,0,0,0,0,1,1,0,0,0
539525123,49.117897,49.561924,0.6426419,0.7510468,0.0,112.40824,1.0,1.0,0.0,12,0.0,0.0,0.0,0.0,0.0,0,0,0,0,0,1,1,0,0,0
539729065,49.279404,49.50181,0.77117026,0.74893117,0.0,112.45022,1.0,1.0,0.0,12,0.0,0.0,0.0,0.0,0.0,0,0,0,0,0,1,1,0,0,0
539932272,49.8043,49.515602,0.77117026,0.7568424,0.0,112.49424,1.0,1.0,0.0,12,0.0,0.0,0.0,0.0,0.0,0,0,0,0,0,1,1,0,0,0
540136138,49.602413,49.53396,0.77117026,0.7558259,0.0,112.53704,1.0,1.0,0.0,12,0.0,0.0,0.0,0.0,0.0,0,0,0,0,0,1,1,0,0,0
540339525,49.461098,49.528603,0.77117026,0.771133,0.0,112.58277,1.0,1.0,0.0,12,0.0,0.0,0.0,0.0,0.0,0,0,0,0,0,1,1,0,0,0
540543445,49.481285,49.530537,0.77117026,0.7663228,0.0,112.6256,1.0,1.0,0.0,12,0.0,0.0,0.0,0.0,0.0,0,0,0,0,0,1,1,0,0,0
540746528,49.380344,49.5281,0.6426419,0.7642656,0.0,112.66868,1.0,1.0,0.0,12,0.0,0.0,0.0,0.0,0.0,0,0,0,0,0,1,1,0,0,0
540949813,49.501472,49.518837,0.77117026,0.76915133,0.0,112.71318,1.0,1.0,0.0,12,0.0,0.0,0.0,0.0,0.0,0,0,0,0,0,1,1,0,0,0
541153724,49.481285,49.51241,0.77117026,0.7588916,0.0,112.75473,1.0,1.0,0.0,12,0.0,0.0,0.0,0.0,0.0,0,0,0,0,0,1,1,0,0,0
541357130,49.420723,49.510963,0.77117026,0.7580433,0.0,112.79749,1.0,1.0,0.0,12,0.0,0.0,0.0,0.0,0.0,0,0,0,0,0,1,1,0,0,0
541560240,49.622604,49.52045,0.6426419,0.746432,0.0,112.838,1.0,1.0,0.0,12,0.0,0.0,0.0,0.0,0.0,0,0,0,0,0,1,1,0,0,0
541752243,49.23903,49.503136,0.77117026,0.7600966,0.0,112.88041,1.0,1.0,0.0,12,0.0,0.0,0.0,0.0,0.0,0,0,0,0,0,1,1,0,0,0
541955484,49.602413,49.51011,0.6426419,0.746004,0.0,112.92058,1.0,1.0,0.0,12,0.0,0.0,0.0,0.0,0.0,0,0,0,0,0,1,1,0,0,0
542159416,49.461098,49.50753,0.77117026,0.75163025,0.0,112.96383,1.0,1.0,0.0,12,0.0,0.0,0.0,0.0,0.0,0,0,0,0,0,1,1,0,0,0
542362640,49.40053,49.495804,1.0282271,0.74935484,0.0,113.00512,1.0,1.0,0.0,12,0.0,0.0,0.0,0.0,0.0,0,0,0,0,0,1,1,0,0,0
542566678,49.582226,49.488583,0.77117026,0.74164575,0.0,113.04582,1.0,1.0,0.0,12,0.0,0.0,0.0,0.0,0.0,0,0,0,0,0,1,1,0,0,0
542769856,49.31978,49.459675,0.77117026,0.74756515,0.0,113.08893,1.0,1.0,0.0,12,0.0,0.0,0.0,0.0,0.0,0,0,0,0,0,1,1,0,0,0
542973718,49.19865,49.435734,0.77117026,0.7581697,0.0,113.133446,1.0,1.0,0.0,12,0.0,0.0,0.0,0.0,0.0,0,0,0,0,0,1,1,0,0,0
543177192,49.420723,49.434902,0.77117026,0.7633065,0.0,113.17705,1.0,1.0,0.0,12,0.0,0.0,0.0,0.0,0.0,0,0,0,0,0,1,1,0,0,0
543381043,49.360157,49.41076,0.77117026,0.76521826,0.0,113.220695,1.0,1.0,0.0,12,0.0,0.0,0.0,0.0,0.0,0,0,0,0,0,1,1,0,0,0
543584324,49.683167,49.42275,0.77117026,0.7597328,0.0,113.26296,1.0,1.0,0.0,12,0.0,0.0,0.0,0.0,0.0,0,0,0,0,0,1,1,0,0,0
543787468,49.178463,49.419556,0.6426419,0.74301517,0.0,113.30266,1.0,1.0,0.0,12,0.0,0.0,0.0,0.0,0.0,0,0,0,0,0,1,1,0,0,0
543991358,49.481285,49.39466,0.77117026,0.7549662,0.0,113.34721,1.0,1.0,0.0,12,0.0,0.0,0.0,0.0,0.0,0,0,0,0,0,1,1,0,0,0
544194543,48.936203,49.347275,0.77117026,0.755706,0.0,113.38991,1.0,1.0,0.0,12,0.0,0.0,0.0,0.0,0.0,0,0,0,0,0,1,1,0,0,0
544386683,49.117897,49.35272,0.77117026,0.7404219,0.0,113.42721,1.0,1.0,0.0,12,0.0,0.0,0.0,0.0,0.0,0,0,0,0,0,1,1,0,0,0
544589887,49.360157,49.356693,0.77117026,0.7478594,0.0,113.47027,1.0,1.0,0.0,12,0.0,0.0,0.0,0.0,0.0,0,0,0,0,0,1,1,0,0,0
544793051,49.501472,49.315464,0.77117026,0.7537157,0.0,113.51379,1.0,1.0,0.0,12,0.0,0.0,0.0,0.0,0.0,0,0,0,0,0,1,1,0,0,0
544996929,49.29959,49.307076,0.77117026,0.75130427,0.0,113.55571,1.0,1.0,0.0,12,0.0,0.0,0.0,0.0,0.0,0,0,0,0,0,1,1,0,0,0
545200246,48.87564,49.28856,0.77117026,0.7621185,0.0,113.60006,1.0,1.0,0.0,12,0.0,0.0,0.0,0.0,0.0,0,0,0,0,0,1,1,0,0,0
545404265,49.23903,49.296062,0.77117026,0.77332336,0.0,113.64546,1.0,1.0,0.0,12,0.0,0.0,0.0,0.0,0.0,0,0,0,0,0,1,1,0,0,0
545607872,49.178463,49.265957,0.77117026,0.75600654,0.0,113.685616,1.0,1.0,0.0,12,0.0,0.0,0.0,0.0,0.0,0,0,0,0,0,1,1,0,0,0
545811477,49.19865,49.27758,0.6426419,0.7512808,0.0,113.727486,1.0,1.0,0.0,12,0.0,0.0,0.0,0.0,0.0,0,0,0,0,0,1,1,0,0,0
546014643,49.360157,49.281967,0.6426419,0.7504493,0.0,113.7697,1.0,1.0,0.0,12,0.0,0.0,0.0,0.0,0.0,0,0,0,0,0,1,1,0,0,0
546217880,48.85545,49.31247,0.77117026,0.7569839,0.0,113.813225,1.0,1.0,0.0,12,0.0,0.0,0.0,0.0,0.0,0,0,0,0,0,1,1,0,0,0
546409822,48.794888,49.267204,0.77117026,0.76007366,0.0,113.85435,1.0,1.0,0.0,12,0.0,0.0,0.0,0.0,0.0,0,0,0,0,0,1,1,0,0,0
546613734,49.420723,49.261047,0.77117026,0.75941664,0.0,113.89718,1.0,1.0,0.0,12,0.0,0.0,0.0,0.0,0.0,0,0,0,0,0,1,1,0,0,0
546817141,49.259216,49.27212,0.77117026,0.75502837,0.0,113.93906,1.0,1.0,0.0,12,0.0,0.0,0.0,0.0,0.0,0,0,0,0,0,1,1,0,0,0
547020117,49.138084,49.260258,0.77117026,0.7481883,0.0,113.980446,1.0,1.0,0.0,12,0.0,0.0,0.0,0.0,0.0,0,0,0,0,0,1,1,0,0,0
547224135,49.057335,49.22137,0.6426419,0.7439314,0.0,114.022026,1.0,1.0,0.0,12,0.0,0.0,0.0,0.0,0.0,0,0,0,0,0,1,1,0,0,0
547427804,49.360157,49.25804,0.6426419,0.7479139,0.0,114.065186,1.0,1.0,0.0,12,0.0,0.0,0.0,0.0,0.0,0,0,0,0,0,1,1,0,0,0
547631315,49.29959,49.272335,0.77117026,0.748405,0.0,114.107475,1.0,1.0,0.0,12,0.0,0.0,0.0,0.0,0.0,0,0,0,0,0,1,1,0,0,0
547834721,49.360157,49.266827,0.89969873,0.75430614,0.0,114.15065,1.0,1.0,0.0,12,0.0,0.0,0.0,0.0,0.0,0,0,0,0,0,1,1,0,0,0
548037878,49.037144,49.256683,0.77117026,0.7413713,0.0,114.190735,1.0,1.0,0.0,12,0.0,0.0,0.0,0.0,0.0,0,0,0,0,0,1,1,0,0,0
548241770,48.85545,49.234146,0.77117026,0.741921,0.0,114.23268,1.0,1.0,0.0,12,0.0,0.0,0.0,0.0,0.0,0,0,0,0,0,1,1,0,0,0
548445057,49.259216,49.234833,0.6426419,0.7405741,0.0,114.27449,1.0,1.0,0.0,12,0.0,0.0,0.0,0.0,0.0,0,0,0,0,0,1,1,0,0,0
548648939,49.44091,49.23802,0.77117026,0.7454123,0.0,114.3173,1.0,1.0,0.0,12,0.0,0.0,0.0,0.0,0.0,0,0,0,0,0,1,1,0,0,0
548852277,48.936203,49.214497,0.6426419,0.7482676,0.0,114.36,1.0,1.0,0.0,12,0.0,0.0,0.0,0.0,0.0,0,0,0,0,0,1,1,0,0,0
549055506,49.117897,49.22066,0.77117026,0.7355612,0.0,114.39968,1.0,1.0,0.0,12,0.0,0.0,0.0,0.0,0.0,0,0,0,0,0,1,1,0,0,0
549259431,49.683167,49.279312,1.0282271,0.7424051,0.0,114.44251,1.0,1.0,0.0,12,0.0,0.0,0.0,0.0,0.0,0,0,0,0,0,1,1,0,0,0
549462522,49.23903,49.296535,0.77117026,0.74741274,0.0,114.48523,1.0,1.0,0.0,12,0.0,0.0,0.0,0.0,0.0,0,0,0,0,0,1,1,0,0,0
549666683,49.117897,49.238102,0.77117026,0.75375456,0.0,114.52899,1.0,1.0,0.0,12,0.0,0.0,0.0,0.0,0.0,0,0,0,0,0,1,1,0,0,0
549869928,48.73432,49.214375,0.77117026,0.7508935,0.0,114.57123,1.0,1.0,0.0,12,0.0,0.0,0.0,0.0,0.0,0,0,0,0,0,1,1,0,0,0
550073670,48.65357,49.134583,0.77117026,0.75417525,0.0,114.61445,1.0,1.0,0.0,12,0.0,0.0,0.0,0.0,0.0,0,0,0,0,0,1,1,0,0,0
550265039,48.75451,49.06896,0.77117026,0.7403164,0.0,114.65172,1.0,1.0,0.0,12,0.0,0.0,0.0,0.0,0.0,0,0,0,0,0,1,1,0,0,0
550469066,48.613194,49.00287,0.77117026,0.7500765,0.0,114.69542,1.0,1.0,0.0,12,0.0,0.0,0.0,0.0,0.0,0,0,0,0,0,1,1,0,0,0
550672639,48.97658,48.95532,0.77117026,0.75228924,0.0,114.73821,1.0,1.0,0.0,12,0.0,0.0,0.0,0.0,0.0,0,0,0,0,0,1,1,0,0,0
550875546,49.037144,48.971416,0.77117026,0.7501995,0.0,114.78002,1.0,1.0,0.0,12,0.0,0.0,0.0,0.0,0.0,0,0,0,0,0,1,1,0,0,0
551079451,48.956394,48.97717,0.77117026,0.7427986,0.0,114.82114,1.0,1.0,0.0,12,0.0,0.0,0.0,0.0,0.0,0,0,0,0,0,1,1,0,0,0
551282546,48.89583,48.97508,0.6426419,0.746794,0.0,114.8638,1.0,1.0,0.0,12,0.0,0.0,0.0,0.0,0.0,0,0,0,0,0,1,1,0,0,0
551486651,49.016956,48.971268,0.77117026,0.74792445,0.0,114.90621,1.0,1.0,0.0,12,0.0,0.0,0.0,0.0,0.0,0,0,0,0,0,1,1,0,0,0
551689794,48.97658,48.965218,0.89969873,0.7531558,0.0,114.94932,1.0,1.0,0.0,12,0.0,0.0,0.0,0.0,0.0,0,0,0,0,0,1,1,0,0,0
551894132,48.87564,48.95088,0.77117026,0.76185656,0.0,114.99395,1.0,1.0,0.0,12,0.0,0.0,0.0,0.0,0.0,0,0,0,0,0,1,1,0,0,0
552097087,48.794888,48.93137,0.77117026,0.76420695,0.0,115.03739,1.0,1.0,0.0,12,0.0,0.0,0.0,0.0,0.0,0,0,0,0,0,1,1,0,0,0
552300289,48.7747,48.90875,0.89969873,0.770523,0.0,115.08181,1.0,1.0,0.0,12,0.0,0.0,0.0,0.0,0.0,0,0,0,0,0,1,1,0,0,0
552492389,48.75451,48.89413,0.77117026,0.76191914,0.0,115.12127,1.0,1.0,0.0,12,0.0,0.0,0.0,0.0,0.0,0,0,0,0,0,1,1,0,0,0
552695471,48.75451,48.86628,0.77117026,0.7508637,0.0,115.16224,1.0,1.0,0.0,12,0.0,0.0,0.0,0.0,0.0,0,0,0,0,0,1,1,0,0,0
552899481,48.73432,48.832825,0.6426419,0.7476343,0.0,115.20423,1.0,1.0,0.0,12,0.0,0.0,0.0,0.0,0.0,0,0,0,0,0,1,1,0,0,0
553102659,48.613194,48.820736,0.77117026,0.7457285,0.0,115.246025,1.0,1.0,0.0,12,0.0,0.0,0.0,0.0,0.0,0,0,0,0,0,1,1,0,0,0
553306674,48.714134,48.78775,0.6426419,0.7483098,0.0,115.2889,1.0,1.0,0.0,12,0.0,0.0,0.0,0.0,0.0,0,0,0,0,0,1,1,0,0,0
553509861,48.73432,48.77439,0.6426419,0.7528564,0.0,115.33199,1.0,1.0,0.0,12,0.0,0.0,0.0,0.0,0.0,0,0,0,0,0,1,1,0,0,0
553713141,48.835262,48.778385,1.0282271,0.77067906,0.0,115.37769,1.0,1.0,0.0,12,0.0,0.0,0.0,0.0,0.0,0,0,0,0,0,1,1,0,0,0
553916866,48.916016,48.789948,0.6426419,0.7668098,0.0,115.420944,1.0,1.0,0.0,12,0.0,0.0,0.0,0.0,0.0,0,0,0,0,0,1,1,0,0,0
554120253,48.956394,48.81498,0.77117026,0.7777761,0.0,115.46622,1.0,1.0,0.0,12,0.0,0.0,0.0,0.0,0.0,0,0,0,0,0,1,1,0,0,0
554312240,49.09771,48.837997,0.77117026,0.7692278,0.0,115.50606,1.0,1.0,0.0,12,0.0,0.0,0.0,0.0,0.0,0,0,0,0,0,1,1,0,0,0
554515604,49.420723,48.916267,0.77117026,0.77053344,0.0,115.54962,1.0,1.0,0.0,12,0.0,0.0,0.0,0.0,0.0,0,0,0,0,0,1,1,0,0,0
554719462,49.420723,48.99179,0.77117026,0.76802224,0.0,115.59287,1.0,1.0,0.0,12,0.0,0.0,0.0,0.0,0.0,0,0,0,0,0,1,1,0,0,0
554922654,49.360157,49.04897,0.77117026,0.76501715,0.0,115.63552,1.0,1.0,0.0,12,0.0,0.0,0.0,0.0,0.0,0,0,0,0,0,1,1,0,0,0
555125864,49.19865,49.08896,0.77117026,0.7627304,0.0,115.67819,1.0,1.0,0.0,12,0.0,0.0,0.0,0.0,0.0,0,0,0,0,0,1,1,0,0,0
555329852,49.44091,49.129166,0.77117026,0.76510245,0.0,115.72191,1.0,1.0,0.0,12,0.0,0.0,0.0,0.0,0.0,0,0,0,0,0,1,1,0,0,0
555532887,49.23903,49.170578,0.77117026,0.76216555,0.0,115.76455,1.0,1.0,0.0,12,0.0,0.0,0.0,0.0,0.0,0,0,0,0,0,1,1,0,0,0
555737431,49.461098,49.210342,0.77117026,0.7578555,0.0,115.80708,1.0,1.0,0.0,12,0.0,0.0,0.0,0.0,0.0,0,0,0,0,0,1,1,0,0,0
555940126,49.461098,49.252113,0.77117026,0.7510952,0.0,115.84866,1.0,1.0,0.0,12,0.0,0.0,0.0,0.0,0.0,0,0,0,0,0,1,1,0,0,0
556144289,49.54185,49.29374,0.77117026,0.75556064,0.0,115.89236,1.0,1.0,0.0,12,0.0,0.0,0.0,0.0,0.0,0,0,0,0,0,1,1,0,0,0
556347469,49.279404,49.32584,0.77117026,0.7527641,0.0,115.934586,1.0,1.0,0.0,12,0.0,0.0,0.0,0.0,0.0,0,0,0,0,0,1,1,0,0,0
556550606,49.279404,49.31199,0.77117026,0.74482584,0.0,115.97553,1.0,1.0,0.0,12,0.0,0.0,0.0,0.0,0.0,0,0,0,0,0,1,1,0,0,0
556754537,49.31978,49.306263,0.77117026,0.7481466,0.0,116.01838,1.0,1.0,0.0,12,0.0,0.0,0.0,0.0,0.0,0,0,0,0,0,1,1,0,0,0
556958013,49.380344,49.303207,0.77117026,0.7607855,0.0,116.0631,1.0,1.0,0.0,12,0.0,0.0,0.0,0.0,0.0,0,0,0,0,0,1,1,0,0,0
557161847,49.29959,49.301453,1.0282271,0.7654015,0.0,116.1072,1.0,1.0,0.0,12,0.0,0.0,0.0,0.0,0.0,0,0,0,0,0,1,1,0,0,0
557353067,49.259216,49.298965,0.6426419,0.76138467,0.0,116.14679,1.0,1.0,0.0,12,0.0,0.0,0.0,0.0,0.0,0,0,0,0,0,1,1,0,0,0
557557372,49.31978,49.300396,0.77117026,0.7469819,0.0,116.18713,1.0,1.0,0.0,12,0.0,0.0,0.0,0.0,0.0,0,0,0,0,0,1,1,0,0,0
557760252,49.360157,49.29846,0.51411355,0.7484777,0.0,116.229744,1.0,1.0,0.0,12,0.0,0.0,0.0,0.0,0.0,0,0,0,0,0,1,1,0,0,0
557963479,49.33997,49.298176,0.77117026,0.757859,0.0,116.27364,1.0,1.0,0.0,12,0.0,0.0,0.0,0.0,0.0,0,0,0,0,0,1,1,0,0,0
558167514,49.259216,49.30065,0.89969873,0.7616141,0.0,116.31737,1.0,1.0,0.0,12,0.0,0.0,0.0,0.0,0.0,0,0,0,0,0,1,1,0,0,0
558370644,49.40053,49.300762,0.89969873,0.7767135,0.0,116.363625,1.0,1.0,0.0,12,0.0,0.0,0.0,0.0,0.0,0,0,0,0,0,1,1,0,0,0
558574522,49.178463,49.30193,0.77117026,0.78194326,0.0,116.408585,1.0,1.0,0.0,12,0.0,0.0,0.0,0.0,0.0,0,0,0,0,0,1,1,0,0,0
558777926,49.44091,49.305332,0.77117026,0.7796191,0.0,116.45215,1.0,1.0,0.0,12,0.0,0.0,0.0,0.0,0.0,0,0,0,0,0,1,1,0,0,0
558980767,49.279404,49.306114,0.77117026,0.77647984,0.0,116.49561,1.0,1.0,0.0,12,0.0,0.0,0.0,0.0,0.0,0,0,0,0,0,1,1,0,0,0
559172887,49.360157,49.310642,1.0282271,0.78458405,0.0,116.53846,1.0,1.0,0.0,12,0.0,0.0,0.0,0.0,0.0,0,0,0,0,0,1,1,0,0,0
559376236,49.279404,49.309975,0.77117026,0.77147704,0.0,116.58028,1.0,1.0,0.0,12,0.0,0.0,0.0,0.0,0.0,0,0,0,0,0,1,1,0,0,0
559580273,49.29959,49.302235,0.51411355,0.7551339,0.0,116.620995,1.0,1.0,0.0,12,0.0,0.0,0.0,0.0,0.0,0,0,0,0,0,1,1,0,0,0
559783469,49.259216,49.300117,0.77117026,0.76408195,0.0,116.665436,1.0,1.0,0.0,12,0.0,0.0,0.0,0.0,0.0,0,0,0,0,0,1,1,0,0,0
559987555,49.259216,49.297993,0.77117026,0.75415885,0.0,116.707016,1.0,1.0,0.0,12,0.0,0.0,0.0,0.0,0.0,0,0,0,0,0,1,1,0,0,0
560190636,49.420723,49.29828,0.89969873,0.755018,0.0,116.74966,1.0,1.0,0.0,12,0.0,0.0,0.0,0.0,0.0,0,0,0,0,0,1,1,0,0,0
560394631,49.19865,49.29177,0.77117026,0.7439761,0.0,116.79031,1.0,1.0,0.0,12,0.0,0.0,0.0,0.0,0.0,0,0,0,0,0,1,1,0,0,0
560597824,49.23903,49.2911,0.77117026,0.7402671,0.0,116.83176,1.0,1.0,0.0,12,0.0,0.0,0.0,0.0,0.0,0,0,0,0,0,1,1,0,0,0
560801157,49.19865,49.28323,0.6426419,0.7563903,0.0,116.876526,1.0,1.0,0.0,12,0.0,0.0,0.0,0.0,0.0,0,0,0,0,0,1,1,0,0,0
561005133,49.279404,49.281506,0.77117026,0.7516241,0.0,116.918495,1.0,1.0,0.0,12,0.0,0.0,0.0,0.0,0.0,0,0,0,0,0,1,1,0,0,0
561208316,49.158276,49.280563,0.77117026,0.7486239,0.0,116.96031,1.0,1.0,0.0,12,0.0,0.0,0.0,0.0,0.0,0,0,0,0,0,1,1,0,0,0
561400131,49.31978,49.2837,0.77117026,0.7479266,0.0,117.000084,1.0,1.0,0.0,12,0.0,0.0,0.0,0.0,0.0,0,0,0,0,0,1,1,0,0,0
561603786,49.279404,49.283802,0.77117026,0.75002426,0.0,117.042854,1.0,1.0,0.0,12,0.0,0.0,0.0,0.0,0.0,0,0,0,0,0,1,1,0,0,0
561807485,49.19865,49.28688,0.77117026,0.7542717,0.0,117.08608,1.0,1.0,0.0,12,0.0,0.0,0.0,0.0,0.0,0,0,0,0,0,1,1,0,0,0
562010598,49.31978,49.29193,0.77117026,0.7592622,0.0,117.129585,1.0,1.0,0.0,12,0.0,0.0,0.0,0.0,0.0,0,0,0,0,0,1,1,0,0,0
562213853,49.23903,49.294003,0.77117026,0.76242024,0.0,117.1732,1.0,1.0,0.0,12,0.0,0.0,0.0,0.0,0.0,0,0,0,0,0,1,1,0,0,0
562417897,49.31978,49.30025,0.77117026,0.76500213,0.0,117.21692,1.0,1.0,0.0,12,0.0,0.0,0.0,0.0,0.0,0,0,0,0,0,1,1,0,0,0
562620937,49.29959,49.30037,0.77117026,0.75412023,0.0,117.25786,1.0,1.0,0.0,12,0.0,0.0,0.0,0.0,0.0,0,0,0,0,0,1,1,0,0,0
562825141,49.259216,49.29946,0.77117026,0.7539693,0.0,117.30073,1.0,1.0,0.0,12,0.0,0.0,0.0,0.0,0.0,0,0,0,0,0,1,1,0,0,0
563028261,49.33997,49.303974,1.0282271,0.754249,0.0,117.342964,1.0,1.0,0.0,12,0.0,0.0,0.0,0.0,0.0,0,0,0,0,0,1,1,0,0,0
563219464,49.31978,49.304745,0.6426419,0.7503025,0.0,117.38226,1.0,1.0,0.0,12,0.0,0.0,0.0,0.0,0.0,0,0,0,0,0,1,1,0,0,0
563423545,49.360157,49.30876,0.77117026,0.7516325,0.0,117.42514,1.0,1.0,0.0,12,0.0,0.0,0.0,0.0,0.0,0,0,0,0,0,1,1,0,0,0
563626831,49.33997,49.313652,0.77117026,0.7576174,0.0,117.468605,1.0,1.0,0.0,12,0.0,0.0,0.0,0.0,0.0,0,0,0,0,0,1,1,0,0,0
563830529,49.31978,49.31814,0.77117026,0.75751686,0.0,117.5114,1.0,1.0,0.0,12,0.0,0.0,0.0,0.0,0.0,0,0,0,0,0,1,1,0,0,0
564033759,49.279404,49.319386,0.77117026,0.77734786,0.0,117.55808,1.0,1.0,0.0,12,0.0,0.0,0.0,0.0,0.0,0,0,0,0,0,1,1,0,0,0
564237850,49.44091,49.329514,0.6426419,0.77710193,0.0,117.60226,1.0,1.0,0.0,12,0.0,0.0,0.0,0.0,0.0,0,0,0,0,0,1,1,0,0,0
564440930,49.31978,49.33104,0.77117026,0.797572,0.0,117.64997,1.0,1.0,0.0,12,0.0,0.0,0.0,0.0,0.0,0,0,0,0,0,1,1,0,0,0
564644370,49.259216,49.32654,0.77117026,0.78755265,0.0,117.69313,1.0,1.0,0.0,12,0.0,0.0,0.0,0.0,0.0,0,0,0,0,0,1,1,0,0,0
564848240,49.29959,49.32196,0.77117026,0.7760041,0.0,117.73551,1.0,1.0,0.0,12,0.0,0.0,0.0,0.0,0.0,0,0,0,0,0,1,1,0,0,0
565051440,49.44091,49.310097,0.77117026,0.7599459,0.0,117.776024,1.0,1.0,0.0,12,0.0,0.0,0.0,0.0,0.0,0,0,0,0,0,1,1,0,0,0
565255425,49.29959,49.308064,0.77117026,0.76241744,0.0,117.81928,1.0,1.0,0.0,12,0.0,0.0,0.0,0.0,0.0,0,0,0,0,0,1,1,0,0,0
565458485,49.420723,49.31295,0.77117026,0.766117,0.0,117.86279,1.0,1.0,0.0,12,0.0,0.0,0.0,0.0,0.0,0,0,0,0,0,1,1,0,0,0
565661892,49.360157,49.318127,0.6426419,0.76150113,0.0,117.90553,1.0,1.0,0.0,12,0.0,0.0,0.0,0.0,0.0,0,0,0,0,0,1,1,0,0,0
565865931,49.31978,49.325172,0.6426419,0.75968313,0.0,117.948395,1.0,1.0,0.0,12,0.0,0.0,0.0,0.0,0.0,0,0,0,0,0,1,1,0,0,0
566057727,49.29959,49.320724,0.77117026,0.75251323,0.0,117.98733,1.0,1.0,0.0,12,0.0,0.0,0.0,0.0,0.0,0,0,0,0,0,1,1,0,0,0
566261025,49.218838,49.31661,0.77117026,0.7694146,0.0,118.03303,1.0,1.0,0.0,12,0.0,0.0,0.0,0.0,0.0,0,0,0,0,0,1,1,0,0,0
566464246,49.33997,49.30194,0.77117026,0.75308913,0.0,118.07319,1.0,1.0,0.0,12,0.0,0.0,0.0,0.0,0.0,0,0,0,0,0,1,1,0,0,0
566668776,49.360157,49.297455,0.77117026,0.764722,0.0,118.11826,1.0,1.0,0.0,12,0.0,0.0,0.0,0.0,0.0,0,0,0,0,0,1,1,0,0,0
566871420,49.40053,49.295605,0.77117026,0.77140224,0.0,118.16252,1.0,1.0,0.0,12,0.0,0.0,0.0,0.0,0.0,0,0,0,0,0,1,1,0,0,0
567075476,49.360157,49.29562,0.6426419,0.75818473,0.0,118.20366,1.0,1.0,0.0,12,0.0,0.0,0.0,0.0,0.0,0,0,0,0,0,1,1,0,0,0
567278662,49.259216,49.293106,0.77117026,0.7696005,0.0,118.24849,1.0,1.0,0.0,12,0.0,0.0,0.0,0.0,0.0,0,0,0,0,0,1,1,0,0,0
567481733,49.23903,49.288864,0.77117026,0.778597,0.0,118.293686,1.0,1.0,0.0,12,0.0,0.0,0.0,0.0,0.0,0,0,0,0,0,1,1,0,0,0
567685838,49.279404,49.286552,1.0282271,0.78127515,0.0,118.33828,1.0,1.0,0.0,12,0.0,0.0,0.0,0.0,0.0,0,0,0,0,0,1,1,0,0,0
567889568,49.40053,49.292713,0.77117026,0.76631,0.0,118.37976,1.0,1.0,0.0,12,0.0,0.0,0.0,0.0,0.0,0,0,0,0,0,1,1,0,0,0
568093172,49.31978,49.301517,0.77117026,0.7655652,0.0,118.42292,1.0,1.0,0.0,12,0.0,0.0,0.0,0.0,0.0,0,0,0,0,0,1,1,0,0,0
568296327,49.259216,49.302414,0.77117026,0.7655994,0.0,118.46602,1.0,1.0,0.0,12,0.0,0.0,0.0,0.0,0.0,0,0,0,0,0,1,1,0,0,0
568499322,49.360157,49.302624,0.89969873,0.7456821,0.0,118.505226,1.0,1.0,0.0,12,0.0,0.0,0.0,0.0,0.0,0,0,0,0,0,1,1,0,0,0
568703468,49.380344,49.29863,0.77117026,0.7499961,0.0,118.54851,1.0,1.0,0.0,12,0.0,0.0,0.0,0.0,0.0,0,0,0,0,0,1,1,0,0,0
568906687,49.138084,49.29404,1.0282271,0.76029617,0.0,118.59244,1.0,1.0,0.0,12,0.0,0.0,0.0,0.0,0.0,0,0,0,0,0,1,1,0,0,0
569111141,49.33997,49.292603,0.77117026,0.76761883,0.0,118.63712,1.0,1.0,0.0,12,0.0,0.0,0.0,0.0,0.0,0,0,0,0,0,1,1,0,0,0
569313704,49.158276,49.28599,0.6426419,0.75418395,0.0,118.67783,1.0,1.0,0.0,12,0.0,0.0,0.0,0.0,0.0,0,0,0,0,0,1,1,0,0,0
569505913,49.218838,49.287422,0.77117026,0.7622253,0.0,118.71944,1.0,1.0,0.0,12,0.0,0.0,0.0,0.0,0.0,0,0,0,0,0,1,1,0,0,0
569709171,49.158276,49.269688,0.77117026,0.7723821,0.0,118.76426,1.0,1.0,0.0,12,0.0,0.0,0.0,0.0,0.0,0,0,0,0,0,1,1,0,0,0
569912263,49.218838,49.267998,0.77117026,0.7801487,0.0,118.80953,1.0,1.0,0.0,12,0.0,0.0,0.0,0.0,0.0,0,0,0,0,0,1,1,0,0,0
570116099,49.138084,49.264282,0.6426419,0.7670189,0.0,118.85106,1.0,1.0,0.0,12,0.0,0.0,0.0,0.0,0.0,0,0,0,0,0,1,1,0,0,0
570319514,49.178463,49.26093,1.0282271,0.76525444,0.0,118.89378,1.0,1.0,0.0,12,0.0,0.0,0.0,0.0,0.0,0,0,0,0,0,1,1,0,0,0
570523310,49.29959,49.261024,0.77117026,0.7687788,0.0,118.9379,1.0,1.0,0.0,12,0.0,0.0,0.0,0.0,0.0,0,0,0,0,0,1,1,0,0,0
570726651,49.259216,49.25847,0.77117026,0.7541792,0.0,118.97856,1.0,1.0,0.0,12,0.0,0.0,0.0,0.0,0.0,0,0,0,0,0,1,1,0,0,0
570929697,49.31978,49.262024,0.77117026,0.75709,0.0,119.02165,1.0,1.0,0.0,12,0.0,0.0,0.0,0.0,0.0,0,0,0,0,0,1,1,0,0,0
571133739,49.19865,49.26494,0.77117026,0.7616919,0.0,119.065346,1.0,1.0,0.0,12,0.0,0.0,0.0,0.0,0.0,0,0,0,0,0,1,1,0,0,0
571337145,49.279404,49.26553,0.77117026,0.76137525,0.0,119.10848,1.0,1.0,0.0,12,0.0,0.0,0.0,0.0,0.0,0,0,0,0,0,1,1,0,0,0
571540905,49.279404,49.265858,0.77117026,0.74237096,0.0,119.14776,1.0,1.0,0.0,12,0.0,0.0,0.0,0.0,0.0,0,0,0,0,0,1,1,0,0,0
571744298,49.31978,49.26657,0.51411355,0.7406134,0.0,119.18961,1.0,1.0,0.0,12,0.0,0.0,0.0,0.0,0.0,0,0,0,0,0,1,1,0,0,0
571948235,49.259216,49.269062,0.6426419,0.7469163,0.0,119.23287,1.0,1.0,0.0,12,0.0,0.0,0.0,0.0,0.0,0,0,0,0,0,1,1,0,0,0
572151529,49.279404,49.27248,0.77117026,0.7527863,0.0,119.27604,1.0,1.0,0.0,12,0.0,0.0,0.0,0.0,0.0,0,0,0,0,0,1,1,0,0,0
572354536,49.259216,49.273243,0.77117026,0.7605497,0.0,119.31992,1.0,1.0,0.0,12,0.0,0.0,0.0,0.0,0.0,0,0,0,0,0,1,1,0,0,0
572558489,49.31978,49.27163,0.77117026,0.7548081,0.0,119.3619,1.0,1.0,0.0,12,0.0,0.0,0.0,0.0,0.0,0,0,0,0,0,1,1,0,0,0
572749711,49.19865,49.26686,1.0282271,0.76276046,0.0,119.403275,1.0,1.0,0.0,12,0.0,0.0,0.0,0.0,0.0,0,0,0,0,0,1,1,0,0,0
572954007,49.360157,49.268623,0.77117026,0.761546,0.0,119.44662,1.0,1.0,0.0,12,0.0,0.0,0.0,0.0,0.0,0,0,0,0,0,1,1,0,0,0
573156929,49.279404,49.26763,0.77117026,0.7554773,0.0,119.48837,1.0,1.0,0.0,12,0.0,0.0,0.0,0.0,0.0,0,0,0,0,0,1,1,0,0,0
573359300,49.279404,49.26827,0.77117026,0.7618361,0.0,119.532135,1.0,1.0,0.0,12,0.0,0.0,0.0,0.0,0.0,0,0,0,0,0,1,1,0,0,0
573564114,49.218838,49.26649,0.77117026,0.7535911,0.0,119.573845,1.0,1.0,0.0,12,0.0,0.0,0.0,0.0,0.0,0,0,0,0,0,1,1,0,0,0
573767510,49.33997,49.265182,0.77117026,0.76951504,0.0,119.619675,1.0,1.0,0.0,12,0.0,0.0,0.0,0.0,0.0,0,0,0,0,0,1,1,0,0,0
573971495,49.33997,49.263367,0.77117026,0.753448,0.0,119.6604,1.0,1.0,0.0,12,0.0,0.0,0.0,0.0,0.0,0,0,0,0,0,1,1,0,0,0
574178525,49.279404,49.265343,0.77117026,0.7597935,0.0,119.70474,1.0,1.0,0.0,12,0.0,0.0,0.0,0.0,0.0,0,0,0,0,0,1,1,0,0,0
574370642,49.259216,49.263577,0.51411355,0.7647812,0.0,119.74632,1.0,1.0,0.0,12,0.0,0.0,0.0,0.0,0.0,0,0,0,0,0,1,1,0,0,0
574573935,49.31978,49.26476,0.77117026,0.7598615,0.0,119.788605,1.0,1.0,0.0,12,0.0,0.0,0.0,0.0,0.0,0,0,0,0,0,1,1,0,0,0
574777891,49.259216,49.26758,0.77117026,0.7605618,0.0,119.83189,1.0,1.0,0.0,12,0.0,0.0,0.0,0.0,0.0,0,0,0,0,0,1,1,0,0,0
574980910,49.33997,49.26666,0.77117026,0.7573555,0.0,119.874084,1.0,1.0,0.0,12,0.0,0.0,0.0,0.0,0.0,0,0,0,0,0,1,1,0,0,0
575184240,49.259216,49.266846,0.77117026,0.74221754,0.0,119.914185,1.0,1.0,0.0,12,0.0,0.0,0.0,0.0,0.0,0,0,0,0,0,1,1,0,0,0
575388139,49.259216,49.266518,0.77117026,0.7354165,0.0,119.95484,1.0,1.0,0.0,12,0.0,0.0,0.0,0.0,0.0,0,0,0,0,0,1,1,0,0,0
575591451,49.259216,49.26842,0.89969873,0.7570134,0.0,120.000534,1.0,1.0,0.0,12,0.0,0.0,0.0,0.0,0.0,0,0,0,0,0,1,1,0,0,0
575795561,49.158276,49.27009,0.77117026,0.7598594,0.0,120.04382,1.0,1.0,0.0,12,0.0,0.0,0.0,0.0,0.0,0,0,0,0,0,1,1,0,0,0
575998645,49.29959,49.268116,0.77117026,0.76187927,0.0,120.08694,1.0,1.0,0.0,12,0.0,0.0,0.0,0.0,0.0,0,0,0,0,0,1,1,0,0,0
576202658,49.279404,49.266903,0.77117026,0.7568466,0.0,120.129364,1.0,1.0,0.0,12,0.0,0.0,0.0,0.0,0.0,0,0,0,0,0,1,1,0,0,0
576405854,49.19865,49.260845,0.89969873,0.7657566,0.0,120.17385,1.0,1.0,0.0,12,0.0,0.0,0.0,0.0,0.0,0,0,0,0,0,1,1,0,0,0
576609051,49.158276,49.257545,0.77117026,0.75447047,0.0,120.21475,1.0,1.0,0.0,12,0.0,0.0,0.0,0.0,0.0,0,0,0,0,0,1,1,0,0,0
576812935,49.218838,49.257584,0.77117026,0.7569848,0.0,120.25801,1.0,1.0,0.0,12,0.0,0.0,0.0,0.0,0.0,0,0,0,0,0,1,1,0,0,0
577016374,49.19865,49.249645,0.6426419,0.7429177,0.0,120.298164,1.0,1.0,0.0,12,0.0,0.0,0.0,0.0,0.0,0,0,0,0,0,1,1,0,0,0
577219336,49.178463,49.24223,0.89969873,0.74676186,0.0,120.340775,1.0,1.0,0.0,12,0.0,0.0,0.0,0.0,0.0,0,0,0,0,0,1,1,0,0,0
577411412,48.99677,49.22392,0.89969873,0.75517666,0.0,120.38236,1.0,1.0,0.0,12,0.0,0.0,0.0,0.0,0.0,0,0,0,0,0,1,1,0,0,0
577614660,49.259216,49.229572,0.77117026,0.75258255,0.0,120.42454,1.0,1.0,0.0,12,0.0,0.0,0.0,0.0,0.0,0,0,0,0,0,1,1,0,0,0
577818717,49.19865,49.220314,0.77117026,0.75505126,0.0,120.46785,1.0,1.0,0.0,12,0.0,0.0,0.0,0.0,0.0,0,0,0,0,0,1,1,0,0,0
578021705,49.19865,49.214993,0.77117026,0.7478501,0.0,120.509224,1.0,1.0,0.0,12,0.0,0.0,0.0,0.0,0.0,0,0,0,0,0,1,1,0,0,0
578213835,49.259216,49.22635,0.77117026,0.7443184,0.0,120.54866,1.0,1.0,0.0,12,0.0,0.0,0.0,0.0,0.0,0,0,0,0,0,1,1,0,0,0
578417105,49.481285,49.251823,0.77117026,0.7412573,0.0,120.59006,1.0,1.0,0.0,12,0.0,0.0,0.0,0.0,0.0,0,0,0,0,0,1,1,0,0,0
578620618,49.40053,49.272823,0.6426419,0.73426896,0.0,120.63068,1.0,1.0,0.0,12,0.0,0.0,0.0,0.0,0.0,0,0,0,0,0,1,1,0,0,0
578824166,49.279404,49.280113,0.77117026,0.74315673,0.0,120.67388,1.0,1.0,0.0,12,0.0,0.0,0.0,0.0,0.0,0,0,0,0,0,1,1,0,0,0
579027489,49.279404,49.27755,0.6426419,0.7479709,0.0,120.71711,1.0,1.0,0.0,12,0.0,0.0,0.0,0.0,0.0,0,0,0,0,0,1,1,0,0,0
579231328,49.380344,49.27698,0.6426419,0.7526785,0.0,120.76036,1.0,1.0,0.0,12,0.0,0.0,0.0,0.0,0.0,0,0,0,0,0,1,1,0,0,0
579434655,49.23903,49.282333,0.77117026,0.758478,0.0,120.803925,1.0,1.0,0.0,12,0.0,0.0,0.0,0.0,0.0,0,0,0,0,0,1,1,0,0,0
579638557,49.33997,49.28904,0.77117026,0.7776271,0.0,120.8506,1.0,1.0,0.0,12,0.0,0.0,0.0,0.0,0.0,0,0,0,0,0,1,1,0,0,0
579841971,49.360157,49.295033,0.77117026,0.7738957,0.0,120.893745,1.0,1.0,0.0,12,0.0,0.0,0.0,0.0,0.0,0,0,0,0,0,1,1,0,0,0
580045078,49.33997,49.2955,0.89969873,0.7759814,0.0,120.93764,1.0,1.0,0.0,12,0.0,0.0,0.0,0.0,0.0,0,0,0,0,0,1,1,0,0,0
580236925,49.218838,49.29236,0.77117026,0.78030455,0.0,120.98002,1.0,1.0,0.0,12,0.0,0.0,0.0,0.0,0.0,0,0,0,0,0,1,1,0,0,0
580440416,49.138084,49.273857,0.77117026,0.7792811,0.0,121.024055,1.0,1.0,0.0,12,0.0,0.0,0.0,0.0,0.0,0,0,0,0,0,1,1,0,0,0
580644299,49.31978,49.26649,0.77117026,0.7868492,0.0,121.069435,1.0,1.0,0.0,12,0.0,0.0,0.0,0.0,0.0,0,0,0,0,0,1,1,0,0,0
580847592,49.158276,49.259804,0.77117026,0.7781288,0.0,121.11217,1.0,1.0,0.0,12,0.0,0.0,0.0,0.0,0.0,0,0,0,0,0,1,1,0,0,0
581050680,49.29959,49.255344,0.0,0.7502136,0.0,121.15102,1.0,1.0,0.0,12,0.0,0.0,0.0,0.0,0.0,0,0,0,0,0,1,1,0,0,0
581254646,49.23903,49.245544,0.77117026,0.75416225,0.0,121.19428,1.0,1.0,0.0,12,0.0,0.0,0.0,0.0,0.0,0,0,0,0,0,1,1,0,0,0
581457880,49.016956,49.22471,0.77117026,0.75318825,0.0,121.236465,1.0,1.0,0.0,12,0.0,0.0,0.0,0.0,0.0,0,0,0,0,0,1,1,0,0,0
581661837,49.23903,49.206715,0.77117026,0.7585318,0.0,121.28015,1.0,1.0,0.0,12,0.0,0.0,0.0,0.0,0.0,0,0,0,0,0,1,1,0,0,0
581866238,48.956394,49.18152,0.77117026,0.76432306,0.0,121.32434,1.0,1.0,0.0,12,0.0,0.0,0.0,0.0,0.0,0,0,0,0,0,1,1,0,0,0
582068104,49.138084,49.162785,0.77117026,0.77003473,0.0,121.36833,1.0,1.0,0.0,12,0.0,0.0,0.0,0.0,0.0,0,0,0,0,0,1,1,0,0,0
582272340,49.037144,49.137714,0.6426419,0.752822,0.0,121.40865,1.0,1.0,0.0,12,0.0,0.0,0.0,0.0,0.0,0,0,0,0,0,1,1,0,0,0
582475432,48.87564,49.11945,0.77117026,0.7616087,0.0,121.45304,1.0,1.0,0.0,12,0.0,0.0,0.0,0.0,0.0,0,0,0,0,0,1,1,0,0,0
582679277,49.077522,49.121437,0.77117026,0.76530164,0.0,121.49672,1.0,1.0,0.0,12,0.0,0.0,0.0,0.0,0.0,0,0,0,0,0,1,1,0,0,0
582882901,49.077522,49.10531,0.6426419,0.75685143,0.0,121.53823,1.0,1.0,0.0,12,0.0,0.0,0.0,0.0,0.0,0,0,0,0,0,1,1,0,0,0
583085697,49.09771,49.107323,0.89969873,0.76533777,0.0,121.58245,1.0,1.0,0.0,12,0.0,0.0,0.0,0.0,0.0,0,0,0,0,0,1,1,0,0,0
583289870,49.138084,49.119205,0.6426419,0.7614899,0.0,121.62533,1.0,1.0,0.0,12,0.0,0.0,0.0,0.0,0.0,0,0,0,0,0,1,1,0,0,0
583493720,49.259216,49.13407,0.77117026,0.76110744,0.0,121.66813,1.0,1.0,0.0,12,0.0,0.0,0.0,0.0,0.0,0,0,0,0,0,1,1,0,0,0
583697131,49.33997,49.14416,0.77117026,0.76376534,0.0,121.71175,1.0,1.0,0.0,12,0.0,0.0,0.0,0.0,0.0,0,0,0,0,0,1,1,0,0,0
583900284,49.138084,49.14728,0.38558513,0.74696434,0.0,121.751884,1.0,1.0,0.0,12,0.0,0.0,0.0,0.0,0.0,0,0,0,0,0,1,1,0,0,0
584104286,49.09771,49.148,0.77117026,0.743239,0.0,121.79344,1.0,1.0,0.0,12,0.0,0.0,0.0,0.0,0.0,0,0,0,0,0,1,1,0,0,0
584307456,49.057335,49.147762,1.0282271,0.75622284,0.0,121.83773,1.0,1.0,0.0,12,0.0,0.0,0.0,0.0,0.0,0,0,0,0,0,1,1,0,0,0
584510538,49.178463,49.150646,0.77117026,0.7633644,0.0,121.88177,1.0,1.0,0.0,12,0.0,0.0,0.0,0.0,0.0,0,0,0,0,0,1,1,0,0,0
584702519,49.117897,49.154457,0.77117026,0.76729125,0.0,121.92331,1.0,1.0,0.0,12,0.0,0.0,0.0,0.0,0.0,0,0,0,0,0,1,1,0,0,0
584905972,49.117897,49.15916,0.77117026,0.76609933,0.0,121.966446,1.0,1.0,0.0,12,0.0,0.0,0.0,0.0,0.0,0,0,0,0,0,1,1,0,0,0
585109830,49.19865,49.158768,0.77117026,0.765507,0.0,122.009254,1.0,1.0,0.0,12,0.0,0.0,0.0,0.0,0.0,0,0,0,0,0,1,1,0,0,0
585312919,49.259216,49.1674,0.77117026,0.7694164,0.0,122.053215,1.0,1.0,0.0,12,0.0,0.0,0.0,0.0,0.0,0,0,0,0,0,1,1,0,0,0
585517069,49.218838,49.166775,0.77117026,0.7733877,0.0,122.09779,1.0,1.0,0.0,12,0.0,0.0,0.0,0.0,0.0,0,0,0,0,0,1,1,0,0,0
585720245,49.259216,49.170425,0.77117026,0.7806596,0.0,122.14298,1.0,1.0,0.0,12,0.0,0.0,0.0,0.0,0.0,0,0,0,0,0,1,1,0,0,0
585923448,49.117897,49.175144,0.77117026,0.76952773,0.0,122.18479,1.0,1.0,0.0,12,0.0,0.0,0.0,0.0,0.0,0,0,0,0,0,1,1,0,0,0
586127868,49.138084,49.176785,0.77117026,0.7693436,0.0,122.22857,1.0,1.0,0.0,12,0.0,0.0,0.0,0.0,0.0,0,0,0,0,0,1,1,0,0,0
586330680,49.138084,49.1811,0.77117026,0.76083964,0.0,122.27028,1.0,1.0,0.0,12,0.0,0.0,0.0,0.0,0.0,0,0,0,0,0,1,1,0,0,0
586534640,49.178463,49.18065,0.77117026,0.7643329,0.0,122.313965,1.0,1.0,0.0,12,0.0,0.0,0.0,0.0,0.0,0,0,0,0,0,1,1,0,0,0
586737865,49.218838,49.18737,0.77117026,0.7620353,0.0,122.35669,1.0,1.0,0.0,12,0.0,0.0,0.0,0.0,0.0,0,0,0,0,0,1,1,0,0,0
586941865,49.117897,49.184128,0.77117026,0.7555928,0.0,122.3987,1.0,1.0,0.0,12,0.0,0.0,0.0,0.0,0.0,0,0,0,0,0,1,1,0,0,0
587145043,49.158276,49.188473,0.77117026,0.75305,0.0,122.44095,1.0,1.0,0.0,12,0.0,0.0,0.0,0.0,0.0,0,0,0,0,0,1,1,0,0,0
587336238,49.117897,49.18564,0.6426419,0.74004835,0.0,122.47843,1.0,1.0,0.0,12,0.0,0.0,0.0,0.0,0.0,0,0,0,0,0,1,1,0,0,0
587540234,49.158276,49.18649,0.77117026,0.7487594,0.0,122.52212,1.0,1.0,0.0,12,0.0,0.0,0.0,0.0,0.0,0,0,0,0,0,1,1,0,0,0
587743324,49.19865,49.179085,0.77117026,0.7490821,0.0,122.56432,1.0,1.0,0.0,12,0.0,0.0,0.0,0.0,0.0,0,0,0,0,0,1,1,0,0,0
587947836,49.259216,49.18962,0.77117026,0.75626,0.0,122.60816,1.0,1.0,0.0,12,0.0,0.0,0.0,0.0,0.0,0,0,0,0,0,1,1,0,0,0
588150647,49.259216,49.203224,0.89969873,0.7582651,0.0,122.65116,1.0,1.0,0.0,12,0.0,0.0,0.0,0.0,0.0,0,0,0,0,0,1,1,0,0,0
588353891,49.279404,49.213917,0.77117026,0.7478022,0.0,122.69169,1.0,1.0,0.0,12,0.0,0.0,0.0,0.0,0.0,0,0,0,0,0,1,1,0,0,0
588557896,49.19865,49.217735,1.0282271,0.75540787,0.0,122.73538,1.0,1.0,0.0,12,0.0,0.0,0.0,0.0,0.0,0,0,0,0,0,1,1,0,0,0
588761038,49.117897,49.20903,0.77117026,0.7529846,0.0,122.777596,1.0,1.0,0.0,12,0.0,0.0,0.0,0.0,0.0,0,0,0,0,0,1,1,0,0,0
588965114,49.077522,49.20132,0.6426419,0.75363964,0.0,122.82045,1.0,1.0,0.0,12,0.0,0.0,0.0,0.0,0.0,0,0,0,0,0,1,1,0,0,0
589168306,49.09771,49.189526,0.77117026,0.7446309,0.0,122.861404,1.0,1.0,0.0,12,0.0,0.0,0.0,0.0,0.0,0,0,0,0,0,1,1,0,0,0
589371546,49.19865,49.178257,0.77117026,0.7367591,0.0,122.90198,1.0,1.0,0.0,12,0.0,0.0,0.0,0.0,0.0,0,0,0,0,0,1,1,0,0,0
589575504,49.09771,49.167137,0.77117026,0.7364334,0.0,122.94355,1.0,1.0,0.0,12,0.0,0.0,0.0,0.0,0.0,0,0,0,0,0,1,1,0,0,0
589778681,49.057335,49.160618,0.77117026,0.7350819,0.0,122.98493,1.0,1.0,0.0,12,0.0,0.0,0.0,0.0,0.0,0,0,0,0,0,1,1,0,0,0
589970700,49.09771,49.149487,1.0282271,0.7477848,0.0,123.026505,1.0,1.0,0.0,12,0.0,0.0,0.0,0.0,0.0,0,0,0,0,0,1,1,0,0,0
590173907,49.077522,49.14237,0.77117026,0.74484783,0.0,123.068344,1.0,1.0,0.0,12,0.0,0.0,0.0,0.0,0.0,0,0,0,0,0,1,1,0,0,0
590377738,49.19865,49.153564,0.6426419,0.72991925,0.0,123.10773,1.0,1.0,0.0,12,0.0,0.0,0.0,0.0,0.0,0,0,0,0,0,1,1,0,0,0
590581074,49.259216,49.16805,0.77117026,0.73036814,0.0,123.14917,1.0,1.0,0.0,12,0.0,0.0,0.0,0.0,0.0,0,0,0,0,0,1,1,0,0,0
590784236,49.138084,49.177322,0.77117026,0.7355967,0.0,123.19144,1.0,1.0,0.0,12,0.0,0.0,0.0,0.0,0.0,0,0,0,0,0,1,1,0,0,0
590988138,49.178463,49.17033,0.77117026,0.75172955,0.0,123.23637,1.0,1.0,0.0,12,0.0,0.0,0.0,0.0,0.0,0,0,0,0,0,1,1,0,0,0
591191510,49.178463,49.15742,0.6426419,0.73807275,0.0,123.27607,1.0,1.0,0.0,12,0.0,0.0,0.0,0.0,0.0,0,0,0,0,0,1,1,0,0,0
591395425,48.75451,49.132164,1.0282271,0.75220853,0.0,123.3206,1.0,1.0,0.0,12,0.0,0.0,0.0,0.0,0.0,0,0,0,0,0,1,1,0,0,0
591598695,49.016956,49.10197,0.77117026,0.74441946,0.0,123.36158,1.0,1.0,0.0,12,0.0,0.0,0.0,0.0,0.0,0,0,0,0,0,1,1,0,0,0
591801692,49.037144,49.072613,0.6426419,0.7623921,0.0,123.407196,1.0,1.0,0.0,12,0.0,0.0,0.0,0.0,0.0,0,0,0,0,0,1,1,0,0,0
591993986,48.835262,49.04158,0.77117026,0.7600232,0.0,123.44755,1.0,1.0,0.0,12,0.0,0.0,0.0,0.0,0.0,0,0,0,0,0,1,1,0,0,0
592197149,48.936203,49.015556,0.51411355,0.73992604,0.0,123.486824,1.0,1.0,0.0,12,0.0,0.0,0.0,0.0,0.0,0,0,0,0,0,1,1,0,0,0
592401081,48.89583,49.006725,0.77117026,0.7434473,0.0,123.529236,1.0,1.0,0.0,12,0.0,0.0,0.0,0.0,0.0,0,0,0,0,0,1,1,0,0,0
592604119,49.117897,49.01087,0.77117026,0.7425482,0.0,123.57098,1.0,1.0,0.0,12,0.0,0.0,0.0,0.0,0.0,0,0,0,0,0,1,1,0,0,0
592807516,49.016956,49.01135,0.77117026,0.7484971,0.0,123.61411,1.0,1.0,0.0,12,0.0,0.0,0.0,0.0,0.0,0,0,0,0,0,1,1,0,0,0
593011445,48.85545,49.005764,1.0282271,0.75507337,0.0,123.65735,1.0,1.0,0.0,12,0.0,0.0,0.0,0.0,0.0,0,0,0,0,0,1,1,0,0,0
593215175,48.85545,48.997246,0.77117026,0.7584131,0.0,123.70059,1.0,1.0,0.0,12,0.0,0.0,0.0,0.0,0.0,0,0,0,0,0,1,1,0,0,0
593418629,48.7747,48.993706,0.51411355,0.75690436,0.0,123.74331,1.0,1.0,0.0,12,0.0,0.0,0.0,0.0,0.0,0,0,0,0,0,1,1,0,0,0
593621847,48.99677,48.98537,0.77117026,0.74793637,0.0,123.784325,1.0,1.0,0.0,12,0.0,0.0,0.0,0.0,0.0,0,0,0,0,0,1,1,0,0,0
593825967,49.057335,48.98544,0.6426419,0.7524496,0.0,123.82764,1.0,1.0,0.0,12,0.0,0.0,0.0,0.0,0.0,0,0,0,0,0,1,1,0,0,0
594029017,49.178463,48.991253,0.6426419,0.74473953,0.0,123.868576,1.0,1.0,0.0,12,0.0,0.0,0.0,0.0,0.0,0,0,0,0,0,1,1,0,0,0
594232236,49.09771,48.9972,0.6426419,0.7412258,0.0,123.90995,1.0,1.0,0.0,12,0.0,0.0,0.0,0.0,0.0,0,0,0,0,0,1,1,0,0,0
594436716,48.87564,49.00474,0.77117026,0.74254197,0.0,123.95209,1.0,1.0,0.0,12,0.0,0.0,0.0,0.0,0.0,0,0,0,0,0,1,1,0,0,0
594639460,49.057335,49.022114,0.77117026,0.74423546,0.0,123.994225,1.0,1.0,0.0,12,0.0,0.0,0.0,0.0,0.0,0,0,0,0,0,1,1,0,0,0
594843445,49.259216,49.05026,0.77117026,0.74402785,0.0,124.03623,1.0,1.0,0.0,12,0.0,0.0,0.0,0.0,0.0,0,0,0,0,0,1,1,0,0,0
595046552,49.259216,49.079082,0.77117026,0.7567955,0.0,124.08061,1.0,1.0,0.0,12,0.0,0.0,0.0,0.0,0.0,0,0,0,0,0,1,1,0,0,0
595249718,49.138084,49.112034,0.6426419,0.7333764,0.0,124.119095,1.0,1.0,0.0,12,0.0,0.0,0.0,0.0,0.0,0,0,0,0,0,1,1,0,0,0
595453729,49.259216,49.126495,0.77117026,0.7396894,0.0,124.161964,1.0,1.0,0.0,12,0.0,0.0,0.0,0.0,0.0,0,0,0,0,0,1,1,0,0,0
595657477,49.117897,49.140205,0.6426419,0.7461304,0.0,124.20519,1.0,1.0,0.0,12,0.0,0.0,0.0,0.0,0.0,0,0,0,0,0,1,1,0,0,0
595860887,49.117897,49.14334,0.77117026,0.7482489,0.0,124.247444,1.0,1.0,0.0,12,0.0,0.0,0.0,0.0,0.0,0,0,0,0,0,1,1,0,0,0
596064260,49.259216,49.15209,0.89969873,0.7449122,0.0,124.28889,1.0,1.0,0.0,12,0.0,0.0,0.0,0.0,0.0,0,0,0,0,0,1,1,0,0,0
596267540,49.461098,49.18111,0.77117026,0.7461029,0.0,124.33112,1.0,1.0,0.0,12,0.0,0.0,0.0,0.0,0.0,0,0,0,0,0,1,1,0,0,0
596471483,49.461098,49.230095,0.77117026,0.74768955,0.0,124.373535,1.0,1.0,0.0,12,0.0,0.0,0.0,0.0,0.0,0,0,0,0,0,1,1,0,0,0
596674906,49.461098,49.274963,0.77117026,0.7659445,0.0,124.41923,1.0,1.0,0.0,12,0.0,0.0,0.0,0.0,0.0,0,0,0,0,0,1,1,0,0,0
596878927,49.29959,49.287663,0.77117026,0.76931596,0.0,124.46338,1.0,1.0,0.0,12,0.0,0.0,0.0,0.0,0.0,0,0,0,0,0,1,1,0,0,0
597081951,49.259216,49.28499,0.77117026,0.7568056,0.0,124.50432,1.0,1.0,0.0,12,0.0,0.0,0.0,0.0,0.0,0,0,0,0,0,1,1,0,0,0
597285007,49.259216,49.280354,0.77117026,0.7513475,0.0,124.54613,1.0,1.0,0.0,12,0.0,0.0,0.0,0.0,0.0,0,0,0,0,0,1,1,0,0,0
597489076,49.138084,49.270195,0.77117026,0.7580485,0.0,124.58987,1.0,1.0,0.0,12,0.0,0.0,0.0,0.0,0.0,0,0,0,0,0,1,1,0,0,0
597692125,49.077522,49.2613,0.6426419,0.76453286,0.0,124.63378,1.0,1.0,0.0,12,0.0,0.0,0.0,0.0,0.0,0,0,0,0,0,1,1,0,0,0
597884135,49.29959,49.237,0.38558513,0.75409937,0.0,124.67278,1.0,1.0,0.0,12,0.0,0.0,0.0,0.0,0.0,0,0,0,0,0,1,1,0,0,0
598087510,49.158276,49.22495,0.77117026,0.7548605,0.0,124.71555,1.0,1.0,0.0,12,0.0,0.0,0.0,0.0,0.0,0,0,0,0,0,1,1,0,0,0
598290513,49.117897,49.21316,1.0282271,0.7437043,0.0,124.75609,1.0,1.0,0.0,12,0.0,0.0,0.0,0.0,0.0,0,0,0,0,0,1,1,0,0,0
598494535,49.09771,49.191288,1.0282271,0.7520911,0.0,124.799805,1.0,1.0,0.0,12,0.0,0.0,0.0,0.0,0.0,0,0,0,0,0,1,1,0,0,0
598697988,49.117897,49.179512,0.77117026,0.7442532,0.0,124.8408,1.0,1.0,0.0,12,0.0,0.0,0.0,0.0,0.0,0,0,0,0,0,1,1,0,0,0
598901888,49.158276,49.172367,0.77117026,0.74177593,0.0,124.88233,1.0,1.0,0.0,12,0.0,0.0,0.0,0.0,0.0,0,0,0,0,0,1,1,0,0,0
599105038,49.259216,49.17339,0.77117026,0.74363786,0.0,124.92456,1.0,1.0,0.0,12,0.0,0.0,0.0,0.0,0.0,0,0,0,0,0,1,1,0,0,0
599308117,49.31978,49.177216,0.77117026,0.748967,0.0,124.96759,1.0,1.0,0.0,12,0.0,0.0,0.0,0.0,0.0,0,0,0,0,0,1,1,0,0,0
599512260,49.29959,49.182312,0.77117026,0.7482446,0.0,125.010056,1.0,1.0,0.0,12,0.0,0.0,0.0,0.0,0.0,0,0,0,0,0,1,1,0,0,0
599715444,49.279404,49.189625,1.0282271,0.7629372,0.0,125.05484,1.0,1.0,0.0,12,0.0,0.0,0.0,0.0,0.0,0,0,0,0,0,1,1,0,0,0
599919772,49.279404,49.19528,0.77117026,0.75383765,0.0,125.09648,1.0,1.0,0.0,12,0.0,0.0,0.0,0.0,0.0,0,0,0,0,0,1,1,0,0,0
600122658,49.259216,49.205452,0.77117026,0.75071424,0.0,125.138245,1.0,1.0,0.0,12,0.0,0.0,0.0,0.0,0.0,0,0,0,0,0,1,1,0,0,0
600325829,49.279404,49.215523,0.77117026,0.7395949,0.0,125.17834,1.0,1.0,0.0,12,0.0,0.0,0.0,0.0,0.0,0,0,0,0,0,1,1,0,0,0
600529936,49.279404,49.22573,0.77117026,0.73948,0.0,125.22048,1.0,1.0,0.0,12,0.0,0.0,0.0,0.0,0.0,0,0,0,0,0,1,1,0,0,0
600732931,49.279404,49.232235,0.77117026,0.7503929,0.0,125.26441,1.0,1.0,0.0,12,0.0,0.0,0.0,0.0,0.0,0,0,0,0,0,1,1,0,0,0
600937162,49.31978,49.239216,0.6426419,0.76094687,0.0,125.30946,1.0,1.0,0.0,12,0.0,0.0,0.0,0.0,0.0,0,0,0,0,0,1,1,0,0,0
601140312,49.178463,49.242416,0.89969873,0.7635443,0.0,125.35298,1.0,1.0,0.0,12,0.0,0.0,0.0,0.0,0.0,0,0,0,0,0,1,1,0,0,0
601344135,49.158276,49.24506,0.6426419,0.77728516,0.0,125.39876,1.0,1.0,0.0,12,0.0,0.0,0.0,0.0,0.0,0,0,0,0,0,1,1,0,0,0
601547557,49.279404,49.24861,0.6426419,0.7518887,0.0,125.43762,1.0,1.0,0.0,12,0.0,0.0,0.0,0.0,0.0,0,0,0,0,0,1,1,0,0,0
601750486,49.31978,49.2524,0.77117026,0.74860764,0.0,125.47941,1.0,1.0,0.0,12,0.0,0.0,0.0,0.0,0.0,0,0,0,0,0,1,1,0,0,0
601954630,49.33997,49.261044,0.77117026,0.7525461,0.0,125.522705,1.0,1.0,0.0,12,0.0,0.0,0.0,0.0,0.0,0,0,0,0,0,1,1,0,0,0
602157877,49.40053,49.269924,0.77117026,0.7467887,0.0,125.56416,1.0,1.0,0.0,12,0.0,0.0,0.0,0.0,0.0,0,0,0,0,0,1,1,0,0,0
602349718,49.54185,49.29864,0.77117026,0.7487156,0.0,125.6044,1.0,1.0,0.0,12,0.0,0.0,0.0,0.0,0.0,0,0,0,0,0,1,1,0,0,0
602553035,49.44091,49.323524,0.77117026,0.75346065,0.0,125.64745,1.0,1.0,0.0,12,0.0,0.0,0.0,0.0,0.0,0,0,0,0,0,1,1,0,0,0
602756247,49.23903,49.320847,0.77117026,0.7592292,0.0,125.69143,1.0,1.0,0.0,12,0.0,0.0,0.0,0.0,0.0,0,0,0,0,0,1,1,0,0,0
602960138,49.259216,49.316677,0.6426419,0.7540338,0.0,125.733406,1.0,1.0,0.0,12,0.0,0.0,0.0,0.0,0.0,0,0,0,0,0,1,1,0,0,0
603163532,49.077522,49.299595,0.77117026,0.7511884,0.0,125.77518,1.0,1.0,0.0,12,0.0,0.0,0.0,0.0,0.0,0,0,0,0,0,1,1,0,0,0
603367488,49.117897,49.27897,1.0282271,0.7572499,0.0,125.81886,1.0,1.0,0.0,12,0.0,0.0,0.0,0.0,0.0,0,0,0,0,0,1,1,0,0,0
603570667,49.117897,49.25129,0.77117026,0.7616098,0.0,125.86237,1.0,1.0,0.0,12,0.0,0.0,0.0,0.0,0.0,0,0,0,0,0,1,1,0,0,0
603774961,49.158276,49.243813,0.77117026,0.75379574,0.0,125.90399,1.0,1.0,0.0,12,0.0,0.0,0.0,0.0,0.0,0,0,0,0,0,1,1,0,0,0
603977931,48.956394,49.217392,0.77117026,0.7635219,0.0,125.94837,1.0,1.0,0.0,12,0.0,0.0,0.0,0.0,0.0,0,0,0,0,0,1,1,0,0,0
604181061,49.259216,49.185326,0.77117026,0.7515978,0.0,125.98935,1.0,1.0,0.0,12,0.0,0.0,0.0,0.0,0.0,0,0,0,0,0,1,1,0,0,0
604385096,49.19865,49.17297,0.6426419,0.748185,0.0,126.03136,1.0,1.0,0.0,12,0.0,0.0,0.0,0.0,0.0,0,0,0,0,0,1,1,0,0,0
604588284,49.057335,49.150295,0.77117026,0.75507236,0.0,126.07482,1.0,1.0,0.0,12,0.0,0.0,0.0,0.0,0.0,0,0,0,0,0,1,1,0,0,0
604791430,49.158276,49.13851,0.77117026,0.7576086,0.0,126.1179,1.0,1.0,0.0,12,0.0,0.0,0.0,0.0,0.0,0,0,0,0,0,1,1,0,0,0
604995472,49.19865,49.13805,0.77117026,0.7615104,0.0,126.161606,1.0,1.0,0.0,12,0.0,0.0,0.0,0.0,0.0,0,0,0,0,0,1,1,0,0,0
605198537,49.117897,49.13933,0.77117026,0.7716336,0.0,126.206406,1.0,1.0,0.0,12,0.0,0.0,0.0,0.0,0.0,0,0,0,0,0,1,1,0,0,0
605402598,49.077522,49.133614,0.77117026,0.75290394,0.0,126.2467,1.0,1.0,0.0,12,0.0,0.0,0.0,0.0,0.0,0,0,0,0,0,1,1,0,0,0
605605975,49.057335,49.12958,0.77117026,0.7477479,0.0,126.288124,1.0,1.0,0.0,12,0.0,0.0,0.0,0.0,0.0,0,0,0,0,0,1,1,0,0,0
605797348,49.19865,49.134678,0.77117026,0.74145824,0.0,126.326546,1.0,1.0,0.0,12,0.0,0.0,0.0,0.0,0.0,0,0,0,0,0,1,1,0,0,0
606000938,49.29959,49.143814,0.77117026,0.74377954,0.0,126.368805,1.0,1.0,0.0,12,0.0,0.0,0.0,0.0,0.0,0,0,0,0,0,1,1,0,0,0
606204345,49.31978,49.156193,0.6426419,0.74056506,0.0,126.410225,1.0,1.0,0.0,12,0.0,0.0,0.0,0.0,0.0,0,0,0,0,0,1,1,0,0,0
606408602,49.178463,49.159374,0.77117026,0.75747466,0.0,126.45526,1.0,1.0,0.0,12,0.0,0.0,0.0,0.0,0.0,0,0,0,0,0,1,1,0,0,0
606611328,49.057335,49.14362,0.89969873,0.75243515,0.0,126.49657,1.0,1.0,0.0,12,0.0,0.0,0.0,0.0,0.0,0,0,0,0,0,1,1,0,0,0
606815483,49.218838,49.135204,0.77117026,0.75788033,0.0,126.54031,1.0,1.0,0.0,12,0.0,0.0,0.0,0.0,0.0,0,0,0,0,0,1,1,0,0,0
607018499,49.19865,49.139896,0.89969873,0.768528,0.0,126.585075,1.0,1.0,0.0,12,0.0,0.0,0.0,0.0,0.0,0,0,0,0,0,1,1,0,0,0
607221873,49.218838,49.14885,0.77117026,0.7646808,0.0,126.62781,1.0,1.0,0.0,12,0.0,0.0,0.0,0.0,0.0,0,0,0,0,0,1,1,0,0,0
607425722,49.158276,49.14739,0.51411355,0.759244,0.0,126.67021,1.0,1.0,0.0,12,0.0,0.0,0.0,0.0,0.0,0,0,0,0,0,1,1,0,0,0
607629507,49.138084,49.151344,0.77117026,0.7536109,0.0,126.71218,1.0,1.0,0.0,12,0.0,0.0,0.0,0.0,0.0,0,0,0,0,0,1,1,0,0,0
607832909,49.31978,49.164402,0.77117026,0.75669813,0.0,126.75532,1.0,1.0,0.0,12,0.0,0.0,0.0,0.0,0.0,0,0,0,0,0,1,1,0,0,0
608036261,49.420723,49.198494,0.77117026,0.7480104,0.0,126.79639,1.0,1.0,0.0,12,0.0,0.0,0.0,0.0,0.0,0,0,0,0,0,1,1,0,0,0
608240324,49.279404,49.218304,0.77117026,0.7590892,0.0,126.840965,1.0,1.0,0.0,12,0.0,0.0,0.0,0.0,0.0,0,0,0,0,0,1,1,0,0,0
608443417,49.380344,49.237823,0.51411355,0.7495477,0.0,126.88192,1.0,1.0,0.0,12,0.0,0.0,0.0,0.0,0.0,0,0,0,0,0,1,1,0,0,0
608646623,49.29959,49.24663,0.77117026,0.75832987,0.0,126.92584,1.0,1.0,0.0,12,0.0,0.0,0.0,0.0,0.0,0,0,0,0,0,1,1,0,0,0
608850988,49.259216,49.24105,0.77117026,0.75114954,0.0,126.9675,1.0,1.0,0.0,12,0.0,0.0,0.0,0.0,0.0,0,0,0,0,0,1,1,0,0,0
609053897,49.31978,49.248478,0.77117026,0.76396894,0.0,127.01217,1.0,1.0,0.0,12,0.0,0.0,0.0,0.0,0.0,0,0,0,0,0,1,1,0,0,0
609257837,49.178463,49.251328,0.6426419,0.7596707,0.0,127.05453,1.0,1.0,0.0,12,0.0,0.0,0.0,0.0,0.0,0,0,0,0,0,1,1,0,0,0
609460951,49.158276,49.2377,1.1567554,0.7553532,0.0,127.09631,1.0,1.0,0.0,12,0.0,0.0,0.0,0.0,0.0,0,0,0,0,0,1,1,0,0,0
609664231,49.138084,49.216476,0.6426419,0.7664833,0.0,127.14108,1.0,1.0,0.0,12,0.0,0.0,0.0,0.0,0.0,0,0,0,0,0,1,1,0,0,0
609868266,49.057335,49.196953,0.6426419,0.7595294,0.0,127.183075,1.0,1.0,0.0,12,0.0,0.0,0.0,0.0,0.0,0,0,0,0,0,1,1,0,0,0
610071720,49.057335,49.176643,0.77117026,0.75227743,0.0,127.224525,1.0,1.0,0.0,12,0.0,0.0,0.0,0.0,0.0,0,0,0,0,0,1,1,0,0,0
610275420,49.037144,49.15254,1.1567554,0.7622811,0.0,127.26906,1.0,1.0,0.0,12,0.0,0.0,0.0,0.0,0.0,0,0,0,0,0,1,1,0,0,0
610478527,48.956394,49.125217,0.77117026,0.7613339,0.0,127.31214,1.0,1.0,0.0,12,0.0,0.0,0.0,0.0,0.0,0,0,0,0,0,1,1,0,0,0
610681835,48.916016,49.104534,0.77117026,0.77458566,0.0,127.3578,1.0,1.0,0.0,12,0.0,0.0,0.0,0.0,0.0,0,0,0,0,0,1,1,0,0,0
610885719,49.057335,49.09102,0.77117026,0.783656,0.0,127.40321,1.0,1.0,0.0,12,0.0,0.0,0.0,0.0,0.0,0,0,0,0,0,1,1,0,0,0
611088937,49.057335,49.080074,0.77117026,0.7708712,0.0,127.44507,1.0,1.0,0.0,12,0.0,0.0,0.0,0.0,0.0,0,0,0,0,0,1,1,0,0,0
611292762,49.016956,49.071247,0.6426419,0.7810789,0.0,127.49088,1.0,1.0,0.0,12,0.0,0.0,0.0,0.0,0.0,0,0,0,0,0,1,1,0,0,0
611496318,49.057335,49.066,0.77117026,0.77601194,0.0,127.53407,1.0,1.0,0.0,12,0.0,0.0,0.0,0.0,0.0,0,0,0,0,0,1,1,0,0,0
611687539,49.117897,49.076134,0.77117026,0.76860523,0.0,127.57416,1.0,1.0,0.0,12,0.0,0.0,0.0,0.0,0.0,0,0,0,0,0,1,1,0,0,0
611891743,49.057335,49.0851,0.6426419,0.7640618,0.0,127.61707,1.0,1.0,0.0,12,0.0,0.0,0.0,0.0,0.0,0,0,0,0,0,1,1,0,0,0
612094741,49.037144,49.090034,1.0282271,0.7625513,0.0,127.659744,1.0,1.0,0.0,12,0.0,0.0,0.0,0.0,0.0,0,0,0,0,0,1,1,0,0,0
612294501,49.077522,49.086895,0.77117026,0.77946603,0.0,127.70552,1.0,1.0,0.0,12,0.0,0.0,0.0,0.0,0.0,0,0,0,0,0,1,1,0,0,0
612497836,49.077522,49.0828,0.6426419,0.7717764,0.0,127.74819,1.0,1.0,0.0,12,0.0,0.0,0.0,0.0,0.0,0,0,0,0,0,1,1,0,0,0
612700922,49.037144,49.07698,0.77117026,0.7735878,0.0,127.7922,1.0,1.0,0.0,12,0.0,0.0,0.0,0.0,0.0,0,0,0,0,0,1,1,0,0,0
612905090,49.077522,49.08095,0.77117026,0.76299125,0.0,127.834236,1.0,1.0,0.0,12,0.0,0.0,0.0,0.0,0.0,0,0,0,0,0,1,1,0,0,0
613108243,49.077522,49.081585,0.77117026,0.7590717,0.0,127.87647,1.0,1.0,0.0,12,0.0,0.0,0.0,0.0,0.0,0,0,0,0,0,1,1,0,0,0
613312077,49.016956,49.075745,0.77117026,0.76325876,0.0,127.92011,1.0,1.0,0.0,12,0.0,0.0,0.0,0.0,0.0,0,0,0,0,0,1,1,0,0,0
613515730,49.117897,49.07445,0.77117026,0.76187974,0.0,127.96288,1.0,1.0,0.0,12,0.0,0.0,0.0,0.0,0.0,0,0,0,0,0,1,1,0,0,0
613718528,49.057335,49.073963,0.77117026,0.7556903,0.0,128.00462,1.0,1.0,0.0,12,0.0,0.0,0.0,0.0,0.0,0,0,0,0,0,1,1,0,0,0
613910522,49.057335,49.072437,0.77117026,0.75508857,0.0,128.04488,1.0,1.0,0.0,12,0.0,0.0,0.0,0.0,0.0,0,0,0,0,0,1,1,0,0,0
614114153,49.077522,49.071175,0.77117026,0.75928044,0.0,128.08855,1.0,1.0,0.0,12,0.0,0.0,0.0,0.0,0.0,0,0,0,0,0,1,1,0,0,0
614317123,48.916016,49.066635,0.6426419,0.75516945,0.0,128.13077,1.0,1.0,0.0,12,0.0,0.0,0.0,0.0,0.0,0,0,0,0,0,1,1,0,0,0
614521110,49.077522,49.05727,0.77117026,0.76233983,0.0,128.17488,1.0,1.0,0.0,12,0.0,0.0,0.0,0.0,0.0,0,0,0,0,0,1,1,0,0,0
614724197,48.99677,49.04919,0.6426419,0.7539376,0.0,128.21632,1.0,1.0,0.0,12,0.0,0.0,0.0,0.0,0.0,0,0,0,0,0,1,1,0,0,0
614928117,49.037144,49.04173,0.77117026,0.7525425,0.0,128.2587,1.0,1.0,0.0,12,0.0,0.0,0.0,0.0,0.0,0,0,0,0,0,1,1,0,0,0
615131468,49.138084,49.059513,0.6426419,0.73360544,0.0,128.2976,1.0,1.0,0.0,12,0.0,0.0,0.0,0.0,0.0,0,0,0,0,0,1,1,0,0,0
615335440,49.09771,49.066154,0.6426419,0.7250026,0.0,128.33745,1.0,1.0,0.0,12,0.0,0.0,0.0,0.0,0.0,0,0,0,0,0,1,1,0,0,0
615538623,48.87564,49.05787,0.77117026,0.74128777,0.0,128.38138,1.0,1.0,0.0,12,0.0,0.0,0.0,0.0,0.0,0,0,0,0,0,1,1,0,0,0
615741743,48.936203,49.04775,0.6426419,0.7430838,0.0,128.42361,1.0,1.0,0.0,12,0.0,0.0,0.0,0.0,0.0,0,0,0,0,0,1,1,0,0,0
615945901,48.99677,49.042873,0.77117026,0.749585,0.0,128.46692,1.0,1.0,0.0,12,0.0,0.0,0.0,0.0,0.0,0,0,0,0,0,1,1,0,0,0
616149017,48.916016,49.035683,0.77117026,0.7586101,0.0,128.51085,1.0,1.0,0.0,12,0.0,0.0,0.0,0.0,0.0,0,0,0,0,0,1,1,0,0,0
616352111,48.97658,49.028557,0.77117026,0.76692617,0.0,128.5552,1.0,1.0,0.0,12,0.0,0.0,0.0,0.0,0.0,0,0,0,0,0,1,1,0,0,0
616556369,49.016956,49.02001,0.77117026,0.7761085,0.0,128.60025,1.0,1.0,0.0,12,0.0,0.0,0.0,0.0,0.0,0,0,0,0,0,1,1,0,0,0
616759451,48.99677,49.01801,0.77117026,0.78185254,0.0,128.64496,1.0,1.0,0.0,12,0.0,0.0,0.0,0.0,0.0,0,0,0,0,0,1,1,0,0,0
616963454,48.85545,49.00566,0.77117026,0.78907675,0.0,128.69037,1.0,1.0,0.0,12,0.0,0.0,0.0,0.0,0.0,0,0,0,0,0,1,1,0,0,0
617166605,49.016956,48.997543,0.77117026,0.7886496,0.0,128.73476,1.0,1.0,0.0,12,0.0,0.0,0.0,0.0,0.0,0,0,0,0,0,1,1,0,0,0
617369909,48.87564,48.989883,0.77117026,0.7766258,0.0,128.77702,1.0,1.0,0.0,12,0.0,0.0,0.0,0.0,0.0,0,0,0,0,0,1,1,0,0,0
617573960,48.99677,48.98243,0.77117026,0.77996385,0.0,128.82162,1.0,1.0,0.0,12,0.0,0.0,0.0,0.0,0.0,0,0,0,0,0,1,1,0,0,0
617777400,48.835262,48.968098,0.77117026,0.78295213,0.0,128.86649,1.0,1.0,0.0,12,0.0,0.0,0.0,0.0,0.0,0,0,0,0,0,1,1,0,0,0
617968907,48.916016,48.955894,0.6426419,0.7562208,0.0,128.90323,1.0,1.0,0.0,12,0.0,0.0,0.0,0.0,0.0,0,0,0,0,0,1,1,0,0,0
618172267,48.87564,48.936832,0.6426419,0.74696887,0.0,128.9442,1.0,1.0,0.0,12,0.0,0.0,0.0,0.0,0.0,0,0,0,0,0,1,1,0,0,0
618376244,48.7747,48.91974,0.51411355,0.75526315,0.0,128.9883,1.0,1.0,0.0,12,0.0,0.0,0.0,0.0,0.0,0,0,0,0,0,1,1,0,0,0
618580019,48.815075,48.9088,0.6426419,0.75101364,0.0,129.03017,1.0,1.0,0.0,12,0.0,0.0,0.0,0.0,0.0,0,0,0,0,0,1,1,0,0,0
618782490,49.09771,48.901833,0.77117026,0.7634302,0.0,129.07469,1.0,1.0,0.0,12,0.0,0.0,0.0,0.0,0.0,0,0,0,0,0,1,1,0,0,0
618986709,48.956394,48.89184,0.77117026,0.7745759,0.0,129.1201,1.0,1.0,0.0,12,0.0,0.0,0.0,0.0,0.0,0,0,0,0,0,1,1,0,0,0
619189875,48.87564,48.89326,0.77117026,0.76451015,0.0,129.16193,1.0,1.0,0.0,12,0.0,0.0,0.0,0.0,0.0,0,0,0,0,0,1,1,0,0,0
619393728,48.956394,48.89906,0.6426419,0.7650886,0.0,129.20558,1.0,1.0,0.0,12,0.0,0.0,0.0,0.0,0.0,0,0,0,0,0,1,1,0,0,0
619597106,49.077522,48.916615,0.77117026,0.76489496,0.0,129.24867,1.0,1.0,0.0,12,0.0,0.0,0.0,0.0,0.0,0,0,0,0,0,1,1,0,0,0
619800334,49.016956,48.926266,0.77117026,0.76413065,0.0,129.2918,1.0,1.0,0.0,12,0.0,0.0,0.0,0.0,0.0,0,0,0,0,0,1,1,0,0,0
619992205,49.037144,48.936443,0.77117026,0.7595875,0.0,129.33162,1.0,1.0,0.0,12,0.0,0.0,0.0,0.0,0.0,0,0,0,0,0,1,1,0,0,0
