timestamp,windspeed_north,windspeed_east,variance_north,variance_east,tas_innov,tas_innov_var,tas_scale,beta_innov,beta_innov_var
518947924,0.0,0.0,0.0,0.0,0.0,0.0,0.0,0.0,0.0
519164350,0.0,0.0,0.0,0.0,0.0,0.0,0.0,0.0,0.0
519372784,0.0,0.0,0.0,0.0,0.0,0.0,0.0,0.0,0.0
519574380,0.0,0.0,0.0,0.0,0.0,0.0,0.0,0.0,0.0
519778621,0.0,0.0,0.0,0.0,0.0,0.0,0.0,0.0,0.0
519981926,0.0,0.0,0.0,0.0,0.0,0.0,0.0,0.0,0.0
520183520,0.0,0.0,0.0,0.0,0.0,0.0,0.0,0.0,0.0
520386082,0.0,0.0,0.0,0.0,0.0,0.0,0.0,0.0,0.0
520588109,0.0,0.0,0.0,0.0,0.0,0.0,0.0,0.0,0.0
520789373,0.0,0.0,0.0,0.0,0.0,0.0,0.0,0.0,0.0
520991737,0.0,0.0,0.0,0.0,0.0,0.0,0.0,0.0,0.0
521195106,0.0,0.0,0.0,0.0,0.0,0.0,0.0,0.0,0.0
521396373,0.0,0.0,0.0,0.0,0.0,0.0,0.0,0.0,0.0
521599318,0.0,0.0,0.0,0.0,0.0,0.0,0.0,0.0,0.0
521802644,0.0,0.0,0.0,0.0,0.0,0.0,0.0,0.0,0.0
522006490,0.0,0.0,0.0,0.0,0.0,0.0,0.0,0.0,0.0
522209523,0.0,0.0,0.0,0.0,0.0,0.0,0.0,0.0,0.0
522412559,0.0,0.0,0.0,0.0,0.0,0.0,0.0,0.0,0.0
522615129,0.0,0.0,0.0,0.0,0.0,0.0,0.0,0.0,0.0
522819052,0.0,0.0,0.0,0.0,0.0,0.0,0.0,0.0,0.0
523019539,0.0,0.0,0.0,0.0,0.0,0.0,0.0,0.0,0.0
523221481,0.0,0.0,0.0,0.0,0.0,0.0,0.0,0.0,0.0
523423461,0.0,0.0,0.0,0.0,0.0,0.0,0.0,0.0,0.0
523626714,0.0,0.0,0.0,0.0,0.0,0.0,0.0,0.0,0.0
523830374,0.0,0.0,0.0,0.0,0.0,0.0,0.0,0.0,0.0
524032677,0.0,0.0,0.0,0.0,0.0,0.0,0.0,0.0,0.0
524235250,0.0,0.0,0.0,0.0,0.0,0.0,0.0,0.0,0.0
524436402,0.0,0.0,0.0,0.0,0.0,0.0,0.0,0.0,0.0
524639224,0.0,0.0,0.0,0.0,0.0,0.0,0.0,0.0,0.0
524842169,0.0,0.0,0.0,0.0,0.0,0.0,0.0,0.0,0.0
525047053,0.0,0.0,0.0,0.0,0.0,0.0,0.0,0.0,0.0
525248389,0.0,0.0,0.0,0.0,0.0,0.0,0.0,0.0,0.0
525450325,0.0,0.0,0.0,0.0,0.0,0.0,0.0,0.0,0.0
525652637,0.0,0.0,0.0,0.0,0.0,0.0,0.0,0.0,0.0
525854463,0.0,0.0,0.0,0.0,0.0,0.0,0.0,0.0,0.0
526059338,0.0,0.0,0.0,0.0,0.0,0.0,0.0,0.0,0.0
526261384,0.0,0.0,0.0,0.0,0.0,0.0,0.0,0.0,0.0
526464580,0.0,0.0,0.0,0.0,0.0,0.0,0.0,0.0,0.0
526670757,0.0,0.0,0.0,0.0,0.0,0.0,0.0,0.0,0.0
526874385,0.0,0.0,0.0,0.0,0.0,0.0,0.0,0.0,0.0
527077712,0.0,0.0,0.0,0.0,0.0,0.0,0.0,0.0,0.0
527279317,0.0,0.0,0.0,0.0,0.0,0.0,0.0,0.0,0.0
527482103,0.0,0.0,0.0,0.0,0.0,0.0,0.0,0.0,0.0
527689530,0.0,0.0,0.0,0.0,0.0,0.0,0.0,0.0,0.0
527893183,0.0,0.0,0.0,0.0,0.0,0.0,0.0,0.0,0.0
528096336,0.0,0.0,0.0,0.0,0.0,0.0,0.0,0.0,0.0
528299244,0.0,0.0,0.0,0.0,0.0,0.0,0.0,0.0,0.0
528502640,0.0,0.0,0.0,0.0,0.0,0.0,0.0,0.0,0.0
528705907,0.0,0.0,0.0,0.0,0.0,0.0,0.0,0.0,0.0
528907473,0.0,0.0,0.0,0.0,0.0,0.0,0.0,0.0,0.0
529111375,0.0,0.0,0.0,0.0,0.0,0.0,0.0,0.0,0.0
529315016,0.0,0.0,0.0,0.0,0.0,0.0,0.0,0.0,0.0
529517426,0.0,0.0,0.0,0.0,0.0,0.0,0.0,0.0,0.0
529719716,0.0,0.0,0.0,0.0,0.0,0.0,0.0,0.0,0.0
529921635,0.0,0.0,0.0,0.0,0.0,0.0,0.0,0.0,0.0
530124595,0.0,0.0,0.0,0.0,0.0,0.0,0.0,0.0,0.0
530328610,0.0,0.0,0.0,0.0,0.0,0.0,0.0,0.0,0.0
530531470,0.0,0.0,0.0,0.0,0.0,0.0,0.0,0.0,0.0
530741419,0.0,0.0,0.0,0.0,0.0,0.0,0.0,0.0,0.0
530947573,0.0,0.0,0.0,0.0,0.0,0.0,0.0,0.0,0.0
531150352,0.0,0.0,0.0,0.0,0.0,0.0,0.0,0.0,0.0
531354318,0.0,0.0,0.0,0.0,0.0,0.0,0.0,0.0,0.0
531557860,0.0,0.0,0.0,0.0,0.0,0.0,0.0,0.0,0.0
531760495,0.0,0.0,0.0,0.0,0.0,0.0,0.0,0.0,0.0
531963866,0.0,0.0,0.0,0.0,0.0,0.0,0.0,0.0,0.0
532166450,0.0,0.0,0.0,0.0,0.0,0.0,0.0,0.0,0.0
532372331,0.0,0.0,0.0,0.0,0.0,0.0,0.0,0.0,0.0
532578391,0.0,0.0,0.0,0.0,0.0,0.0,0.0,0.0,0.0
532783329,0.0,0.0,0.0,0.0,0.0,0.0,0.0,0.0,0.0
532984381,0.0,0.0,0.0,0.0,0.0,0.0,0.0,0.0,0.0
533186429,0.0,0.0,0.0,0.0,0.0,0.0,0.0,0.0,0.0
533389507,0.0,0.0,0.0,0.0,0.0,0.0,0.0,0.0,0.0
533593378,0.0,0.0,0.0,0.0,0.0,0.0,0.0,0.0,0.0
533799003,0.0,0.0,0.0,0.0,0.0,0.0,0.0,0.0,0.0
534003865,0.0,0.0,0.0,0.0,0.0,0.0,0.0,0.0,0.0
534205627,0.0,0.0,0.0,0.0,0.0,0.0,0.0,0.0,0.0
534411560,0.0,0.0,0.0,0.0,0.0,0.0,0.0,0.0,0.0
534615496,0.0,0.0,0.0,0.0,0.0,0.0,0.0,0.0,0.0
534818147,0.0,0.0,0.0,0.0,0.0,0.0,0.0,0.0,0.0
535019994,0.0,0.0,0.0,0.0,0.0,0.0,0.0,0.0,0.0
535221396,0.0,0.0,0.0,0.0,0.0,0.0,0.0,0.0,0.0
535423031,0.0,0.0,0.0,0.0,0.0,0.0,0.0,0.0,0.0
535624416,0.0,0.0,0.0,0.0,0.0,0.0,0.0,0.0,0.0
535827336,0.0,0.0,0.0,0.0,0.0,0.0,0.0,0.0,0.0
536031509,0.0,0.0,0.0,0.0,0.0,0.0,0.0,0.0,0.0
536234007,0.0,0.0,0.0,0.0,0.0,0.0,0.0,0.0,0.0
536437050,0.0,0.0,0.0,0.0,0.0,0.0,0.0,0.0,0.0
536640748,0.0,0.0,0.0,0.0,0.0,0.0,0.0,0.0,0.0
536842342,0.0,0.0,0.0,0.0,0.0,0.0,0.0,0.0,0.0
537049534,0.0,0.0,0.0,0.0,0.0,0.0,0.0,0.0,0.0
537259545,0.0,0.0,0.0,0.0,0.0,0.0,0.0,0.0,0.0
537460684,0.0,0.0,0.0,0.0,0.0,0.0,0.0,0.0,0.0
537668043,0.0,0.0,0.0,0.0,0.0,0.0,0.0,0.0,0.0
537871318,0.0,0.0,0.0,0.0,0.0,0.0,0.0,0.0,0.0
538077167,0.0,0.0,0.0,0.0,0.0,0.0,0.0,0.0,0.0
538283318,0.0,0.0,0.0,0.0,0.0,0.0,0.0,0.0,0.0
538485428,0.0,0.0,0.0,0.0,0.0,0.0,0.0,0.0,0.0
538687942,0.0,0.0,0.0,0.0,0.0,0.0,0.0,0.0,0.0
538889415,0.0,0.0,0.0,0.0,0.0,0.0,0.0,0.0,0.0
539096410,0.0,0.0,0.0,0.0,0.0,0.0,0.0,0.0,0.0
539305128,0.0,0.0,0.0,0.0,0.0,0.0,0.0,0.0,0.0
539511738,0.0,0.0,0.0,0.0,0.0,0.0,0.0,0.0,0.0
539715694,0.0,0.0,0.0,0.0,0.0,0.0,0.0,0.0,0.0
539919494,0.0,0.0,0.0,0.0,0.0,0.0,0.0,0.0,0.0
540126108,0.0,0.0,0.0,0.0,0.0,0.0,0.0,0.0,0.0
540328499,0.0,0.0,0.0,0.0,0.0,0.0,0.0,0.0,0.0
540529444,0.0,0.0,0.0,0.0,0.0,0.0,0.0,0.0,0.0
540732287,0.0,0.0,0.0,0.0,0.0,0.0,0.0,0.0,0.0
540934317,0.0,0.0,0.0,0.0,0.0,0.0,0.0,0.0,0.0
541140505,0.0,0.0,0.0,0.0,0.0,0.0,0.0,0.0,0.0
541349854,0.0,0.0,0.0,0.0,0.0,0.0,0.0,0.0,0.0
541551327,0.0,0.0,0.0,0.0,0.0,0.0,0.0,0.0,0.0
541754098,0.0,0.0,0.0,0.0,0.0,0.0,0.0,0.0,0.0
541956235,0.0,0.0,0.0,0.0,0.0,0.0,0.0,0.0,0.0
542158396,0.0,0.0,0.0,0.0,0.0,0.0,0.0,0.0,0.0
542359564,0.0,0.0,0.0,0.0,0.0,0.0,0.0,0.0,0.0
542565281,0.0,0.0,0.0,0.0,0.0,0.0,0.0,0.0,0.0
542772039,0.0,0.0,0.0,0.0,0.0,0.0,0.0,0.0,0.0
542974418,0.0,0.0,0.0,0.0,0.0,0.0,0.0,0.0,0.0
543178450,0.0,0.0,0.0,0.0,0.0,0.0,0.0,0.0,0.0
543380403,0.0,0.0,0.0,0.0,0.0,0.0,0.0,0.0,0.0
543583470,0.0,0.0,0.0,0.0,0.0,0.0,0.0,0.0,0.0
543786391,0.0,0.0,0.0,0.0,0.0,0.0,0.0,0.0,0.0
543890239,0.0,0.0,0.0,0.0,0.0,0.0,0.0,0.0,0.0
544094708,0.0,0.0,0.0,0.0,0.0,0.0,0.0,0.0,0.0
544300680,0.0,0.0,0.0,0.0,0.0,0.0,0.0,0.0,0.0
544503121,0.0,0.0,0.0,0.0,0.0,0.0,0.0,0.0,0.0
544704605,0.0,0.0,0.0,0.0,0.0,0.0,0.0,0.0,0.0
544907908,0.0,0.0,0.0,0.0,0.0,0.0,0.0,0.0,0.0
545111547,0.0,0.0,0.0,0.0,0.0,0.0,0.0,0.0,0.0
545314692,0.0,0.0,0.0,0.0,0.0,0.0,0.0,0.0,0.0
545516387,0.0,0.0,0.0,0.0,0.0,0.0,0.0,0.0,0.0
545718401,0.0,0.0,0.0,0.0,0.0,0.0,0.0,0.0,0.0
545920514,0.0,0.0,0.0,0.0,0.0,0.0,0.0,0.0,0.0
546124578,0.0,0.0,0.0,0.0,0.0,0.0,0.0,0.0,0.0
546328269,0.0,0.0,0.0,0.0,0.0,0.0,0.0,0.0,0.0
546531439,0.0,0.0,0.0,0.0,0.0,0.0,0.0,0.0,0.0
546735787,0.0,0.0,0.0,0.0,0.0,0.0,0.0,0.0,0.0
546937491,0.0,0.0,0.0,0.0,0.0,0.0,0.0,0.0,0.0
547139412,0.0,0.0,0.0,0.0,0.0,0.0,0.0,0.0,0.0
547342435,0.0,0.0,0.0,0.0,0.0,0.0,0.0,0.0,0.0
547549529,0.0,0.0,0.0,0.0,0.0,0.0,0.0,0.0,0.0
547757116,0.0,0.0,0.0,0.0,0.0,0.0,0.0,0.0,0.0
547959036,0.0,0.0,0.0,0.0,0.0,0.0,0.0,0.0,0.0
548160318,0.0,0.0,0.0,0.0,0.0,0.0,0.0,0.0,0.0
548363927,0.0,0.0,0.0,0.0,0.0,0.0,0.0,0.0,0.0
548575528,0.0,0.0,0.0,0.0,0.0,0.0,0.0,0.0,0.0
548777718,0.0,0.0,0.0,0.0,0.0,0.0,0.0,0.0,0.0
548979348,0.0,0.0,0.0,0.0,0.0,0.0,0.0,0.0,0.0
549181553,0.0,0.0,0.0,0.0,0.0,0.0,0.0,0.0,0.0
549385387,0.0,0.0,0.0,0.0,0.0,0.0,0.0,0.0,0.0
549589404,0.0,0.0,0.0,0.0,0.0,0.0,0.0,0.0,0.0
549794929,0.0,0.0,0.0,0.0,0.0,0.0,0.0,0.0,0.0
549996557,0.0,0.0,0.0,0.0,0.0,0.0,0.0,0.0,0.0
550199488,0.0,0.0,0.0,0.0,0.0,0.0,0.0,0.0,0.0
550402384,0.0,0.0,0.0,0.0,0.0,0.0,0.0,0.0,0.0
550604697,0.0,0.0,0.0,0.0,0.0,0.0,0.0,0.0,0.0
550806351,0.0,0.0,0.0,0.0,0.0,0.0,0.0,0.0,0.0
551009672,0.0,0.0,0.0,0.0,0.0,0.0,0.0,0.0,0.0
551216795,0.0,0.0,0.0,0.0,0.0,0.0,0.0,0.0,0.0
551419876,0.0,0.0,0.0,0.0,0.0,0.0,0.0,0.0,0.0
551623326,0.0,0.0,0.0,0.0,0.0,0.0,0.0,0.0,0.0
551826351,0.0,0.0,0.0,0.0,0.0,0.0,0.0,0.0,0.0
552028388,0.0,0.0,0.0,0.0,0.0,0.0,0.0,0.0,0.0
552231672,0.0,0.0,0.0,0.0,0.0,0.0,0.0,0.0,0.0
552436643,-2.1969275,-3.0330293,0.36447105,0.12312925,0.0,0.0,1.0,0.071809255,9708.744
552638317,-2.1724992,-3.0472212,0.0037288412,0.0012520775,0.0,0.0,1.0,0.06617489,0.12298077
552842469,-2.1668942,-3.05047,0.003252337,0.0010919595,0.0,0.0,1.0,0.056593582,0.093682
553047861,-2.1648824,-3.0516357,0.0031573304,0.0010600688,0.0,0.0,1.0,0.035286117,0.09091982
553249507,-2.164619,-3.0517883,0.0031274208,0.0010500334,0.0,0.0,1.0,0.0011821167,0.09032861
553454302,-2.1649854,-3.051688,0.013465343,0.01140357,0.0,0.0,1.0,-0.022766205,0.09016466
553662675,-2.1653576,-3.0516436,0.013450614,0.011403356,0.0,0.0,1.0,-0.017275132,0.09010014
553866448,-2.1656237,-3.0516095,0.01343982,0.011403177,0.0,0.0,1.0,-0.018582134,0.09007994
554068890,-2.1658266,-3.051584,0.013430528,0.01140303,0.0,0.0,1.0,-0.012600806,0.09007035
554270457,-2.1659226,-3.0515707,0.013421752,0.011402848,0.0,0.0,1.0,-0.0040065427,0.09007007
554478084,-2.1659057,-3.0515702,0.023891982,0.021883985,0.0,0.0,1.0,0.0015773539,0.090073064
554681973,-2.165895,-3.0515692,0.023878507,0.021883903,0.0,0.0,1.0,0.0003024367,0.09007236
554887504,-2.1658528,-3.051567,0.023864824,0.021883853,0.0,0.0,1.0,0.0038365596,0.09007789
555089457,-2.1657739,-3.051564,0.023850162,0.021883832,0.0,0.0,1.0,0.0039366223,0.090086475
555291809,-2.1657012,-3.0515625,0.023835044,0.021883827,0.0,0.0,1.0,0.0032208913,0.09009166
555492628,-2.1656165,-3.0515563,0.034109708,0.03217663,0.0,0.0,1.0,0.0042719836,0.09010088
555702479,-2.1655366,-3.051548,0.034088474,0.03217639,0.0,0.0,1.0,0.004187041,0.09010826
555906409,-2.1654165,-3.0515404,0.034067936,0.032176305,0.0,0.0,1.0,0.006490456,0.09011235
556114165,-2.165243,-3.051533,0.034047503,0.03217626,0.0,0.0,1.0,0.009547626,0.09011629
556318699,-2.1650698,-3.0515256,0.034026265,0.03217622,0.0,0.0,1.0,0.008053908,0.09012232
556524070,-2.1648266,-3.0514927,0.044637926,0.04281436,0.0,0.0,1.0,0.010609237,0.0901309
556727101,-2.1644964,-3.0514314,0.044606175,0.042813264,0.0,0.0,1.0,0.01247752,0.09013585
556928513,-2.1641264,-3.0513592,0.044573177,0.042811997,0.0,0.0,1.0,0.0147109525,0.09013712
557131278,-2.1636114,-3.0512729,0.044542726,0.04281114,0.0,0.0,1.0,0.02150804,0.09013397
557339040,-2.162956,-3.0511365,0.044510365,0.042809747,0.0,0.0,1.0,0.026023509,0.09013085
557540398,-2.161815,-3.0508049,0.054800708,0.05313565,0.0,0.0,1.0,0.043594982,0.090133004
557742359,-2.1609914,-3.0505118,0.054777123,0.05313266,0.0,0.0,1.0,0.0509115,0.09013364
557943842,-2.1578667,-3.0491846,0.054718364,0.05312206,0.0,0.0,1.0,0.09121792,0.09014195
558145691,-2.1535249,-3.0470443,0.054642614,0.053103637,0.0,0.0,1.0,0.11068189,0.09015385
558349184,-2.1475914,-3.0437183,0.054541264,0.05307177,0.0,0.0,1.0,0.12967576,0.0901724
558552559,-2.1394393,-3.0384207,0.0646232,0.063246526,0.0,0.0,1.0,0.13712412,0.09021729
558756478,-2.1294026,-3.0312493,0.06437347,0.0631188,0.0,0.0,1.0,0.13313335,0.090264805
558963445,-2.1184094,-3.0230348,0.06404259,0.062933885,0.0,0.0,1.0,0.12676536,0.0903216
559165625,-2.1066058,-3.0139165,0.063619874,0.06268147,0.0,0.0,1.0,0.120610595,0.090386055
559369460,-2.0943377,-3.004167,0.063095264,0.062349766,0.0,0.0,1.0,0.11022616,0.09046302
559571461,-2.0813107,-2.993397,0.072751224,0.072233304,0.0,0.0,1.0,0.10169908,0.09058601
559776906,-2.067724,-2.9818738,0.07186041,0.0715925,0.0,0.0,1.0,0.096298195,0.09061555
559978322,-2.0550373,-2.9710271,0.07095001,0.070927024,0.0,0.0,1.0,0.08837458,0.09062251
560180608,-2.04359,-2.9611921,0.07006289,0.0702722,0.0,0.0,1.0,0.0814204,0.09060412
560384380,-2.032854,-2.9519565,0.06922908,0.06965515,0.0,0.0,1.0,0.07816604,0.09058421
560587440,-2.0216076,-2.942162,0.078644365,0.079288445,0.0,0.0,1.0,0.07955698,0.09062482
560789859,-2.0100713,-2.9319878,0.077664346,0.078526184,0.0,0.0,1.0,0.07822216,0.09059093
560991352,-1.9995275,-2.9226763,0.07675674,0.077818304,0.0,0.0,1.0,0.07318524,0.09055781
561194817,-1.989915,-2.914186,0.075935185,0.07717735,0.0,0.0,1.0,0.071247995,0.0905074
561398687,-1.9807892,-2.9061227,0.07516829,0.076578654,0.0,0.0,1.0,0.0696758,0.09048344
561601605,-1.9712323,-2.8976104,0.08463027,0.08621026,0.0,0.0,1.0,0.07151289,0.090516925
561805096,-1.9611775,-2.888591,0.08374986,0.08550182,0.0,0.0,1.0,0.07211868,0.09049515
562008592,-1.9512032,-2.8796515,0.082914166,0.08483052,0.0,0.0,1.0,0.07316081,0.09047838
562211117,-1.9409974,-2.870517,0.08211954,0.0841939,0.0,0.0,1.0,0.0790833,0.09045361
562412322,-1.9307021,-2.8613017,0.08134364,0.08357226,0.0,0.0,1.0,0.07919466,0.09045533
562613548,-1.9195923,-2.851286,0.090723075,0.09311218,0.0,0.0,1.0,0.08020552,0.09050623
562815548,-1.9077312,-2.8405416,0.089804925,0.09235877,0.0,0.0,1.0,0.08360334,0.090481244
563018471,-1.8963602,-2.8302386,0.08890811,0.0916225,0.0,0.0,1.0,0.079738095,0.09047867
563220727,-1.885324,-2.8202455,0.088041484,0.09091196,0.0,0.0,1.0,0.08016183,0.0904654
563422513,-1.8742446,-2.8102145,0.087191336,0.090215094,0.0,0.0,1.0,0.08070628,0.09046372
563625601,-1.8628962,-2.7998693,0.09648287,0.099666834,0.0,0.0,1.0,0.07807455,0.09051804
563828318,-1.8515131,-2.789444,0.095460065,0.09880891,0.0,0.0,1.0,0.074463986,0.09050968
564030811,-1.8404632,-2.7793348,0.09446186,0.09797343,0.0,0.0,1.0,0.07262451,0.09050968
564236853,-1.8295834,-2.7693822,0.09346304,0.09713754,0.0,0.0,1.0,0.07461113,0.09050505
564439318,-1.8184944,-2.7592413,0.09247295,0.09630953,0.0,0.0,1.0,0.07501923,0.09050999
564641917,-1.8063468,-2.7480872,0.101711586,0.10571866,0.0,0.0,1.0,0.07796374,0.09056483
564843437,-1.7934412,-2.7361922,0.10055306,0.10473443,0.0,0.0,1.0,0.07877446,0.090550706
565048651,-1.7820803,-2.7257025,0.09943766,0.1037835,0.0,0.0,1.0,0.06971411,0.09052661
565252935,-1.7726132,-2.7169626,0.09841522,0.10291204,0.0,0.0,1.0,0.058937743,0.09048967
565455299,-1.7646323,-2.7095892,0.09742767,0.10206914,0.0,0.0,1.0,0.053186264,0.09048008
565657521,-1.7563208,-2.7018814,0.10664857,0.111442946,0.0,0.0,1.0,0.0544598,0.09053345
565859530,-1.747373,-2.693559,0.1054403,0.110397644,0.0,0.0,1.0,0.054921057,0.09054939
566062759,-1.7375046,-2.684382,0.10420898,0.10933287,0.0,0.0,1.0,0.062130086,0.09056555
566270469,-1.7263818,-2.6740408,0.10298001,0.10827059,0.0,0.0,1.0,0.0680698,0.09057111
566474461,-1.7155966,-2.663996,0.10177955,0.1072293,0.0,0.0,1.0,0.06552553,0.09054884
566675609,-1.7060145,-2.6550336,0.11091791,0.11652027,0.0,0.0,1.0,0.0548621,0.09056539
566878394,-1.6976637,-2.6471975,0.10968574,0.11543534,0.0,0.0,1.0,0.048742127,0.09052453
567081419,-1.689811,-2.6398306,0.108494475,0.11438692,0.0,0.0,1.0,0.048767462,0.09051799
567284641,-1.6819905,-2.6324902,0.1073391,0.11336905,0.0,0.0,1.0,0.049742807,0.09049913
567487570,-1.6746677,-2.6256154,0.10623501,0.11239591,0.0,0.0,1.0,0.04536509,0.09049093
567591545,-1.6712649,-2.622419,0.10569835,0.11192241,0.0,0.0,1.0,0.044184476,0.09048015
567794119,-1.6639792,-2.6155365,0.11476041,0.1211218,0.0,0.0,1.0,0.043310907,0.09052262
567995598,-1.6564717,-2.6084473,0.113472685,0.11997361,0.0,0.0,1.0,0.04586894,0.09053754
568199432,-1.6479131,-2.6003652,0.1121319,0.11877792,0.0,0.0,1.0,0.050552096,0.09057328
568401528,-1.638042,-2.5910535,0.11077406,0.11756959,0.0,0.0,1.0,0.059007067,0.09057916
568609185,-1.6280979,-2.5816658,0.109368056,0.11631644,0.0,0.0,1.0,0.055535506,0.090612285
568812562,-1.6172663,-2.5713973,0.11806769,0.12518449,0.0,0.0,1.0,0.056645468,0.09065723
569016036,-1.6069105,-2.5615873,0.11644987,0.12373267,0.0,0.0,1.0,0.054228023,0.090650916
569219438,-1.5974748,-2.5526466,0.114874646,0.12231842,0.0,0.0,1.0,0.04998019,0.09063974
569422687,-1.5888076,-2.5444398,0.11339363,0.12099046,0.0,0.0,1.0,0.046725288,0.09061635
569626643,-1.5809841,-2.537029,0.1119814,0.119723305,0.0,0.0,1.0,0.04327179,0.090590045
569830369,-1.5728697,-2.5292997,0.12070326,0.12859558,0.0,0.0,1.0,0.043062367,0.09062639
570034986,-1.5649761,-2.5217786,0.11920322,0.12723362,0.0,0.0,1.0,0.040147897,0.09058433
570236615,-1.5588813,-2.515965,0.117844746,0.12599765,0.0,0.0,1.0,0.033337887,0.090526685
570438431,-1.5542352,-2.5115316,0.116586946,0.124852285,0.0,0.0,1.0,0.026559925,0.09050082
570640673,-1.550065,-2.5075529,0.11541064,0.12378153,0.0,0.0,1.0,0.025642568,0.09046856
570844133,-1.5460223,-2.5036838,0.12440804,0.1328867,0.0,0.0,1.0,0.023092948,0.09047931
571048570,-1.5417156,-2.4995656,0.1231795,0.13176319,0.0,0.0,1.0,0.027860988,0.090462856
571251325,-1.5361092,-2.4942143,0.122020744,0.1307074,0.0,0.0,1.0,0.03802433,0.09044204
571456342,-1.529573,-2.4879787,0.12089655,0.12968427,0.0,0.0,1.0,0.043507297,0.09043561
571658334,-1.5223141,-2.4810545,0.11981392,0.12869914,0.0,0.0,1.0,0.04876622,0.09042268
571862459,-1.5138835,-2.4729807,0.1289775,0.1379666,0.0,0.0,1.0,0.052293945,0.090455234
572065676,-1.5049121,-2.4643831,0.12772973,0.13682057,0.0,0.0,1.0,0.0560786,0.09045775
572268123,-1.4951847,-2.4550545,0.1264799,0.13567112,0.0,0.0,1.0,0.059432082,0.09046502
572476533,-1.485351,-2.445618,0.12522218,0.13451292,0.0,0.0,1.0,0.05917425,0.09047605
572678964,-1.4756944,-2.4363365,0.123938546,0.13332705,0.0,0.0,1.0,0.05529102,0.090493366
572880576,-1.4653789,-2.4263823,0.13276729,0.14226097,0.0,0.0,1.0,0.05650977,0.09053491
573083598,-1.4552938,-2.4166398,0.13121971,0.14081675,0.0,0.0,1.0,0.053453185,0.090551354
573287317,-1.4454088,-2.4070907,0.1297193,0.13941653,0.0,0.0,1.0,0.054581787,0.09053409
573490375,-1.436197,-2.3981855,0.1282476,0.13804118,0.0,0.0,1.0,0.050094865,0.09053125
573692905,-1.4275383,-2.3898184,0.12684007,0.13672686,0.0,0.0,1.0,0.049354665,0.09051079
573893618,-1.4231536,-2.3855674,0.13627563,0.14621153,0.0,0.0,1.0,0.046126746,0.090559505
574096810,-1.4138987,-2.3765986,0.13468845,0.14472093,0.0,0.0,1.0,0.048716135,0.09054907
574300016,-1.405001,-2.3679736,0.13314447,0.14327018,0.0,0.0,1.0,0.04748325,0.09053882
574500356,-1.4006319,-2.3637378,0.1323977,0.14256829,0.0,0.0,1.0,0.048105422,0.09052618
574704732,-1.3923314,-2.355692,0.13096066,0.141218,0.0,0.0,1.0,0.045366537,0.09050742
574907964,-1.3837236,-2.3473282,0.13961393,0.1499625,0.0,0.0,1.0,0.044936296,0.090544894
575109399,-1.3793758,-2.3431015,0.13880293,0.149196,0.0,0.0,1.0,0.045939215,0.09054377
575311543,-1.3707316,-2.3346984,0.13722853,0.14770822,0.0,0.0,1.0,0.045397874,0.09052829
575513154,-1.3627684,-2.3269546,0.13569528,0.14625822,0.0,0.0,1.0,0.04183928,0.09052392
575714318,-1.3553802,-2.319768,0.13420519,0.14484832,0.0,0.0,1.0,0.041414827,0.09051127
575920076,-1.3475319,-2.3121192,0.14275092,0.15347897,0.0,0.0,1.0,0.039919797,0.09054999
576121957,-1.3396508,-2.304438,0.1410728,0.15188494,0.0,0.0,1.0,0.040528774,0.09055123
576323317,-1.3318043,-2.2967927,0.13944317,0.1503378,0.0,0.0,1.0,0.0403866,0.090543956
576524317,-1.328183,-2.2932608,0.13862798,0.1495623,0.0,0.0,1.0,0.038164347,0.09054626
576731505,-1.3208908,-2.2861536,0.13708432,0.14809597,0.0,0.0,1.0,0.038475294,0.090520345
576935321,-1.3134615,-2.2788985,0.14571984,0.15681021,0.0,0.0,1.0,0.036837347,0.09053891
577139077,-1.3066956,-2.27229,0.14409003,0.15525536,0.0,0.0,1.0,0.03532087,0.09051957
577341431,-1.30052,-2.2662556,0.14252736,0.15376319,0.0,0.0,1.0,0.030877268,0.09050964
577544718,-1.2951871,-2.2610407,0.14101861,0.15232041,0.0,0.0,1.0,0.028494652,0.09048923
577747873,-1.2911932,-2.257134,0.13963255,0.15099421,0.0,0.0,1.0,0.020549834,0.09044625
577950601,-1.2893236,-2.255301,0.14844903,0.15986753,0.0,0.0,1.0,0.008148698,0.09044225
578152541,-1.2888204,-2.2548077,0.14709808,0.15856859,0.0,0.0,1.0,0.0021859906,0.09041951
578353972,-1.2878618,-2.253868,0.14576179,0.15728489,0.0,0.0,1.0,0.007353255,0.090427525
578556360,-1.2851088,-2.2511718,0.14434484,0.15592565,0.0,0.0,1.0,0.018833544,0.090466686
578758391,-1.2795562,-2.2457335,0.14283323,0.15447548,0.0,0.0,1.0,0.03483626,0.090492085
578960939,-1.2708545,-2.2372057,0.15128599,0.1629982,0.0,0.0,1.0,0.045872964,0.09054487
579162448,-1.260995,-2.2275448,0.14946307,0.16124783,0.0,0.0,1.0,0.05081393,0.090565376
579365423,-1.2504344,-2.21721,0.14763632,0.15949838,0.0,0.0,1.0,0.052317232,0.09057903
579569389,-1.2397419,-2.206753,0.1457654,0.15770896,0.0,0.0,1.0,0.052801,0.090598434
579772129,-1.2292964,-2.1965456,0.14385706,0.15588671,0.0,0.0,1.0,0.04944948,0.090626925
579978516,-1.2183604,-2.1858516,0.15192609,0.16405526,0.0,0.0,1.0,0.048524383,0.09070061
580183511,-1.2072136,-2.1749578,0.14962332,0.16185577,0.0,0.0,1.0,0.05108195,0.09071078
580386714,-1.1963155,-2.1643083,0.1474097,0.15974204,0.0,0.0,1.0,0.047210023,0.09069529
580591460,-1.188104,-2.156274,0.14526726,0.1576908,0.0,0.0,1.0,0.0336683,0.09068836
580793036,-1.1825215,-2.1508088,0.14322564,0.15573394,0.0,0.0,1.0,0.023252504,0.09065803
580994815,-1.1787056,-2.1470652,0.15131794,0.16391061,0.0,0.0,1.0,0.015654966,0.09068546
581197369,-1.175103,-2.1435308,0.14921673,0.16188847,0.0,0.0,1.0,0.016803196,0.090641424
581400541,-1.1716075,-2.1401014,0.14725326,0.1599984,0.0,0.0,1.0,0.016308885,0.09061486
581608415,-1.1680267,-2.1365848,0.14538187,0.15819323,0.0,0.0,1.0,0.018840062,0.09058507
581816044,-1.1646943,-2.1333094,0.14365646,0.15652615,0.0,0.0,1.0,0.016333338,0.090542994
582022644,-1.1625592,-2.131206,0.15233319,0.16525553,0.0,0.0,1.0,0.00970529,0.09052453
582226409,-1.1611128,-2.1297805,0.15075561,0.16372329,0.0,0.0,1.0,0.0068040728,0.0904695
582428934,-1.1600108,-2.128694,0.1493351,0.16234253,0.0,0.0,1.0,0.005908049,0.09042867
582637086,-1.158775,-2.1274755,0.14806002,0.16110294,0.0,0.0,1.0,0.0073112017,0.09039051
582839938,-1.1577064,-2.1264217,0.14693105,0.16000488,0.0,0.0,1.0,0.004927701,0.09034587
583041474,-1.1566273,-2.1253564,0.15625702,0.1693604,0.0,0.0,1.0,0.008069384,0.09033159
583245059,-1.155077,-2.1238265,0.15519196,0.16832304,0.0,0.0,1.0,0.011461024,0.09031372
583448370,-1.1523564,-2.1211412,0.15416192,0.16731939,0.0,0.0,1.0,0.021307915,0.09030477
583650707,-1.1481962,-2.117035,0.1531635,0.16634662,0.0,0.0,1.0,0.030318122,0.09029766
583853121,-1.143146,-2.1120503,0.15219548,0.16540356,0.0,0.0,1.0,0.037142985,0.09028984
584057724,-1.1370678,-2.1060464,0.1614548,0.17468886,0.0,0.0,1.0,0.03961978,0.090302505
584261344,-1.130728,-2.0997877,0.16043611,0.17369603,0.0,0.0,1.0,0.042648986,0.09029069
584462322,-1.1247741,-2.0939076,0.15945093,0.17273517,0.0,0.0,1.0,0.040462002,0.09028136
584665524,-1.119511,-2.0887089,0.15849759,0.17180501,0.0,0.0,1.0,0.035427175,0.09027683
584872397,-1.1145972,-2.0838542,0.15756913,0.1708987,0.0,0.0,1.0,0.033987317,0.0902692
585079961,-1.1098143,-2.079125,0.16695467,0.18030708,0.0,0.0,1.0,0.03267292,0.09027918
585281796,-1.1047112,-2.0740788,0.16595669,0.17933121,0.0,0.0,1.0,0.03390509,0.09027466
585483581,-1.0996752,-2.0691,0.16499147,0.17838775,0.0,0.0,1.0,0.035203096,0.09026634
585685880,-1.0948129,-2.0642912,0.16403385,0.17745118,0.0,0.0,1.0,0.03240072,0.09026856
585888843,-1.0923945,-2.0619006,0.16357107,0.17699896,0.0,0.0,1.0,0.03377525,0.09026092
586090349,-1.0876584,-2.0572152,0.17279282,0.18624268,0.0,0.0,1.0,0.031348884,0.09027325
586296110,-1.0831338,-2.0527396,0.17179261,0.18526395,0.0,0.0,1.0,0.030248776,0.090264186
586501544,-1.0789614,-2.0486128,0.17081787,0.18431044,0.0,0.0,1.0,0.028438276,0.0902639
586704479,-1.0746294,-2.0443277,0.16983262,0.18334627,0.0,0.0,1.0,0.03254227,0.090264514
586911107,-1.0695852,-2.0393405,0.16887131,0.18240663,0.0,0.0,1.0,0.035151996,0.09026143
587112427,-1.0642542,-2.0340672,0.17825212,0.19181025,0.0,0.0,1.0,0.03563844,0.09027122
587321694,-1.0593778,-2.029243,0.17720844,0.19078882,0.0,0.0,1.0,0.03244841,0.0902689
587523235,-1.054537,-2.0244546,0.17617519,0.18977776,0.0,0.0,1.0,0.032671966,0.090268075
587733205,-1.0504363,-2.0203984,0.17516269,0.18878712,0.0,0.0,1.0,0.02645299,0.090262495
587936736,-1.0471529,-2.0171506,0.17415918,0.18780527,0.0,0.0,1.0,0.02134946,0.09026592
588139072,-1.0433514,-2.0133896,0.18353926,0.1972096,0.0,0.0,1.0,0.02457223,0.0902902
588343961,-1.0387663,-2.0088544,0.18235658,0.19605252,0.0,0.0,1.0,0.029633438,0.090301275
588547142,-1.0327715,-2.0029266,0.18115002,0.19487275,0.0,0.0,1.0,0.038066804,0.09030875
588752375,-1.0263048,-1.9965304,0.1798993,0.19364914,0.0,0.0,1.0,0.040525917,0.09032047
588955451,-1.0193701,-1.9896722,0.17863204,0.19240975,0.0,0.0,1.0,0.04122698,0.09032778
589159318,-1.012488,-1.9828577,0.18758416,0.20139056,0.0,0.0,1.0,0.037491396,0.09036116
589361540,-1.0066845,-1.9771093,0.18610696,0.19994123,0.0,0.0,1.0,0.029464776,0.09036664
589564064,-1.002125,-1.9725927,0.18465845,0.19851981,0.0,0.0,1.0,0.023724787,0.09035808
589768369,-0.9988244,-1.9693223,0.1832289,0.19711627,0.0,0.0,1.0,0.0168411,0.09035737
589973373,-0.9966414,-1.9671587,0.18184525,0.19575703,0.0,0.0,1.0,0.0108078,0.09034688
590076168,-0.99584603,-1.96637,0.19146705,0.20539114,0.0,0.0,1.0,0.008780946,0.09035574
590283573,-0.995185,-1.9657147,0.19005425,0.20400201,0.0,0.0,1.0,0.0015177317,0.09033847
590485867,-0.994901,-1.965433,0.18867679,0.2026475,0.0,0.0,1.0,0.0025569436,0.090334065
590686449,-0.99381435,-1.9643556,0.18729876,0.2012928,0.0,0.0,1.0,0.007284904,0.090339124
590891105,-0.9912217,-1.961785,0.1858953,0.19991304,0.0,0.0,1.0,0.017539987,0.09034836
591097990,-0.98787767,-1.9584677,0.1948087,0.20885089,0.0,0.0,1.0,0.018655173,0.09038202
591299967,-0.9840801,-1.9546994,0.19318745,0.20725459,0.0,0.0,1.0,0.02037415,0.09038878
591501390,-0.9799398,-1.9505903,0.19155341,0.20564498,0.0,0.0,1.0,0.020432347,0.09039479
591703776,-0.9762719,-1.9469494,0.18994172,0.20405678,0.0,0.0,1.0,0.017344464,0.090389475
591906780,-0.97472423,-1.9454124,0.18843026,0.20256625,0.0,0.0,1.0,0.0045681037,0.0903566
592109612,-0.97724366,-1.947915,0.1972846,0.21143903,0.0,0.0,1.0,-0.020253187,0.090324774
592315549,-0.9827033,-1.9533364,0.19601429,0.21018645,0.0,0.0,1.0,-0.03808815,0.090290405
592521450,-0.9897339,-1.9603114,0.19487314,0.20906322,0.0,0.0,1.0,-0.045143813,0.090262756
592723318,-0.9956594,-1.966181,0.19382781,0.20803759,0.0,0.0,1.0,-0.036234524,0.09024216
592926321,-0.9996275,-1.9701059,0.19285303,0.20708413,0.0,0.0,1.0,-0.020629022,0.0902274
593129545,-0.9991525,-1.9696366,0.20230737,0.21656157,0.0,0.0,1.0,0.011759442,0.09022537
593333901,-0.9943013,-1.9648472,0.20136978,0.21564767,0.0,0.0,1.0,0.04029857,0.09021236
593542527,-0.98705256,-1.9576914,0.20048174,0.21478228,0.0,0.0,1.0,0.054919988,0.09020367
593747643,-0.97895885,-1.949695,0.1995997,0.21392131,0.0,0.0,1.0,0.059601337,0.09020222
593949667,-0.9706414,-1.9414717,0.19871534,0.21305685,0.0,0.0,1.0,0.059346456,0.09020706
594151321,-0.9614711,-1.932394,0.20820618,0.2225668,0.0,0.0,1.0,0.06557028,0.09022186
594355010,-0.9499578,-1.9209764,0.20718357,0.22156115,0.0,0.0,1.0,0.07925301,0.09022657
594558358,-0.9368822,-1.9079908,0.20615181,0.22054355,0.0,0.0,1.0,0.088771455,0.09023107
594760638,-0.922362,-1.8935463,0.20508325,0.21948612,0.0,0.0,1.0,0.09574764,0.09024119
594963062,-0.90677416,-1.8780143,0.20394494,0.21835595,0.0,0.0,1.0,0.098694965,0.0902603
595167988,-0.8887543,-1.8600286,0.21296786,0.22738387,0.0,0.0,1.0,0.10935245,0.090301916
595370464,-0.8677828,-1.8390527,0.21141955,0.22583489,0.0,0.0,1.0,0.11312435,0.090342976
595579541,-0.84539413,-1.8166032,0.2096366,0.22404216,0.0,0.0,1.0,0.111519225,0.09039651
595785981,-0.8240927,-1.7951995,0.20762116,0.2220072,0.0,0.0,1.0,0.0957494,0.090452485
595887135,-0.81487876,-1.7859294,0.20653427,0.22090702,0.0,0.0,1.0,0.08406515,0.09047586
596192655,-0.80357355,-1.7745372,0.21436958,0.22870106,0.0,0.0,1.0,0.039853603,0.09060874
596394318,-0.7975707,-1.7684828,0.21094196,0.22521386,0.0,0.0,1.0,0.01670673,0.09078249
596595367,-0.7986564,-1.7695795,0.20654798,0.22073455,0.0,0.0,1.0,-0.009989285,0.09101833
596801449,-0.8067441,-1.7777545,0.20119976,0.21527046,0.0,0.0,1.0,-0.02633232,0.091238074
597003838,-0.8171932,-1.7883253,0.19528401,0.20921634,0.0,0.0,1.0,-0.03133719,0.09140073
597207961,-0.8265692,-1.7978126,0.19894722,0.21272126,0.0,0.0,1.0,-0.021700814,0.09159858
597411530,-0.82968235,-1.8009622,0.19180258,0.20540728,0.0,0.0,1.0,-0.0023188323,0.09168431
597617577,-0.82286566,-1.7940658,0.18479793,0.19823737,0.0,0.0,1.0,0.02540373,0.09168375
597819478,-0.8087812,-1.7798184,0.17815086,0.19143543,0.0,0.0,1.0,0.041000888,0.09165032
598022364,-0.7918068,-1.7626517,0.17198871,0.18513271,0.0,0.0,1.0,0.049553145,0.0915705
598228738,-0.7724713,-1.7431086,0.1765271,0.18954413,0.0,0.0,1.0,0.055153623,0.091548964
598433446,-0.7547091,-1.7251626,0.17098092,0.18388247,0.0,0.0,1.0,0.050572924,0.0914044
598636330,-0.7403963,-1.7107017,0.16607448,0.17887391,0.0,0.0,1.0,0.041348513,0.09129507
598839572,-0.72980756,-1.7000043,0.16175763,0.17446811,0.0,0.0,1.0,0.03193929,0.091166265
599045606,-0.7217368,-1.6918511,0.15792492,0.17055674,0.0,0.0,1.0,0.027385876,0.09106102
599247437,-0.71453905,-1.6845831,0.16462703,0.17718685,0.0,0.0,1.0,0.024642725,0.09104725
599450495,-0.7080109,-1.6779937,0.16106951,0.17356217,0.0,0.0,1.0,0.023109425,0.090971574
599653515,-0.7027713,-1.6727045,0.15778048,0.17021048,0.0,0.0,1.0,0.017802129,0.090923056
599856520,-0.69944245,-1.669344,0.1547439,0.16711593,0.0,0.0,1.0,0.010815722,0.09086643
600063599,-0.6972269,-1.6671075,0.15193331,0.16425185,0.0,0.0,1.0,0.008643853,0.0908198
600265473,-0.69622576,-1.666097,0.15942274,0.17168835,0.0,0.0,1.0,0.0022038887,0.09086258
600468918,-0.69589657,-1.6657648,0.15645102,0.16866244,0.0,0.0,1.0,0.002877007,0.090844825
600677987,-0.6944122,-1.6642672,0.15362084,0.16578183,0.0,0.0,1.0,0.0067487475,0.09081797
600879472,-0.69185644,-1.6616894,0.15094368,0.16305824,0.0,0.0,1.0,0.012192557,0.09079172
601085727,-0.68715584,-1.6569487,0.14832775,0.16039747,0.0,0.0,1.0,0.020829255,0.09079813
601287190,-0.68017495,-1.6499097,0.15595473,0.16797742,0.0,0.0,1.0,0.029762298,0.09086851
601490651,-0.67198193,-1.64165,0.15297809,0.16495207,0.0,0.0,1.0,0.03394383,0.09087462
601692864,-0.66303253,-1.632628,0.15007144,0.16199802,0.0,0.0,1.0,0.034557343,0.09087216
601895118,-0.65530264,-1.6248336,0.14718178,0.1590599,0.0,0.0,1.0,0.0299609,0.09088215
602096355,-0.64865255,-1.6181296,0.14431462,0.15614611,0.0,0.0,1.0,0.024345724,0.09090379
602299749,-0.6430927,-1.6125269,0.15123084,0.16301084,0.0,0.0,1.0,0.020070646,0.09109496
602504031,-0.6369866,-1.6063758,0.14736143,0.1590841,0.0,0.0,1.0,0.022490779,0.091198765
602710010,-0.63138986,-1.600739,0.14326875,0.15493259,0.0,0.0,1.0,0.018406352,0.09131501
602911440,-0.62559384,-1.594903,0.13897015,0.15057458,0.0,0.0,1.0,0.01964618,0.09139884
603114318,-0.6189719,-1.588238,0.13466287,0.14621106,0.0,0.0,1.0,0.023665491,0.091431335
603324939,-0.6102027,-1.579417,0.14061007,0.15210405,0.0,0.0,1.0,0.029829526,0.091560885
603531120,-0.600484,-1.5696428,0.1358826,0.14732242,0.0,0.0,1.0,0.029184485,0.09156354
603736585,-0.58978266,-1.5588795,0.13136066,0.14274798,0.0,0.0,1.0,0.034458585,0.09153247
603939734,-0.5789444,-1.5479782,0.12726443,0.13860404,0.0,0.0,1.0,0.036181875,0.091407456
604141471,-0.56926847,-1.5382457,0.12366483,0.13496222,0.0,0.0,1.0,0.034196313,0.09126685
604343757,-0.56144506,-1.530376,0.13060476,0.14186145,0.0,0.0,1.0,0.027826564,0.09123364
604546910,-0.5560046,-1.5249051,0.12756404,0.13878664,0.0,0.0,1.0,0.018076396,0.09101722
604749202,-0.5535421,-1.5224285,0.12504429,0.13623787,0.0,0.0,1.0,0.009444793,0.09087068
604952627,-0.55121994,-1.5200936,0.122887135,0.1340568,0.0,0.0,1.0,0.011358813,0.09076698
605158969,-0.54855704,-1.5174158,0.12095226,0.1321003,0.0,0.0,1.0,0.014750018,0.09070283
605261583,-0.54686356,-1.5157129,0.12005342,0.13119142,0.0,0.0,1.0,0.017009202,0.09067579
605470998,-0.5421667,-1.5109929,0.12857273,0.13969101,0.0,0.0,1.0,0.023783877,0.09068214
605676493,-0.5370138,-1.5058144,0.12672275,0.13782267,0.0,0.0,1.0,0.027060853,0.09064637
605879549,-0.5311915,-1.4999641,0.12499063,0.13607386,0.0,0.0,1.0,0.029818796,0.090617545
606082317,-0.52530175,-1.4940462,0.12332204,0.1343893,0.0,0.0,1.0,0.0304749,0.09060527
606286317,-0.51965517,-1.4883717,0.1216856,0.13273665,0.0,0.0,1.0,0.028492117,0.09060696
606492849,-0.51369756,-1.4823872,0.13018359,0.14121754,0.0,0.0,1.0,0.028604168,0.09064627
606697798,-0.5077085,-1.4763727,0.12839302,0.13941173,0.0,0.0,1.0,0.029901266,0.09062363
606899437,-0.50441927,-1.4730697,0.1275321,0.13854352,0.0,0.0,1.0,0.03374389,0.09060937
607101704,-0.49800485,-1.4666283,0.12584043,0.1368376,0.0,0.0,1.0,0.034215447,0.09060003
607304114,-0.49031374,-1.4589072,0.12420517,0.13518952,0.0,0.0,1.0,0.042744603,0.09058705
607512291,-0.48112607,-1.4496883,0.13278495,0.14375669,0.0,0.0,1.0,0.045210745,0.090625234
607714916,-0.47162107,-1.4401526,0.13099547,0.14195566,0.0,0.0,1.0,0.048752684,0.09061081
607917892,-0.46238282,-1.4308867,0.1292196,0.14016919,0.0,0.0,1.0,0.04603546,0.09062528
608119508,-0.45357007,-1.4220474,0.12731962,0.13825771,0.0,0.0,1.0,0.0429554,0.09068651
608322267,-0.44481263,-1.4132622,0.12519844,0.13612306,0.0,0.0,1.0,0.039043445,0.09079009
608525430,-0.43512487,-1.4035467,0.13272978,0.14363834,0.0,0.0,1.0,0.03824597,0.09097317
608732097,-0.42462945,-1.3930224,0.12964323,0.14053479,0.0,0.0,1.0,0.04108798,0.09109534
608934992,-0.41399354,-1.3823575,0.12622224,0.13709508,0.0,0.0,1.0,0.038365163,0.091266535
609139237,-0.40234724,-1.3706833,0.122327074,0.13318129,0.0,0.0,1.0,0.040388197,0.09148216
609341623,-0.3897123,-1.3580207,0.11800538,0.1288406,0.0,0.0,1.0,0.041163743,0.09170369
609543508,-0.3730822,-1.341359,0.12283219,0.13364641,0.0,0.0,1.0,0.049978968,0.09206773
609745362,-0.35391113,-1.3221602,0.11717792,0.12797576,0.0,0.0,1.0,0.054039493,0.09218993
609947321,-0.3348259,-1.3030591,0.111687146,0.12247572,0.0,0.0,1.0,0.05613914,0.09218249
610149555,-0.31959686,-1.2878187,0.10658011,0.11736106,0.0,0.0,1.0,0.04187426,0.092117146
610352863,-0.31025645,-1.2784678,0.10199926,0.11276983,0.0,0.0,1.0,0.026272679,0.09195215
610556808,-0.30684242,-1.2750486,0.10738607,0.11814153,0.0,0.0,1.0,0.005569669,0.0919683
610759318,-0.3101107,-1.2783252,0.103132315,0.11386691,0.0,0.0,1.0,-0.015387547,0.09180385
610963031,-0.31671977,-1.2849536,0.09939742,0.11011019,0.0,0.0,1.0,-0.025123175,0.09163552
611164352,-0.32450387,-1.2927623,0.096140645,0.10683276,0.0,0.0,1.0,-0.030461576,0.091471866
611370807,-0.33269805,-1.3009835,0.09331137,0.10398479,0.0,0.0,1.0,-0.033353824,0.0913312
611577876,-0.33976752,-1.3080704,0.10059393,0.11125157,0.0,0.0,1.0,-0.024788536,0.09142368
611780729,-0.3433938,-1.3117051,0.09747718,0.10812069,0.0,0.0,1.0,-0.009318491,0.091435455
611983934,-0.34281135,-1.3111215,0.094371624,0.10500324,0.0,0.0,1.0,0.005553326,0.09148967
612185790,-0.3381284,-1.3064312,0.091338485,0.10196076,0.0,0.0,1.0,0.021198023,0.09150077
612390695,-0.33164468,-1.2999349,0.08838805,0.098998874,0.0,0.0,1.0,0.02715726,0.091487885
612592618,-0.32460725,-1.292885,0.095228136,0.105826706,0.0,0.0,1.0,0.02465539,0.091601424
612795691,-0.31867117,-1.2869397,0.09195622,0.10254485,0.0,0.0,1.0,0.021902202,0.0915963
612999318,-0.31277516,-1.2810353,0.088726506,0.09930596,0.0,0.0,1.0,0.023449909,0.091642775
613201578,-0.30661577,-1.274869,0.08562587,0.0961983,0.0,0.0,1.0,0.02249609,0.091624424
613404686,-0.30161986,-1.2698647,0.08262639,0.09318867,0.0,0.0,1.0,0.01952039,0.09162534
613608780,-0.29647502,-1.2647103,0.08924321,0.09979179,0.0,0.0,1.0,0.018104786,0.09185048
613811868,-0.29147258,-1.2596995,0.08569174,0.0962284,0.0,0.0,1.0,0.016642423,0.09186848
614013687,-0.28761417,-1.2558334,0.08220093,0.09272369,0.0,0.0,1.0,0.012691565,0.09191114
614219764,-0.2851267,-1.2533401,0.07877456,0.0892811,0.0,0.0,1.0,0.007728319,0.09196155
614423443,-0.28344685,-1.251656,0.07553227,0.08602219,0.0,0.0,1.0,0.0050129713,0.09191018
614626482,-0.28333366,-1.2515426,0.08202298,0.092492,0.0,0.0,1.0,-0.00014700205,0.09207929
614827337,-0.2836448,-1.2518547,0.078450345,0.088898376,0.0,0.0,1.0,-0.0018171998,0.092036515
615030420,-0.28482017,-1.2530336,0.07483028,0.085256584,0.0,0.0,1.0,-0.0043244683,0.09223004
615232924,-0.2839268,-1.2521387,0.07077258,0.08118054,0.0,0.0,1.0,0.0065768138,0.09266622
615439918,-0.2797374,-1.2479432,0.066256806,0.07665095,0.0,0.0,1.0,0.016961519,0.09316848
615641377,-0.26853734,-1.2367382,0.070295334,0.08068408,0.0,0.0,1.0,0.033988897,0.094059095
615843409,-0.2513584,-1.2195679,0.06422166,0.074616335,0.0,0.0,1.0,0.051446725,0.09425205
616046188,-0.22919382,-1.1974167,0.05842062,0.06882242,0.0,0.0,1.0,0.06748817,0.094466455
616250997,-0.20306718,-1.1712649,0.052959748,0.063351244,0.0,0.0,1.0,0.07832849,0.094611585
616453368,-0.17707422,-1.1451685,0.047986966,0.05833873,0.0,0.0,1.0,0.07886588,0.09458944
616661106,-0.14710285,-1.1149318,0.05168148,0.061916824,0.0,0.0,1.0,0.083768204,0.09554937
616862448,-0.11778041,-1.0851477,0.04595628,0.056010228,0.0,0.0,1.0,0.08437015,0.0954029
617064695,-0.08481027,-1.051461,0.041092314,0.050934177,0.0,0.0,1.0,0.111387566,0.09510975
617268492,-0.046155103,-1.0116152,0.03695694,0.04654133,0.0,0.0,1.0,0.13466771,0.094775885
617476535,-0.0071244272,-0.9709958,0.033620507,0.042928543,0.0,0.0,1.0,0.14949726,0.09421684
617681034,0.03574224,-0.9264611,0.039680876,0.048635963,0.0,0.0,1.0,0.13319446,0.09473262
617882318,0.06575436,-0.89504254,0.036229223,0.044852894,0.0,0.0,1.0,0.10372522,0.09400138
618083383,0.07667189,-0.8835602,0.034811463,0.04328464,0.0,0.0,1.0,0.08874494,0.093678765
618286735,0.08748758,-0.87212056,0.032675665,0.04089495,0.0,0.0,1.0,0.04287291,0.09273386
618489512,0.09115697,-0.8682302,0.031116035,0.039141275,0.0,0.0,1.0,0.0123349605,0.09210287
618693529,0.09020251,-0.86922884,0.03935295,0.047187198,0.0,0.0,1.0,-0.010655068,0.09215659
618897541,0.085632585,-0.874009,0.037848994,0.045541644,0.0,0.0,1.0,-0.030261464,0.09168061
619102940,0.07959493,-0.88032097,0.03667983,0.044263788,0.0,0.0,1.0,-0.03864835,0.09135939
619311048,0.07347345,-0.886714,0.035716113,0.043212622,0.0,0.0,1.0,-0.0442007,0.09116951
619515235,0.065457076,-0.8950759,0.03487288,0.042295072,0.0,0.0,1.0,-0.061446544,0.09106169
619719485,0.055027634,-0.9058359,0.04411872,0.051458642,0.0,0.0,1.0,-0.06053472,0.09127157
619925682,0.047065303,-0.9140358,0.042963274,0.050233286,0.0,0.0,1.0,-0.046008527,0.09118822
620130402,0.042073816,-0.9191671,0.04188545,0.049094446,0.0,0.0,1.0,-0.026932683,0.09114367
620337429,0.04065435,-0.920624,0.040856622,0.04801118,0.0,0.0,1.0,-0.0035253724,0.091120854
620544324,0.04202722,-0.91921717,0.039871294,0.04697618,0.0,0.0,1.0,0.013733489,0.091105044
620745442,0.04639404,-0.91476715,0.048875418,0.055921987,0.0,0.0,1.0,0.027651927,0.09138395
620947317,0.05261655,-0.9084277,0.04741961,0.05441095,0.0,0.0,1.0,0.036439963,0.09137818
621149679,0.05916525,-0.90175265,0.045987796,0.052923355,0.0,0.0,1.0,0.03747823,0.0914015
621351334,0.06552489,-0.89526755,0.044588268,0.051468037,0.0,0.0,1.0,0.03523321,0.09140766
621554009,0.070893034,-0.88979,0.043204945,0.05002774,0.0,0.0,1.0,0.029965213,0.09143986
621755483,0.07670805,-0.88387775,0.051366925,0.058120918,0.0,0.0,1.0,0.027004505,0.09176121
621962767,0.080731265,-0.8797858,0.049443386,0.056130998,0.0,0.0,1.0,0.017366568,0.09171578
622168597,0.08203808,-0.87845594,0.047640428,0.05426375,0.0,0.0,1.0,0.003059517,0.09168139
622371181,0.082016885,-0.8784775,0.04588038,0.052440558,0.0,0.0,1.0,-0.0005057558,0.09173197
622576335,0.08174763,-0.87875164,0.044146065,0.050643884,0.0,0.0,1.0,-0.0030166826,0.09176858
622779434,0.08100362,-0.87950635,0.051996246,0.058417127,0.0,0.0,1.0,-0.0031649875,0.09228948
622983504,0.07946995,-0.88106257,0.049245365,0.05558481,0.0,0.0,1.0,-0.0062931934,0.09255624
623187317,0.07783061,-0.8827264,0.046124596,0.052370638,0.0,0.0,1.0,-0.0075710723,0.09319515
623390348,0.07633875,-0.88424134,0.042296752,0.048423253,0.0,0.0,1.0,-0.003926439,0.09430758
623593653,0.07593326,-0.8846535,0.03722367,0.043179195,0.0,0.0,1.0,0.001459295,0.09658372
623795942,0.07919937,-0.88134193,0.036628194,0.042276815,0.0,0.0,1.0,0.0068404544,0.104404874
623997377,0.08215617,-0.87833565,0.0225693,0.02770792,0.0,0.0,1.0,0.0031287211,0.11992842
624202375,0.081797235,-0.8787344,0.0052766223,0.008494271,0.0,0.0,1.0,-0.0034249092,0.26095167
624410293,0.08273408,-0.8789852,0.0022238544,8.691875e-05,0.0,0.0,1.0,-0.011185745,0.12976207
624616036,0.08327649,-0.87908363,0.0020004567,7.955932e-05,0.0,0.0,1.0,-0.013856532,0.09302966
624819577,0.08483587,-0.8778161,0.010291034,0.009117413,0.0,0.0,1.0,-0.009849947,0.09735927
624923064,0.08581645,-0.8770158,0.009695865,0.008721044,0.0,0.0,1.0,-0.012422866,0.09552535
625130171,0.08663102,-0.8763493,0.008875188,0.008170992,0.0,0.0,1.0,-0.020664647,0.09371346
625333032,0.104008555,-0.8621502,0.008295681,0.0077835927,0.0,0.0,1.0,-0.25047362,0.09292461
625534714,0.104008555,-0.8621502,0.008295681,0.0077835927,0.0,0.0,1.0,-0.25047362,0.09292461
625741425,0.104008555,-0.8621502,0.01876001,0.018247921,0.0,0.0,1.0,-0.64014006,0.096319325
625943348,0.104008555,-0.8621502,0.01876001,0.018247921,0.0,0.0,1.0,-0.5882552,0.09649024
626150929,0.104008555,-0.8621502,0.01876001,0.018247921,0.0,0.0,1.0,-0.3894949,0.09750435
626354999,0.104008555,-0.8621502,0.01876001,0.018247921,0.0,0.0,1.0,-0.32235453,0.09854351
626557144,0.14423831,-0.825601,0.017034441,0.016823648,0.0,0.0,1.0,-0.4055872,0.0987535
626758317,0.14423831,-0.825601,0.027375136,0.027164342,0.0,0.0,1.0,-0.32821757,0.10670402
626960833,0.20713024,-0.76660615,0.022576302,0.022941804,0.0,0.0,1.0,-0.2999488,0.10915412
627162326,0.20713024,-0.76660615,0.022576302,0.022941804,0.0,0.0,1.0,-0.36801925,0.1083893
627364621,0.20713024,-0.76660615,0.022576302,0.022941804,0.0,0.0,1.0,-0.33638728,0.11060312
627568359,0.27088663,-0.7068971,0.018195601,0.019099634,0.0,0.0,1.0,-0.40639472,0.10876131
627775568,0.27088663,-0.7068971,0.028543597,0.02944763,0.0,0.0,1.0,-0.38437486,0.12163951
627978800,0.27088663,-0.7068971,0.028543597,0.02944763,0.0,0.0,1.0,-0.37929088,0.122011214
628182017,0.27088663,-0.7068971,0.028543597,0.02944763,0.0,0.0,1.0,-0.35271755,0.123692095
628390916,0.35807583,-0.62285966,0.020894824,0.022341844,0.0,0.0,1.0,-0.5026956,0.11411683
628594174,0.35807583,-0.62285966,0.020894824,0.022341844,0.0,0.0,1.0,-0.4902496,0.113695875
628795944,0.35807583,-0.62285966,0.031306494,0.032753516,0.0,0.0,1.0,-0.5122427,0.12290864
629000046,0.35807583,-0.62285966,0.031306494,0.032753516,0.0,0.0,1.0,-0.51849735,0.12166676
629201436,0.35807583,-0.62285966,0.031306494,0.032753516,0.0,0.0,1.0,-0.51880825,0.120862685
629403500,0.35807583,-0.62285966,0.031306494,0.032753516,0.0,0.0,1.0,-0.53550404,0.11945413
629606128,0.35807583,-0.62285966,0.031306494,0.032753516,0.0,0.0,1.0,-0.54635483,0.11842595
629807451,0.35807583,-0.62285966,0.04153796,0.04298498,0.0,0.0,1.0,-0.55198926,0.12686288
630013501,0.35807583,-0.62285966,0.04153796,0.04298498,0.0,0.0,1.0,-0.5702462,0.12544402
630215413,0.35807583,-0.62285966,0.04153796,0.04298498,0.0,0.0,1.0,-0.57130593,0.12498407
630418362,0.35807583,-0.62285966,0.04153796,0.04298498,0.0,0.0,1.0,-0.59469616,0.123873755
630621422,0.35807583,-0.62285966,0.04153796,0.04298498,0.0,0.0,1.0,-0.5679985,0.12476528
630824937,0.35807583,-0.62285966,0.05189074,0.05333776,0.0,0.0,1.0,-0.5683136,0.13316031
631027274,0.35807583,-0.62285966,0.05189074,0.05333776,0.0,0.0,1.0,-0.5363078,0.13435115
631230444,0.35807583,-0.62285966,0.05189074,0.05333776,0.0,0.0,1.0,-0.5423088,0.1340948
631434468,0.35807583,-0.62285966,0.05189074,0.05333776,0.0,0.0,1.0,-0.5302829,0.1353316
631636776,0.35807583,-0.62285966,0.05189074,0.05333776,0.0,0.0,1.0,-0.506853,0.13721737
631838480,0.35807583,-0.62285966,0.062163435,0.06361046,0.0,0.0,1.0,-0.49699065,0.1474947
632041394,0.35807583,-0.62285966,0.062163435,0.06361046,0.0,0.0,1.0,-0.46881095,0.15039764
632244315,0.35807583,-0.62285966,0.062163435,0.06361046,0.0,0.0,1.0,-0.46270317,0.15140791
632448555,0.35807583,-0.62285966,0.062163435,0.06361046,0.0,0.0,1.0,-0.47007138,0.15218654
632651283,0.35807583,-0.62285966,0.062163435,0.06361046,0.0,0.0,1.0,-0.46878088,0.15300623
632855107,0.35807583,-0.62285966,0.07249874,0.07394576,0.0,0.0,1.0,-0.45946294,0.16694212
633056363,0.35807583,-0.62285966,0.07249874,0.07394576,0.0,0.0,1.0,-0.4556725,0.16790223
633259415,0.35807583,-0.62285966,0.07249874,0.07394576,0.0,0.0,1.0,-0.43593445,0.1715897
633463427,0.35807583,-0.62285966,0.07249874,0.07394576,0.0,0.0,1.0,-0.46391365,0.16963372
633665435,0.35807583,-0.62285966,0.07249874,0.07394576,0.0,0.0,1.0,-0.46391365,0.16963372
633868414,0.35807583,-0.62285966,0.07249874,0.07394576,0.0,0.0,1.0,-0.46391365,0.16963372
634071833,0.35807583,-0.62285966,0.07249874,0.07394576,0.0,0.0,1.0,-0.46391365,0.16963372
634273382,0.35807583,-0.62285966,0.07249874,0.07394576,0.0,0.0,1.0,-0.46391365,0.16963372
634478749,0.35807583,-0.62285966,0.07249874,0.07394576,0.0,0.0,1.0,-0.46391365,0.16963372
634680318,0.35807583,-0.62285966,0.07249874,0.07394576,0.0,0.0,1.0,-0.46391365,0.16963372
634882515,0.35807583,-0.62285966,0.07249874,0.07394576,0.0,0.0,1.0,-0.46391365,0.16963372
635084776,0.35807583,-0.62285966,0.07249874,0.07394576,0.0,0.0,1.0,-0.46391365,0.16963372
635286381,0.35807583,-0.62285966,0.07249874,0.07394576,0.0,0.0,1.0,-0.46391365,0.16963372
635489215,0.35807583,-0.62285966,0.07249874,0.07394576,0.0,0.0,1.0,-0.46391365,0.16963372
635692552,0.35807583,-0.62285966,0.07249874,0.07394576,0.0,0.0,1.0,-0.46391365,0.16963372
635896641,0.35807583,-0.62285966,0.07249874,0.07394576,0.0,0.0,1.0,-0.46391365,0.16963372
636099873,0.35807583,-0.62285966,0.07249874,0.07394576,0.0,0.0,1.0,-0.46391365,0.16963372
636302203,0.35807583,-0.62285966,0.07249874,0.07394576,0.0,0.0,1.0,-0.46391365,0.16963372
636507694,0.35807583,-0.62285966,0.07249874,0.07394576,0.0,0.0,1.0,-0.46391365,0.16963372
636711425,0.35807583,-0.62285966,0.07249874,0.07394576,0.0,0.0,1.0,-0.46391365,0.16963372
636914437,0.35807583,-0.62285966,0.07249874,0.07394576,0.0,0.0,1.0,-0.46391365,0.16963372
637118816,0.35807583,-0.62285966,0.07249874,0.07394576,0.0,0.0,1.0,-0.46391365,0.16963372
637321396,0.35807583,-0.62285966,0.07249874,0.07394576,0.0,0.0,1.0,-0.46391365,0.16963372
637524043,0.35807583,-0.62285966,0.07249874,0.07394576,0.0,0.0,1.0,-0.46391365,0.16963372
637724322,0.35807583,-0.62285966,0.07249874,0.07394576,0.0,0.0,1.0,-0.46391365,0.16963372
637928350,0.35807583,-0.62285966,0.07249874,0.07394576,0.0,0.0,1.0,-0.46391365,0.16963372
638130338,0.35807583,-0.62285966,0.07249874,0.07394576,0.0,0.0,1.0,-0.46391365,0.16963372
638332396,0.35807583,-0.62285966,0.07249874,0.07394576,0.0,0.0,1.0,-0.46391365,0.16963372
638535505,0.35807583,-0.62285966,0.07249874,0.07394576,0.0,0.0,1.0,-0.46391365,0.16963372
638738015,0.35807583,-0.62285966,0.07249874,0.07394576,0.0,0.0,1.0,-0.46391365,0.16963372
638941089,0.35807583,-0.62285966,0.07249874,0.07394576,0.0,0.0,1.0,-0.46391365,0.16963372
639143761,0.35807583,-0.62285966,0.07249874,0.07394576,0.0,0.0,1.0,-0.46391365,0.16963372
639345556,0.35807583,-0.62285966,0.07249874,0.07394576,0.0,0.0,1.0,-0.46391365,0.16963372
639547966,0.35807583,-0.62285966,0.07249874,0.07394576,0.0,0.0,1.0,-0.46391365,0.16963372
639749470,0.35807583,-0.62285966,0.07249874,0.07394576,0.0,0.0,1.0,-0.46391365,0.16963372
639951549,0.35807583,-0.62285966,0.07249874,0.07394576,0.0,0.0,1.0,-0.46391365,0.16963372
640154900,0.35807583,-0.62285966,0.07249874,0.07394576,0.0,0.0,1.0,-0.46391365,0.16963372
640358337,0.35807583,-0.62285966,0.07249874,0.07394576,0.0,0.0,1.0,-0.46391365,0.16963372
640562183,0.35807583,-0.62285966,0.07249874,0.07394576,0.0,0.0,1.0,-0.46391365,0.16963372
640769433,0.35807583,-0.62285966,0.07249874,0.07394576,0.0,0.0,1.0,-0.46391365,0.16963372
640972910,0.35807583,-0.62285966,0.07249874,0.07394576,0.0,0.0,1.0,-0.46391365,0.16963372
641174460,0.35807583,-0.62285966,0.07249874,0.07394576,0.0,0.0,1.0,-0.46391365,0.16963372
641379456,0.35807583,-0.62285966,0.07249874,0.07394576,0.0,0.0,1.0,-0.46391365,0.16963372
641583612,0.35807583,-0.62285966,0.07249874,0.07394576,0.0,0.0,1.0,-0.46391365,0.16963372
641787718,0.35807583,-0.62285966,0.07249874,0.07394576,0.0,0.0,1.0,-0.46391365,0.16963372
641989683,0.35807583,-0.62285966,0.07249874,0.07394576,0.0,0.0,1.0,-0.46391365,0.16963372
642191911,0.35807583,-0.62285966,0.07249874,0.07394576,0.0,0.0,1.0,-0.46391365,0.16963372
642393469,0.35807583,-0.62285966,0.07249874,0.07394576,0.0,0.0,1.0,-0.46391365,0.16963372
642597457,0.35807583,-0.62285966,0.07249874,0.07394576,0.0,0.0,1.0,-0.46391365,0.16963372
642804399,0.35807583,-0.62285966,0.07249874,0.07394576,0.0,0.0,1.0,-0.46391365,0.16963372
643011752,0.35807583,-0.62285966,0.07249874,0.07394576,0.0,0.0,1.0,-0.46391365,0.16963372
643213726,0.35807583,-0.62285966,0.07249874,0.07394576,0.0,0.0,1.0,-0.46391365,0.16963372
643415458,0.35807583,-0.62285966,0.07249874,0.07394576,0.0,0.0,1.0,-0.46391365,0.16963372
643617980,0.35807583,-0.62285966,0.07249874,0.07394576,0.0,0.0,1.0,-0.46391365,0.16963372
643820008,0.35807583,-0.62285966,0.07249874,0.07394576,0.0,0.0,1.0,-0.46391365,0.16963372
644022398,0.35807583,-0.62285966,0.07249874,0.07394576,0.0,0.0,1.0,-0.46391365,0.16963372
644225930,0.35807583,-0.62285966,0.07249874,0.07394576,0.0,0.0,1.0,-0.46391365,0.16963372
644428349,0.35807583,-0.62285966,0.07249874,0.07394576,0.0,0.0,1.0,-0.46391365,0.16963372
644632376,0.35807583,-0.62285966,0.07249874,0.07394576,0.0,0.0,1.0,-0.46391365,0.16963372
644835321,0.35807583,-0.62285966,0.07249874,0.07394576,0.0,0.0,1.0,-0.46391365,0.16963372
645039318,0.35807583,-0.62285966,0.07249874,0.07394576,0.0,0.0,1.0,-0.46391365,0.16963372
645241498,0.35807583,-0.62285966,0.07249874,0.07394576,0.0,0.0,1.0,-0.46391365,0.16963372
645442738,0.35807583,-0.62285966,0.07249874,0.07394576,0.0,0.0,1.0,-0.46391365,0.16963372
645646433,0.35807583,-0.62285966,0.07249874,0.07394576,0.0,0.0,1.0,-0.46391365,0.16963372
645849532,0.35807583,-0.62285966,0.07249874,0.07394576,0.0,0.0,1.0,-0.46391365,0.16963372
646053651,0.35807583,-0.62285966,0.07249874,0.07394576,0.0,0.0,1.0,-0.46391365,0.16963372
646255317,0.35807583,-0.62285966,0.07249874,0.07394576,0.0,0.0,1.0,-0.46391365,0.16963372
646459859,0.35807583,-0.62285966,0.07249874,0.07394576,0.0,0.0,1.0,-0.46391365,0.16963372
646663979,0.35807583,-0.62285966,0.07249874,0.07394576,0.0,0.0,1.0,-0.46391365,0.16963372
646867561,0.35807583,-0.62285966,0.07249874,0.07394576,0.0,0.0,1.0,-0.46391365,0.16963372
647071318,0.35807583,-0.62285966,0.07249874,0.07394576,0.0,0.0,1.0,-0.46391365,0.16963372
647276633,0.35807583,-0.62285966,0.07249874,0.07394576,0.0,0.0,1.0,-0.46391365,0.16963372
647478446,0.35807583,-0.62285966,0.07249874,0.07394576,0.0,0.0,1.0,-0.46391365,0.16963372
647680563,0.35807583,-0.62285966,0.07249874,0.07394576,0.0,0.0,1.0,-0.46391365,0.16963372
647883270,0.35807583,-0.62285966,0.07249874,0.07394576,0.0,0.0,1.0,-0.46391365,0.16963372
648086142,0.35807583,-0.62285966,0.07249874,0.07394576,0.0,0.0,1.0,-0.46391365,0.16963372
648290527,0.35807583,-0.62285966,0.07249874,0.07394576,0.0,0.0,1.0,-0.46391365,0.16963372
648493489,0.35807583,-0.62285966,0.07249874,0.07394576,0.0,0.0,1.0,-0.46391365,0.16963372
648695516,0.35807583,-0.62285966,0.07249874,0.07394576,0.0,0.0,1.0,-0.46391365,0.16963372
648898752,0.35807583,-0.62285966,0.07249874,0.07394576,0.0,0.0,1.0,-0.46391365,0.16963372
649100831,0.35807583,-0.62285966,0.07249874,0.07394576,0.0,0.0,1.0,-0.46391365,0.16963372
649303549,0.35807583,-0.62285966,0.07249874,0.07394576,0.0,0.0,1.0,-0.46391365,0.16963372
649505598,0.35807583,-0.62285966,0.07249874,0.07394576,0.0,0.0,1.0,-0.46391365,0.16963372
649711492,0.35807583,-0.62285966,0.07249874,0.07394576,0.0,0.0,1.0,-0.46391365,0.16963372
649916131,0.35807583,-0.62285966,0.07249874,0.07394576,0.0,0.0,1.0,-0.46391365,0.16963372
650117552,0.35807583,-0.62285966,0.07249874,0.07394576,0.0,0.0,1.0,-0.46391365,0.16963372
650319337,0.35807583,-0.62285966,0.07249874,0.07394576,0.0,0.0,1.0,-0.46391365,0.16963372
650521907,0.35807583,-0.62285966,0.07249874,0.07394576,0.0,0.0,1.0,-0.46391365,0.16963372
650724594,0.35807583,-0.62285966,0.07249874,0.07394576,0.0,0.0,1.0,-0.46391365,0.16963372
650927862,0.35807583,-0.62285966,0.07249874,0.07394576,0.0,0.0,1.0,-0.46391365,0.16963372
651129450,0.35807583,-0.62285966,0.07249874,0.07394576,0.0,0.0,1.0,-0.46391365,0.16963372
651333147,0.35807583,-0.62285966,0.07249874,0.07394576,0.0,0.0,1.0,-0.46391365,0.16963372
651538723,0.35807583,-0.62285966,0.07249874,0.07394576,0.0,0.0,1.0,-0.46391365,0.16963372
651739563,0.35807583,-0.62285966,0.07249874,0.07394576,0.0,0.0,1.0,-0.46391365,0.16963372
651943629,0.35807583,-0.62285966,0.07249874,0.07394576,0.0,0.0,1.0,-0.46391365,0.16963372
652146725,0.35807583,-0.62285966,0.07249874,0.07394576,0.0,0.0,1.0,-0.46391365,0.16963372
652349410,0.35807583,-0.62285966,0.07249874,0.07394576,0.0,0.0,1.0,-0.46391365,0.16963372
652554810,0.35807583,-0.62285966,0.07249874,0.07394576,0.0,0.0,1.0,-0.46391365,0.16963372
652757833,0.35807583,-0.62285966,0.07249874,0.07394576,0.0,0.0,1.0,-0.46391365,0.16963372
652960910,0.35807583,-0.62285966,0.07249874,0.07394576,0.0,0.0,1.0,-0.46391365,0.16963372
653163918,0.35807583,-0.62285966,0.07249874,0.07394576,0.0,0.0,1.0,-0.46391365,0.16963372
653365909,0.35807583,-0.62285966,0.07249874,0.07394576,0.0,0.0,1.0,-0.46391365,0.16963372
653571166,0.35807583,-0.62285966,0.07249874,0.07394576,0.0,0.0,1.0,-0.46391365,0.16963372
653773197,0.35807583,-0.62285966,0.07249874,0.07394576,0.0,0.0,1.0,-0.46391365,0.16963372
653977737,0.35807583,-0.62285966,0.07249874,0.07394576,0.0,0.0,1.0,-0.46391365,0.16963372
654180657,0.35807583,-0.62285966,0.07249874,0.07394576,0.0,0.0,1.0,-0.46391365,0.16963372
654383725,0.35807583,-0.62285966,0.07249874,0.07394576,0.0,0.0,1.0,-0.46391365,0.16963372
654588003,0.35807583,-0.62285966,0.07249874,0.07394576,0.0,0.0,1.0,-0.46391365,0.16963372
654790336,0.35807583,-0.62285966,0.07249874,0.07394576,0.0,0.0,1.0,-0.46391365,0.16963372
654995418,0.35807583,-0.62285966,0.07249874,0.07394576,0.0,0.0,1.0,-0.46391365,0.16963372
655202459,-0.0028961946,-0.0033054117,0.48704863,1.011334,0.0,0.0,1.0,-0.0013013252,0.94557333
655404842,-0.0025981595,-0.003024362,0.20523664,0.75681716,0.0,0.0,1.0,-0.0007828501,0.12281134
655608384,-7.087199e-05,-0.00064935186,0.1453969,0.70395726,0.0,0.0,1.0,0.0017107585,0.10421005
655810402,-0.0014843529,-0.0019932077,0.11815441,0.6793775,0.0,0.0,1.0,-0.0029037492,0.099043585
656013406,-0.0023859148,-0.002835344,0.10113662,0.66458225,0.0,0.0,1.0,-0.002361278,0.09710696
656220403,-0.003051183,-0.0034559765,0.09715373,0.66243523,0.0,0.0,1.0,-0.0009031726,0.09709869
656428117,-0.0019346464,-0.0024226482,0.0843356,0.65145147,0.0,0.0,1.0,0.0025385076,0.096696235
656629531,0.0006694595,-6.158849e-05,0.07360449,0.6426308,0.0,0.0,1.0,0.0055578053,0.09656016
656831618,0.00346961,0.002387302,0.06390766,0.6352224,0.0,0.0,1.0,0.0054403194,0.09708992
657034794,0.0064396616,0.004958912,0.05459348,0.628057,0.0,0.0,1.0,0.0096822,0.09781705
657238716,0.007295725,0.0057538874,0.05868974,0.63301665,0.0,0.0,1.0,0.0034186933,0.10004803
657441426,0.008920452,0.007193189,0.04863762,0.6250501,0.0,0.0,1.0,0.004194758,0.0991416
657644754,0.008283844,0.006549666,0.040795695,0.61840665,0.0,0.0,1.0,-0.0050170044,0.098821364
657847607,0.0065400824,0.004987306,0.034086194,0.61319965,0.0,0.0,1.0,-0.0033950259,0.099465504
658052595,0.0026820244,0.0015196587,0.027009055,0.607489,0.0,0.0,1.0,-0.01025313,0.10367381
658156517,0.0009802942,0.00038366314,0.023081224,0.60573864,0.0,0.0,1.0,-0.0089294445,0.10814844
658362807,-0.006228942,-0.004508499,0.015508092,0.6065353,0.0,0.0,1.0,-0.010602587,0.16196008
658564367,-0.0073597813,0.0010726602,0.0019292561,0.0077624917,0.0,0.0,1.0,-0.013055753,162.6675
658773487,-0.003782187,-0.0058822217,0.0014323236,0.005894978,0.0,0.0,1.0,-0.062487137,0.096951604
658977178,0.005363493,-0.023782108,0.0013396754,0.0055398964,0.0,0.0,1.0,-0.27196687,0.09233613
659185658,0.005363493,-0.023782108,0.0013396754,0.0055398964,0.0,0.0,1.0,-0.27196687,0.09233613
659387796,0.005363493,-0.023782108,0.011861921,0.016062142,0.0,0.0,1.0,0.34069803,0.097302146
659594397,-0.0242093,-0.042055838,0.0103576705,0.015485029,0.0,0.0,1.0,0.10645512,0.09606033
659796332,-0.02503703,-0.042540163,0.009225868,0.0150240045,0.0,0.0,1.0,-0.03266461,0.09521476
659999573,-0.0186379,-0.038348507,0.008315471,0.0146364095,0.0,0.0,1.0,-0.06523526,0.09472737
660203460,-0.005023293,-0.029127251,0.0075276196,0.014275818,0.0,0.0,1.0,-0.11774353,0.0945676
660407321,0.01907794,-0.008161451,0.0140423905,0.021734776,0.0,0.0,1.0,-0.05333838,0.10187587
660609633,0.01907794,-0.008161451,0.0140423905,0.021734776,0.0,0.0,1.0,-0.05333838,0.10187587
660818788,0.053138465,0.022201622,0.008671435,0.017454475,0.0,0.0,1.0,-0.10327567,0.11769689
661023793,0.09085475,0.057879776,0.004145137,0.013411699,0.0,0.0,1.0,-0.14873302,0.13683593
661228700,0.12169587,0.09429251,0.0012677013,0.009467915,0.0,0.0,1.0,-0.18154413,0.1907407
661431775,0.13427873,0.11992307,0.001442032,0.0026501727,0.0,0.0,1.0,-0.18162812,0.8905374
661635207,0.13199002,0.12309482,2.2506923e-05,6.9224916e-07,0.0,0.0,1.0,-0.16186203,42.418915
661839518,0.13118961,0.12319841,1.5976208e-05,6.4368976e-08,0.0,0.0,1.0,-0.17751463,1.6025388
662042402,0.13225831,0.123251155,4.0527457e-06,3.284893e-08,0.0,0.0,1.0,-0.16369058,0.091564916
662247438,0.13240664,0.12325599,4.0155073e-06,3.2809268e-08,0.0,0.0,1.0,-0.15767665,0.09027995
662451916,0.16100517,0.15184557,0.00080968585,0.0008110547,0.0,0.0,1.0,-0.19465315,0.13549176
662653882,0.17572758,0.16655847,0.00061841885,0.0006200215,0.0,0.0,1.0,-0.2762789,0.098883584
662856320,0.17572758,0.16655847,0.00061841885,0.0006200215,0.0,0.0,1.0,-0.38362277,0.094181925
663060367,0.17572758,0.16655847,0.00061841885,0.0006200215,0.0,0.0,1.0,-0.46325406,0.092915684
663264018,0.17572758,0.16655847,0.00061841885,0.0006200215,0.0,0.0,1.0,-0.49703068,0.09275014
663467862,0.23001163,0.22083974,0.004815586,0.0048178216,0.0,0.0,1.0,-0.3130945,0.20539302
663675192,0.2717522,0.26258582,1.590699e-05,1.486449e-05,0.0,0.0,1.0,-0.33501688,9.363381
663878485,0.27153197,0.26243684,1.5869198e-05,1.4847331e-05,0.0,0.0,1.0,-0.21874806,0.090072036
664081395,0.2714519,0.2623728,1.585983e-05,1.4841352e-05,0.0,0.0,1.0,-0.17216292,0.09002115
664284338,0.2714029,0.26233292,1.5855181e-05,1.4838269e-05,0.0,0.0,1.0,-0.14256625,0.090011194
664488414,0.25090942,0.24184519,0.00933599,0.009335593,0.0,0.0,1.0,-0.12959103,0.094520055
664691021,0.23722427,0.22816388,0.008655819,0.008655804,0.0,0.0,1.0,-0.104922555,0.09313355
664892686,0.22658819,0.21753073,0.008171771,0.008172023,0.0,0.0,1.0,-0.10079364,0.09244235
665098530,0.21872331,0.20966804,0.007822381,0.007822828,0.0,0.0,1.0,-0.088187285,0.09188501
665300801,0.21191369,0.2028603,0.0075356644,0.0075362697,0.0,0.0,1.0,-0.0874569,0.0916627
665502390,0.19809043,0.18903863,0.01648796,0.016488872,0.0,0.0,1.0,-0.08150111,0.09343983
665705442,0.18612468,0.17707427,0.01540118,0.015402341,0.0,0.0,1.0,-0.07789144,0.09305168
665909621,0.175372,0.16632284,0.0144639,0.014465277,0.0,0.0,1.0,-0.07740701,0.09285017
666113586,0.165677,0.15662898,0.013583703,0.013585289,0.0,0.0,1.0,-0.06981156,0.0929107
666316690,0.1555499,0.1465031,0.012639631,0.012641444,0.0,0.0,1.0,-0.07096797,0.093459204
666520413,0.14025575,0.13121006,0.01981349,0.019815756,0.0,0.0,1.0,-0.056748483,0.09717614
666722467,0.12639533,0.11735066,0.016644184,0.01664692,0.0,0.0,1.0,-0.04983317,0.098330356
666924395,0.11666878,0.10762494,0.013742722,0.013745951,0.0,0.0,1.0,-0.03659284,0.09934111
667127355,0.11028279,0.1012396,0.011086818,0.011090592,0.0,0.0,1.0,-0.024747815,0.100426055
667330318,0.105039924,0.09599733,0.008753454,0.008757768,0.0,0.0,1.0,-0.024397017,0.101526834
667534792,0.09984194,0.09079968,0.012194177,0.012199365,0.0,0.0,1.0,-0.013470517,0.1107603
667739952,0.0962425,0.08720046,0.008710457,0.00871606,0.0,0.0,1.0,-0.009508033,0.10457181
667941495,0.09218035,0.08313843,0.0067048194,0.0067105633,0.0,0.0,1.0,-0.025465999,0.101894915
668144929,0.086522065,0.077480055,0.005469991,0.005475701,0.0,0.0,1.0,-0.03849404,0.09897679
668347462,0.0796872,0.07064482,0.0046157767,0.004621393,0.0,0.0,1.0,-0.05381083,0.097633675
668548358,0.061716948,0.05267414,0.009584443,0.00958981,0.0,0.0,1.0,-0.05771018,0.110299625
668755125,0.050403535,0.041360453,0.007000193,0.0070054373,0.0,0.0,1.0,-0.04480229,0.10364243
668956689,0.043708988,0.03466578,0.0056004534,0.0056056455,0.0,0.0,1.0,-0.039812203,0.099897645
669160388,0.039362002,0.030318711,0.0047531608,0.004758323,0.0,0.0,1.0,-0.032892257,0.097193316
669362317,0.03717271,0.028129404,0.004214975,0.004220135,0.0,0.0,1.0,-0.012571045,0.09493816
669565606,0.03349505,0.024451742,0.010989071,0.010994225,0.0,0.0,1.0,-0.011810615,0.10178266
669769030,0.03221965,0.023176342,0.009174158,0.0091793155,0.0,0.0,1.0,-0.006225973,0.09768456
