timestamp,states[0],states[1],states[2],states[3],states[4],states[5],states[6],states[7],states[8],states[9],states[10],states[11],states[12],states[13],states[14],states[15],states[16],states[17],states[18],states[19],states[20],states[21],states[22],states[23],vibe[0],vibe[1],vibe[2],covariances[0],covariances[1],covariances[2],covariances[3],covariances[4],covariances[5],covariances[6],covariances[7],covariances[8],covariances[9],covariances[10],covariances[11],covariances[12],covariances[13],covariances[14],covariances[15],covariances[16],covariances[17],covariances[18],covariances[19],covariances[20],covariances[21],covariances[22],covariances[23],control_mode_flags,pos_horiz_accuracy,pos_vert_accuracy,mag_test_ratio,vel_test_ratio,pos_test_ratio,hgt_test_ratio,tas_test_ratio,hagl_test_ratio,beta_test_ratio,time_slip,gps_check_fail_flags,filter_fault_flags,innovation_check_flags,solution_status_flags,n_states,pre_flt_fail,health_flags,timeout_flags
519050071,0.9783981,0.011283952,0.011684882,0.20609094,-0.014229883,0.024231046,0.0023368003,0.32263675,0.3375094,-3.4230793,-2.691959e-05,1.6730371e-06,4.0791223e-05,1.5071519e-06,-6.291427e-06,2.2262253e-05,0.23041251,-0.028827788,0.3857524,0.0,0.0,0.0,0.0,0.0,1.67644e-10,9.925105e-06,0.0005740499,1.7940208e-06,4.692364e-05,4.6867994e-05,3.6702964e-05,0.0072398204,0.007238766,0.016896348,0.01941098,0.019410271,0.37746,1.0100087e-11,1.0102399e-11,1.849877e-11,1.0855655e-06,1.0848313e-06,5.0000107e-08,0.0,0.0,0.0,0.0,0.0,0.0,0.0,0.0,535,0.1970311,0.61437774,0.0035001305,0.011441287,0.0067565576,0.0023228996,0.0,0.0,0.0,0.011969,0,0,0,831,24,0,0,0
519257274,0.97839355,0.011286666,0.011724962,0.20610987,-0.01432745,0.024113612,0.001162676,0.32328427,0.33802184,-3.4242089,-2.6885376e-05,1.6796587e-06,4.076666e-05,1.5000654e-06,-6.392046e-06,2.3080527e-05,0.23041251,-0.028827788,0.3857524,0.0,0.0,0.0,0.0,0.0,1.6909049e-10,1.0093169e-05,0.00052990805,1.7948698e-06,4.6926707e-05,4.6870886e-05,3.6719353e-05,0.007283201,0.007282095,0.016933681,0.01955617,0.019555446,0.37769482,1.0103901e-11,1.0106235e-11,1.850131e-11,1.0855648e-06,1.0848304e-06,5.000007e-08,0.0,0.0,0.0,0.0,0.0,0.0,0.0,0.0,535,0.19776657,0.6145688,0.00033270044,0.014899222,0.0071507664,0.0026320966,0.0,0.0,0.0,0.011969,0,0,0,831,24,0,0,0
519457271,0.97840255,0.011262189,0.011717237,0.20606898,-0.01420866,0.022430114,0.0018522794,0.32467693,0.3363471,-3.4209712,-2.6836877e-05,1.6862501e-06,4.0745777e-05,1.4621976e-06,-6.494037e-06,2.1929625e-05,0.23041251,-0.028827788,0.3857524,0.0,0.0,0.0,0.0,0.0,1.7032856e-10,9.694211e-06,0.0003992571,1.7937583e-06,4.6923284e-05,4.6867495e-05,3.6716134e-05,0.0072815,0.0072803684,0.016923934,0.019545747,0.019545017,0.37713596,1.0102145e-11,1.01045014e-11,1.8498312e-11,1.0855642e-06,1.0848296e-06,5.000007e-08,0.0,0.0,0.0,0.0,0.0,0.0,0.0,0.0,535,0.19771384,0.614114,0.013258619,0.016185837,0.010518608,0.0031802352,0.0,0.0,0.0,0.011969,0,0,0,831,24,0,0,0
519664468,0.978407,0.011241475,0.011695098,0.20605028,-0.01357195,0.02237533,0.00039040289,0.32600158,0.33644888,-3.4194815,-2.6806849e-05,1.6926956e-06,4.0723855e-05,1.4477076e-06,-6.55331e-06,2.1961794e-05,0.23041251,-0.028827788,0.3857524,0.0,0.0,0.0,0.0,0.0,2.2160117e-10,1.0208407e-05,0.00042753885,1.7910014e-06,4.69274e-05,4.6871737e-05,3.667039e-05,0.0073259575,0.007324795,0.016943477,0.019691393,0.019690644,0.37593874,1.0105062e-11,1.0107439e-11,1.8486553e-11,1.0855638e-06,1.084829e-06,5.0000036e-08,0.0,0.0,0.0,0.0,0.0,0.0,0.0,0.0,535,0.19844908,0.61313844,0.008728401,0.008136273,0.009888899,0.0007142934,0.0,0.0,0.0,0.011969,0,0,0,831,24,0,0,0
519863668,0.9783727,0.011197957,0.011654935,0.20621744,-0.011026248,0.019734457,0.00076544704,0.3321214,0.33264187,-3.4154525,-2.674437e-05,1.7241555e-06,4.0713752e-05,1.4247898e-06,-6.6388257e-06,2.1058984e-05,0.23041251,-0.028827788,0.3857524,0.0,0.0,0.0,0.0,0.0,2.587399e-10,1.27189305e-05,0.0007320891,1.7935305e-06,4.684776e-05,4.679222e-05,3.666495e-05,0.0068307864,0.006829734,0.01644282,0.017978394,0.017977795,0.37194052,1.0052739e-11,1.0055172e-11,1.8485196e-11,1.0855638e-06,1.0848287e-06,5e-08,0.0,0.0,0.0,0.0,0.0,0.0,0.0,0.0,535,0.18962117,0.60986924,0.005369673,0.00907884,0.009181171,0.007259523,0.0,0.0,0.0,0.011969,0,0,0,831,24,0,0,0
520063674,0.9783758,0.011219014,0.01167447,0.20620036,-0.012572175,0.019742489,0.0017523564,0.33158794,0.33364484,-3.410779,-2.6729154e-05,1.7168794e-06,4.070372e-05,1.4487474e-06,-6.667745e-06,2.1348595e-05,0.23041251,-0.028827788,0.3857524,0.0,0.0,0.0,0.0,0.0,2.8582037e-10,1.5079456e-05,0.00084381155,1.7905427e-06,4.6846555e-05,4.679107e-05,3.6600013e-05,0.0068290276,0.006827962,0.016419856,0.017971301,0.017970689,0.370148,1.0051285e-11,1.0053739e-11,1.8470067e-11,1.0855638e-06,1.0848285e-06,5e-08,0.0,0.0,0.0,0.0,0.0,0.0,0.0,0.0,535,0.18958372,0.6083979,0.006960877,0.028560473,0.0071314406,0.0022392275,0.0,0.0,0.0,0.011969,0,0,0,831,24,0,0,0
520270878,0.9784192,0.011256698,0.011595814,0.20599669,-0.0117897345,0.020074433,0.0036486639,0.33395407,0.3338483,-3.4031136,-2.6691978e-05,1.7331777e-06,4.0690033e-05,1.4185201e-06,-6.667931e-06,2.0737029e-05,0.23041251,-0.028827788,0.3857524,0.0,0.0,0.0,0.0,0.0,3.539995e-10,1.6535436e-05,0.0010594985,1.7906787e-06,4.685189e-05,4.6796857e-05,3.6682908e-05,0.0068656146,0.006864535,0.016481712,0.018097902,0.018097274,0.37189794,1.0054247e-11,1.0056731e-11,1.848587e-11,1.0855638e-06,1.0848282e-06,5e-08,0.0,0.0,0.0,0.0,0.0,0.0,0.0,0.0,535,0.19025029,0.6098344,0.004769667,0.019579764,0.00693227,0.005247974,0.0,0.0,0.0,0.011969,0,0,0,831,24,0,0,0
520470877,0.9783733,0.011244452,0.011677949,0.2062112,-0.01327706,0.018745458,0.0063838083,0.33455688,0.3333166,-3.400909,-2.6656571e-05,1.7330191e-06,4.068212e-05,1.4186796e-06,-6.634454e-06,2.0052446e-05,0.23041251,-0.028827788,0.3857524,0.0,0.0,0.0,0.0,0.0,4.7018195e-10,1.6795379e-05,0.0008077012,1.7943981e-06,4.6852627e-05,4.679724e-05,3.6675814e-05,0.006863767,0.0068626953,0.01647762,0.018092494,0.01809186,0.37148014,1.0052442e-11,1.0054954e-11,1.8483142e-11,1.0855634e-06,1.0848278e-06,5e-08,0.0,0.0,0.0,0.0,0.0,0.0,0.0,0.0,535,0.19022186,0.6094917,0.012220745,0.019016191,0.0065372223,0.002918259,0.0,0.0,0.0,0.011969,0,0,0,831,24,0,0,0
520670068,0.9784949,0.01121304,0.01159222,0.20563947,-0.009114575,0.020180482,0.006103757,0.33844677,0.33396852,-3.4007452,-2.662075e-05,1.761943e-06,4.0662682e-05,1.352101e-06,-6.6124794e-06,2.0509606e-05,0.23041251,-0.028827788,0.3857524,0.0,0.0,0.0,0.0,0.0,1.1490335e-09,2.161499e-05,0.00086769124,1.7848564e-06,4.6855086e-05,4.6799745e-05,3.6682104e-05,0.006867371,0.0068662995,0.016474497,0.018100131,0.01809949,0.37112308,1.0051996e-11,1.0054531e-11,1.8481721e-11,1.0855631e-06,1.0848272e-06,5e-08,0.0,0.0,0.0,0.0,0.0,0.0,0.0,0.0,535,0.19026197,0.6091987,0.007674409,0.010671369,0.010371236,0.009614792,0.0,0.0,0.0,0.011969,0,0,0,831,24,0,0,0
520870068,0.97833276,0.011273251,0.011518727,0.2064107,-0.009457832,0.02299118,0.008040584,0.3379286,0.33406845,-3.3964217,-2.6600026e-05,1.7481694e-06,4.0653777e-05,1.4051143e-06,-6.570809e-06,1.91155e-05,0.23041251,-0.028827788,0.3857524,0.0,0.0,0.0,0.0,0.0,1.6351864e-09,2.2270855e-05,0.00070189894,1.7992361e-06,4.6856756e-05,4.6802594e-05,3.6728856e-05,0.0068659517,0.0068648937,0.016488954,0.018094795,0.018094143,0.37206274,1.0050083e-11,1.0052648e-11,1.8491774e-11,1.0855625e-06,1.0848265e-06,5.0000036e-08,0.0,0.0,0.0,0.0,0.0,0.0,0.0,0.0,535,0.1902339,0.60996944,0.0074306545,0.02181559,0.009283481,0.002004136,0.0,0.0,0.0,0.011969,0,0,0,831,24,0,0,0
521077288,0.97813565,0.011402573,0.011683452,0.20732653,-0.011439068,0.022008838,0.006294285,0.3374034,0.33481237,-3.396186,-2.6579008e-05,1.7484263e-06,4.0638854e-05,1.4076998e-06,-6.553816e-06,2.001978e-05,0.23041251,-0.028827788,0.3857524,0.0,0.0,0.0,0.0,0.0,1.7435623e-09,2.3132756e-05,0.0006745242,1.81253e-06,4.6865942e-05,4.681166e-05,3.6668487e-05,0.006908568,0.0069075376,0.016530074,0.018234514,0.018233843,0.372391,1.00536385e-11,1.0056227e-11,1.8481232e-11,1.0855618e-06,1.0848257e-06,5.0000036e-08,0.0,0.0,0.0,0.0,0.0,0.0,0.0,0.0,535,0.1909669,0.6102385,0.0034804319,0.010538446,0.006643515,0.00024844598,0.0,0.0,0.0,0.011969,0,0,0,831,24,0,0,0
521277275,0.97828925,0.011534983,0.011567875,0.20659947,-0.016279086,0.0180659,0.0046148947,0.33684614,0.3349822,-3.3953054,-2.6554419e-05,1.7429693e-06,4.062821e-05,1.4409695e-06,-6.5079976e-06,2.1147593e-05,0.23041251,-0.028827788,0.3857524,0.0,0.0,0.0,0.0,0.0,2.1853428e-09,2.3090888e-05,0.00058523903,1.8008291e-06,4.6868892e-05,4.6815494e-05,3.6676312e-05,0.0069036013,0.006902622,0.016523033,0.018220639,0.018219966,0.37194118,1.00511535e-11,1.0053771e-11,1.8478252e-11,1.0855606e-06,1.0848244e-06,5.0000036e-08,0.0,0.0,0.0,0.0,0.0,0.0,0.0,0.0,535,0.19089422,0.6098698,0.007679371,0.006465856,0.006351579,0.0061074826,0.0,0.0,0.0,0.011969,0,0,0,831,24,0,0,0
521480504,0.97857213,0.011330881,0.011268862,0.2052838,-0.012687051,0.019265903,0.0046737315,0.33774278,0.3341978,-3.392672,-2.651314e-05,1.7470651e-06,4.06169e-05,1.4130328e-06,-6.387448e-06,2.1048118e-05,0.23041251,-0.028827788,0.3857524,0.0,0.0,0.0,0.0,0.0,2.3015654e-09,2.7437734e-05,0.0009409996,1.7784222e-06,4.6873552e-05,4.682079e-05,3.6693673e-05,0.00690241,0.0069014574,0.016517973,0.01821909,0.018218411,0.37157804,1.0050025e-11,1.0052663e-11,1.8476705e-11,1.0855598e-06,1.0848231e-06,5.0000036e-08,0.0,0.0,0.0,0.0,0.0,0.0,0.0,0.0,535,0.1908861,0.609572,0.009165205,0.019196346,0.0063340976,0.0027776826,0.0,0.0,0.0,0.011969,0,0,0,831,24,0,0,0
521688474,0.97832733,0.011084029,0.011554335,0.20644474,-0.00838864,0.025249913,0.004129751,0.3391705,0.3334374,-3.3914378,-2.647635e-05,1.7555595e-06,4.063926e-05,1.4010226e-06,-6.415656e-06,2.2061942e-05,0.23041251,-0.028827788,0.3857524,0.0,0.0,0.0,0.0,0.0,4.452601e-09,4.78735e-05,0.0017805259,1.7993302e-06,4.688455e-05,4.682985e-05,3.6693713e-05,0.0069655622,0.006964628,0.016569179,0.018416308,0.018415624,0.37223586,1.0065851e-11,1.0068512e-11,1.8491432e-11,1.0855597e-06,1.0848229e-06,5.000007e-08,0.0,0.0,0.0,0.0,0.0,0.0,0.0,0.0,535,0.19191647,0.61011136,0.0076763555,0.014018832,0.009980225,0.0064113815,0.0,0.0,0.0,0.011969,0,0,0,831,24,0,0,0
521891675,0.9782575,0.011335079,0.010543752,0.20681563,-0.007143518,0.025964493,-0.00021832933,0.34226432,0.3327575,-3.4052122,-2.6442383e-05,1.774621e-06,4.064518e-05,1.4396874e-06,-6.4718993e-06,2.5788007e-05,0.23041251,-0.028827788,0.3857524,0.0,0.0,0.0,0.0,0.0,7.1342527e-09,8.0081794e-05,0.0023917528,1.7990133e-06,4.688497e-05,4.683702e-05,3.6627705e-05,0.0069857715,0.006984889,0.016554845,0.018470025,0.018469349,0.37081972,1.00797894e-11,1.0082472e-11,1.8492012e-11,1.0855597e-06,1.0848228e-06,5e-08,0.0,0.0,0.0,0.0,0.0,0.0,0.0,0.0,535,0.19219619,0.60894966,0.0019616175,0.01761523,0.009323851,0.0010541009,0.0,0.0,0.0,0.011969,0,0,0,831,24,0,0,0
522090868,0.97821206,0.011151507,0.010476816,0.20704354,-0.0143044805,0.022682156,0.009361396,0.3432635,0.3304766,-3.400134,-2.6406651e-05,1.772812e-06,4.065477e-05,1.3679456e-06,-6.5667855e-06,2.3986566e-05,0.23041251,-0.028827788,0.3857524,0.0,0.0,0.0,0.0,0.0,7.664539e-09,8.066081e-05,0.0025750368,1.8024281e-06,4.68789e-05,4.683101e-05,3.6620364e-05,0.006980897,0.0069801062,0.01657278,0.018471343,0.018470678,0.37188682,1.00788345e-11,1.0081544e-11,1.8490667e-11,1.0855566e-06,1.0848196e-06,5.000007e-08,0.0,0.0,0.0,0.0,0.0,0.0,0.0,0.0,535,0.19220307,0.60982525,0.0008680761,0.0111106755,0.008749125,0.002921971,0.0,0.0,0.0,0.011969,0,0,0,831,24,0,0,0
522290868,0.9782727,0.011092416,0.011537869,0.20670421,-0.0064269397,0.008542888,-0.005309401,0.3449562,0.32933468,-3.3990586,-2.6375857e-05,1.7868466e-06,4.066788e-05,1.4135549e-06,-6.6434677e-06,2.3925304e-05,0.23041251,-0.028827788,0.3857524,0.0,0.0,0.0,0.0,0.0,1.2223369e-08,0.000103990846,0.0027078316,1.8028239e-06,4.6874895e-05,4.6820493e-05,3.661968e-05,0.0069815936,0.0069808424,0.01656923,0.018460158,0.01845952,0.37151185,1.0077088e-11,1.0079818e-11,1.8488412e-11,1.0855547e-06,1.0848177e-06,5.000007e-08,0.0,0.0,0.0,0.0,0.0,0.0,0.0,0.0,535,0.19214493,0.6095177,0.009337535,0.014693164,0.007934189,0.0013101299,0.0,0.0,0.0,0.011969,0,0,0,831,24,0,0,0
522498068,0.97834563,0.0113992095,0.010632389,0.20639,0.0023518747,0.014608627,0.0057170982,0.3477386,0.32873407,-3.3917623,-2.634974e-05,1.7942758e-06,4.0673982e-05,1.4282347e-06,-6.684558e-06,2.3128196e-05,0.23041251,-0.028827788,0.3857524,0.0,0.0,0.0,0.0,0.0,1.333284e-08,0.000115893636,0.0030222503,1.7958397e-06,4.6872945e-05,4.6824694e-05,3.664296e-05,0.0070120306,0.0070113186,0.016611608,0.018587539,0.018586919,0.3719261,1.00798874e-11,1.0082636e-11,1.8491153e-11,1.0855532e-06,1.084816e-06,5.000007e-08,0.0,0.0,0.0,0.0,0.0,0.0,0.0,0.0,535,0.19280678,0.60985744,0.0072658965,0.01193302,0.0105520785,0.0045026676,0.0,0.0,0.0,0.011969,0,0,0,831,24,0,0,0
522698068,0.9783215,0.011352715,0.01071693,0.20650275,-0.016681207,0.024103269,0.004890153,0.35051167,0.32944292,-3.3900115,-2.6333533e-05,1.8088882e-06,4.0682393e-05,1.4891099e-06,-6.7219376e-06,2.4209043e-05,0.23041251,-0.028827788,0.3857524,0.0,0.0,0.0,0.0,0.0,1.2961762e-08,0.00011564088,0.0028292849,1.8012036e-06,4.6868285e-05,4.6819398e-05,3.669894e-05,0.0070084655,0.007007857,0.016608497,0.018578924,0.018578334,0.3715497,1.0077967e-11,1.0080744e-11,1.8501329e-11,1.0855516e-06,1.0848145e-06,5.0000036e-08,0.0,0.0,0.0,0.0,0.0,0.0,0.0,0.0,535,0.19276218,0.60954875,0.0017332885,0.007568389,0.009559517,0.0036190262,0.0,0.0,0.0,0.011969,0,0,0,831,24,0,0,0
522905316,0.97827107,0.010926409,0.011365687,0.20672964,-0.003269668,0.022134047,0.012078035,0.35386074,0.32801148,-3.3867342,-2.6299398e-05,1.8255114e-06,4.068531e-05,1.5575866e-06,-6.7775645e-06,2.4321298e-05,0.23041251,-0.028827788,0.3857524,0.0,0.0,0.0,0.0,0.0,1.5663359e-08,0.00012625525,0.0030222747,1.8053446e-06,4.6872774e-05,4.6818845e-05,3.664773e-05,0.0070418348,0.007041238,0.016649289,0.018709144,0.018708576,0.37193742,1.00809526e-11,1.0083742e-11,1.8490999e-11,1.0855504e-06,1.0848132e-06,5e-08,0.0,0.0,0.0,0.0,0.0,0.0,0.0,0.0,535,0.1934366,0.60986674,0.009649729,0.012017039,0.008581518,0.006040866,0.0,0.0,0.0,0.011969,0,0,0,831,24,0,0,0
523105275,0.97830003,0.011126086,0.010257363,0.20664027,0.0052622906,0.0061471844,-0.0037434201,0.3564135,0.32671547,-3.380965,-2.6272875e-05,1.8230777e-06,4.0694053e-05,1.5585615e-06,-6.7660626e-06,2.2386614e-05,0.23041251,-0.028827788,0.3857524,0.0,0.0,0.0,0.0,0.0,1.74985e-08,0.00014090656,0.0033510586,1.7997318e-06,4.6868336e-05,4.6821624e-05,3.6646747e-05,0.0070478367,0.0070472932,0.016644308,0.018703945,0.018703401,0.37154222,1.0079353e-11,1.008216e-11,1.8488096e-11,1.0855497e-06,1.0848124e-06,5e-08,0.0,0.0,0.0,0.0,0.0,0.0,0.0,0.0,535,0.19340979,0.6095426,0.008701525,0.019130267,0.007242749,0.0017954377,0.0,0.0,0.0,0.011969,0,0,0,831,24,0,0,0
523312474,0.9783305,0.011327969,0.011124497,0.20643961,-0.007112906,0.013728008,0.010355738,0.35695815,0.32632464,-3.3816962,-2.6257196e-05,1.8219632e-06,4.069556e-05,1.625951e-06,-6.830702e-06,2.4457004e-05,0.23041251,-0.028827788,0.3857524,0.0,0.0,0.0,0.0,0.0,1.6956763e-08,0.00013519716,0.0033827643,1.7996431e-06,4.687126e-05,4.682022e-05,3.6602727e-05,0.0070741433,0.0070736567,0.016685413,0.018823061,0.01882254,0.37188545,1.0081017e-11,1.00838435e-11,1.84765e-11,1.0855484e-06,1.0848115e-06,5.0000025e-08,0.0,0.0,0.0,0.0,0.0,0.0,0.0,0.0,535,0.19402474,0.6098241,0.0033486553,0.008821592,0.006594395,0.006841171,0.0,0.0,0.0,0.011969,0,0,0,831,24,0,0,0
523511668,0.9783131,0.011040017,0.011374905,0.2065244,-0.0065344577,0.020495487,0.0066252924,0.35869953,0.32476714,-3.3731284,-2.6232248e-05,1.8250402e-06,4.0704053e-05,1.6225591e-06,-6.792353e-06,2.1946911e-05,0.23041251,-0.028827788,0.3857524,0.0,0.0,0.0,0.0,0.0,1.5260214e-08,0.00012957548,0.0033806672,1.8019805e-06,4.6871715e-05,4.68185e-05,3.659754e-05,0.0070761954,0.007075748,0.016682832,0.018822547,0.018822053,0.3716108,1.0080289e-11,1.0083128e-11,1.8475332e-11,1.0855472e-06,1.0848104e-06,5.000004e-08,0.0,0.0,0.0,0.0,0.0,0.0,0.0,0.0,535,0.19402216,0.6095989,0.0005861111,0.008649642,0.006146554,0.0033872556,0.0,0.0,0.0,0.011969,0,0,0,831,24,0,0,0
523711690,0.9783245,0.010912706,0.010083256,0.20654441,0.00067956606,0.0031677787,0.0017647058,0.36309034,0.32402822,-3.37422,-2.6207435e-05,1.8418107e-06,4.0711355e-05,1.6760547e-06,-6.781534e-06,2.2325845e-05,0.23041251,-0.028827788,0.3857524,0.0,0.0,0.0,0.0,0.0,1.2930922e-08,0.000118743425,0.0035439732,1.7964559e-06,4.686903e-05,4.6823e-05,3.6595724e-05,0.0070727705,0.0070723537,0.016678745,0.018807057,0.018806595,0.37127233,1.0078474e-11,1.0081323e-11,1.8473171e-11,1.085546e-06,1.0848091e-06,5.0000036e-08,0.0,0.0,0.0,0.0,0.0,0.0,0.0,0.0,535,0.1939424,0.6093212,0.009723921,0.008276872,0.009144327,0.004110748,0.0,0.0,0.0,0.011969,0,0,0,831,24,0,0,0
523918883,0.9783442,0.011039384,0.011502338,0.20636983,-9.36226e-05,0.0021687048,0.0011556814,0.36355332,0.32333356,-3.37345,-2.6193604e-05,1.8385523e-06,4.0720694e-05,1.718497e-06,-6.7992646e-06,2.2157534e-05,0.23041251,-0.028827788,0.3857524,0.0,0.0,0.0,0.0,0.0,1.2553376e-08,0.00012201943,0.0035283163,1.8022287e-06,4.6877525e-05,4.68237e-05,3.661335e-05,0.007113577,0.0071132015,0.01672209,0.018945444,0.018945014,0.37171918,1.0082299e-11,1.00851705e-11,1.847649e-11,1.0855447e-06,1.0848084e-06,5.0000036e-08,0.0,0.0,0.0,0.0,0.0,0.0,0.0,0.0,535,0.19465472,0.60968775,0.0081485985,0.006605424,0.008187164,0.0049721734,0.0,0.0,0.0,0.011969,0,0,0,831,24,0,0,0
524118868,0.9783301,0.011272703,0.011195126,0.206441,-0.0028978046,0.017324962,0.0050790585,0.36711845,0.32358924,-3.3752615,-2.6181982e-05,1.8568638e-06,4.0717565e-05,1.7735146e-06,-6.806375e-06,2.4218822e-05,0.23041251,-0.028827788,0.3857524,0.0,0.0,0.0,0.0,0.0,1.2256621e-08,0.0001311656,0.0032901426,1.8026464e-06,4.687633e-05,4.68251e-05,3.6609817e-05,0.0071071144,0.0071067917,0.016737191,0.01893286,0.018932465,0.3727415,1.0080088e-11,1.0082973e-11,1.8473778e-11,1.0855435e-06,1.0848075e-06,5.000007e-08,0.0,0.0,0.0,0.0,0.0,0.0,0.0,0.0,535,0.19459015,0.6105256,0.007020275,0.0070729977,0.007282132,0.005017857,0.0,0.0,0.0,0.011969,0,0,0,831,24,0,0,0
524326068,0.97831315,0.010894331,0.0101231225,0.20659702,-0.009844034,0.01206267,0.0054365853,0.3712612,0.3223692,-3.3799489,-2.6156116e-05,1.8734763e-06,4.0714214e-05,1.8320239e-06,-6.764695e-06,2.6065194e-05,0.23041251,-0.028827788,0.3857524,0.0,0.0,0.0,0.0,0.0,1.2943053e-08,0.00013579261,0.003385155,1.8001616e-06,4.688548e-05,4.6839465e-05,3.662546e-05,0.0071479357,0.0071476665,0.016778996,0.019074807,0.019074433,0.373159,1.008363e-11,1.0086524e-11,1.8476607e-11,1.0855416e-06,1.0848058e-06,5.0000075e-08,0.0,0.0,0.0,0.0,0.0,0.0,0.0,0.0,535,0.1953183,0.6108674,0.007741754,0.012874619,0.0059018843,0.003524658,0.0,0.0,0.0,0.011969,0,0,0,831,24,0,0,0
524526068,0.97831714,0.0109002795,0.011379471,0.20651197,0.0032283082,-0.0015113096,-6.0979903e-05,0.37237114,0.3233012,-3.3788793,-2.6152005e-05,1.8832261e-06,4.071131e-05,1.8037096e-06,-6.7435026e-06,2.6280408e-05,0.23041251,-0.028827788,0.3857524,0.0,0.0,0.0,0.0,0.0,1.284115e-08,0.000137812,0.0032474704,1.8049069e-06,4.688908e-05,4.683576e-05,3.662103e-05,0.007142233,0.007141927,0.016769987,0.019052861,0.019052526,0.37275618,1.0080925e-11,1.0083834e-11,1.8473724e-11,1.0855391e-06,1.084804e-06,5e-08,0.0,0.0,0.0,0.0,0.0,0.0,0.0,0.0,535,0.19520602,0.6105376,0.011824946,0.01073094,0.0052798376,0.00011236171,0.0,0.0,0.0,0.011969,0,0,0,831,24,0,0,0
524725278,0.9783207,0.011355293,0.011034658,0.20648973,0.0023304974,0.012112684,0.008614994,0.37374696,0.32278156,-3.3733943,-2.6137039e-05,1.8814437e-06,4.0722072e-05,1.8173748e-06,-6.671693e-06,2.5423342e-05,0.23041251,-0.028827788,0.3857524,0.0,0.0,0.0,0.0,0.0,1.219416e-08,0.00013990428,0.0036045928,1.8074074e-06,4.6891142e-05,4.6841426e-05,3.6681562e-05,0.0071420595,0.0071417955,0.016785199,0.019058222,0.019057916,0.37382203,1.0080441e-11,1.008336e-11,1.848528e-11,1.085537e-06,1.0848021e-06,5.000007e-08,0.0,0.0,0.0,0.0,0.0,0.0,0.0,0.0,535,0.19523355,0.6114099,0.00883522,0.009908326,0.0049093585,0.004240739,0.0,0.0,0.0,0.011969,0,0,0,831,24,0,0,0
524933271,0.9783359,0.011105513,0.010591185,0.20645444,-0.014442057,0.013656011,0.007285949,0.37703723,0.32223216,-3.3707378,-2.6119496e-05,1.8913663e-06,4.072194e-05,1.848904e-06,-6.5994705e-06,2.5450036e-05,0.23041251,-0.028827788,0.3857524,0.0,0.0,0.0,0.0,0.0,1.1413117e-08,0.00012979234,0.0031440142,1.80247e-06,4.6901685e-05,4.6853933e-05,3.6636025e-05,0.0071764234,0.007176206,0.016823601,0.019179115,0.019178828,0.374142,1.0082484e-11,1.0085406e-11,1.8473972e-11,1.0855341e-06,1.0847996e-06,5.0000107e-08,0.0,0.0,0.0,0.0,0.0,0.0,0.0,0.0,535,0.19585185,0.61167145,0.0071329274,0.0047479486,0.0075284964,0.002546482,0.0,0.0,0.0,0.011969,0,0,0,831,24,0,0,0
525136468,0.97835314,0.010794823,0.011241616,0.2063548,-0.00019876147,0.0032116123,0.009547945,0.3787968,0.32319185,-3.3630364,-2.611415e-05,1.8993162e-06,4.0738923e-05,1.8226513e-06,-6.553556e-06,2.4554469e-05,0.23041251,-0.028827788,0.3857524,0.0,0.0,0.0,0.0,0.0,1.0830601e-08,0.00012634545,0.0034058397,1.8068727e-06,4.691147e-05,4.685905e-05,3.669728e-05,0.0071945777,0.0071942927,0.016823044,0.019231174,0.019230912,0.37409317,1.0090956e-11,1.0093894e-11,1.8494916e-11,1.0855316e-06,1.0847978e-06,5.0000054e-08,0.0,0.0,0.0,0.0,0.0,0.0,0.0,0.0,535,0.19611754,0.6116316,0.010143105,0.008147409,0.007216855,0.0048792493,0.0,0.0,0.0,0.011969,0,0,0,831,24,0,0,0
525336498,0.97834724,0.011347892,0.010784536,0.20637773,0.00737261,0.0050628236,-0.00080128957,0.3811079,0.32398713,-3.3626952,-2.610493e-05,1.9056005e-06,4.074899e-05,1.832617e-06,-6.5386803e-06,2.5235568e-05,0.23041251,-0.028827788,0.3857524,0.0,0.0,0.0,0.0,0.0,1.0846801e-08,0.00012313869,0.0034140644,1.807003e-06,4.6909445e-05,4.6861558e-05,3.6694506e-05,0.0071986006,0.0071983,0.016816737,0.019230785,0.01923055,0.37375703,1.0090139e-11,1.0093081e-11,1.8493313e-11,1.08553e-06,1.0847965e-06,5.000007e-08,0.0,0.0,0.0,0.0,0.0,0.0,0.0,0.0,535,0.19611561,0.61135674,0.0037183056,0.00698418,0.0058081085,0.00074305106,0.0,0.0,0.0,0.011969,0,0,0,831,24,0,0,0
525535668,0.9783281,0.011249219,0.010598894,0.20648289,-0.011560698,0.014751752,0.015676916,0.38284883,0.32495478,-3.360515,-2.6100352e-05,1.9124514e-06,4.074755e-05,1.839051e-06,-6.523894e-06,2.5267855e-05,0.23041251,-0.028827788,0.3857524,0.0,0.0,0.0,0.0,0.0,9.993306e-09,0.00012777693,0.0034839935,1.8048565e-06,4.6911e-05,4.686397e-05,3.6626665e-05,0.007191563,0.007191287,0.016812297,0.019226974,0.019226756,0.37337223,1.0088452e-11,1.0091391e-11,1.8477409e-11,1.0855284e-06,1.0847954e-06,5.000006e-08,0.0,0.0,0.0,0.0,0.0,0.0,0.0,0.0,535,0.19609623,0.6110419,0.0071334247,0.003745154,0.005063495,0.00014765855,0.0,0.0,0.0,0.011969,0,0,0,831,24,0,0,0
525742868,0.97835714,0.010884933,0.011083191,0.20633991,-0.008623441,0.0059930133,0.0029130334,0.38444176,0.32498312,-3.3562024,-2.6086596e-05,1.9183406e-06,4.074621e-05,1.8646464e-06,-6.5034255e-06,2.5213541e-05,0.23041251,-0.028827788,0.3857524,0.0,0.0,0.0,0.0,0.0,8.620032e-09,0.00011481012,0.0034358972,1.8050354e-06,4.6920104e-05,4.686911e-05,3.664402e-05,0.0072373026,0.007236973,0.016853705,0.019368602,0.019368388,0.37378886,1.00921094e-11,1.0095052e-11,1.848045e-11,1.0855268e-06,1.0847947e-06,5.000007e-08,0.0,0.0,0.0,0.0,0.0,0.0,0.0,0.0,535,0.19681716,0.6113827,0.006062786,0.0031564764,0.004516155,0.0015135927,0.0,0.0,0.0,0.011969,0,0,0,831,24,0,0,0
525942874,0.978395,0.011148173,0.01102388,0.20614943,0.0059400066,-0.00089937926,0.006577438,0.38638616,0.32523832,-3.354971,-2.6071913e-05,1.9267113e-06,4.0764597e-05,1.9230606e-06,-6.4866963e-06,2.6543737e-05,0.23041251,-0.028827788,0.3857524,0.0,0.0,0.0,0.0,0.0,9.456267e-09,0.000112940856,0.0034355226,1.803282e-06,4.6919544e-05,4.68697e-05,3.664296e-05,0.0072307615,0.0072303577,0.01684707,0.019355074,0.01935487,0.37341172,1.0089836e-11,1.00927695e-11,1.8477561e-11,1.0855252e-06,1.0847937e-06,5.0000036e-08,0.0,0.0,0.0,0.0,0.0,0.0,0.0,0.0,535,0.19674844,0.6110742,0.026998648,0.009242137,0.003843566,0.00020743707,0.0,0.0,0.0,0.011969,0,0,0,831,24,0,0,0
526146074,0.9781782,0.011092503,0.01033443,0.20721409,-0.006334378,0.008744018,-0.0009394452,0.3896044,0.32595193,-3.3570406,-2.6062953e-05,1.9443194e-06,4.0825704e-05,1.9308031e-06,-6.4075766e-06,2.6614774e-05,0.23041251,-0.028827788,0.3857524,0.0,0.0,0.0,0.03455125,0.0028058097,1.6991317e-08,0.00015542202,0.0054375874,1.8216065e-06,4.6918816e-05,4.6873323e-05,3.6684098e-05,0.007229569,0.007229194,0.016841525,0.019346341,0.019346142,0.3731073,1.0088396e-11,1.0091328e-11,1.8489037e-11,1.0855235e-06,1.0847928e-06,5e-08,0.0,0.0,0.0,0.0,0.0,0.0,0.9932597,0.9954737,919,0.19670404,0.6108251,0.025398696,0.005064608,0.0073717535,0.010967108,0.0,0.0,0.0,0.011969,0,0,0,831,24,0,0,0
526354073,0.97808564,0.011613081,0.009657478,0.2076547,-0.0074422252,0.026080504,0.005680714,0.39235172,0.32761443,-3.3659866,-2.6059735e-05,1.957187e-06,4.0901632e-05,2.0221294e-06,-6.3231487e-06,3.063121e-05,0.23041251,-0.028827788,0.3857524,0.0,0.0,0.0,0.12706454,-0.06806864,6.2430004e-08,0.00029022995,0.008772683,1.8305493e-06,4.692496e-05,4.688522e-05,3.669564e-05,0.0072855353,0.0072851614,0.016889839,0.019545153,0.01954495,0.37380585,1.0101209e-11,1.0104122e-11,1.8501072e-11,1.0855221e-06,1.0847914e-06,5e-08,0.0,0.0,0.0,0.0,0.0,0.0,0.96214,0.96324855,919,0.19771218,0.6113966,0.039313383,0.01753917,0.006019029,0.0050169183,0.0,0.0,0.0,0.011969,0,0,0,831,24,0,0,0
526553271,0.977809,0.012111367,0.007951243,0.20899704,0.008442588,0.023038117,-0.03577683,0.39491057,0.3287577,-3.3922653,-2.6055359e-05,1.9628055e-06,4.105891e-05,2.1565859e-06,-6.0188563e-06,3.6889134e-05,0.23041251,-0.028827788,0.3857524,0.0,0.0,0.0,0.12825887,-0.15985553,8.037871e-08,0.0003500544,0.009194199,1.850854e-06,4.691525e-05,4.6887617e-05,3.6668556e-05,0.0072982004,0.0072978176,0.016904164,0.019541368,0.019541167,0.37487912,1.0100143e-11,1.0103048e-11,1.8499403e-11,1.0855185e-06,1.084788e-06,5.0000075e-08,0.0,0.0,0.0,0.0,0.0,0.0,0.9398186,0.9359816,919,0.19769304,0.61227375,0.07689631,0.021031668,0.00513913,0.0043908115,0.0,0.0,0.0,0.011969,0,0,0,831,24,0,0,0
526753273,0.97742814,0.0118881,0.0043008993,0.21088985,0.026680287,0.07073441,-0.24001293,0.40108865,0.33770382,-3.4467483,-2.6054462e-05,1.9903719e-06,4.1274037e-05,2.7032913e-06,-5.2252267e-06,4.617253e-05,0.23041251,-0.028827788,0.3857524,0.0,0.0,0.0,0.20383434,-0.19904956,1.0534903e-07,0.00041854495,0.010307771,1.8723914e-06,4.689654e-05,4.6889185e-05,3.6631678e-05,0.007381381,0.0073806527,0.016897123,0.01952844,0.019528234,0.37446386,1.0097276e-11,1.0100142e-11,1.84962e-11,1.0855049e-06,1.0847725e-06,5.0000036e-08,0.0,0.0,0.0,0.0,0.0,0.0,0.9184365,0.913246,919,0.19762762,0.61193454,0.10410051,0.03477962,0.0029220495,0.0132697355,0.0,0.0,0.0,0.011969,0,0,0,831,24,0,0,0
526960468,0.9776362,0.0046971147,0.00088011264,0.21024908,0.071077526,0.12464776,-0.7581495,0.4151716,0.3651408,-3.599725,-2.6110873e-05,2.0528382e-06,4.153162e-05,6.922691e-06,1.2733484e-06,6.776519e-05,0.23041251,-0.028827788,0.3857524,0.0,0.0,0.0,0.23557733,-0.23484603,1.3076014e-07,0.0005182188,0.011950395,1.8387191e-06,4.6701658e-05,4.668986e-05,3.6579455e-05,0.0071795494,0.007178031,0.01644501,0.01797845,0.017978288,0.37125182,1.0044596e-11,1.0047257e-11,1.8485498e-11,1.0848909e-06,1.0841532e-06,5e-08,0.0,0.0,0.0,0.0,0.0,0.0,0.88353497,0.88808477,919,0.18962263,0.60930437,0.09931382,0.06416351,0.0052474323,0.010737343,0.0,0.0,0.0,0.011969,0,0,0,831,24,0,0,0
527166920,0.977848,-0.0010721929,0.0057866583,0.20923367,0.12312353,0.12722008,-1.2510248,0.43809104,0.3885999,-3.8253655,-2.608459e-05,2.0685566e-06,4.1763156e-05,8.281211e-06,-1.8373106e-06,7.584401e-05,0.23041251,-0.028827788,0.3857524,0.0,0.0,0.0,0.35208815,-0.20126688,1.37362e-07,0.00059845066,0.013909503,1.8414746e-06,4.669492e-05,4.6642726e-05,3.658545e-05,0.008059034,0.0080576185,0.016961854,0.01987767,0.019877423,0.37381735,1.0094381e-11,1.0096939e-11,1.84866e-11,1.0842053e-06,1.0834669e-06,5.0000036e-08,0.0,0.0,0.0,0.0,0.0,0.0,0.8605584,0.86898404,919,0.19938679,0.611406,0.08908404,0.06598409,0.0050029876,0.006812322,0.0,0.0,0.0,0.011969,0,0,0,831,24,0,0,0
527367680,0.97801805,-0.007334088,0.013172702,0.20797487,0.15363944,0.10414625,-1.6231713,0.4732131,0.41403735,-4.1378994,-2.6079315e-05,2.1408398e-06,4.1976164e-05,1.969451e-05,-2.8491177e-06,8.775417e-05,0.23041251,-0.028827788,0.3857524,0.0,0.0,0.0,0.39393166,-0.21571565,1.5160632e-07,0.0006922194,0.016919635,1.8525186e-06,4.6137397e-05,4.6028214e-05,3.6510013e-05,0.0076969047,0.007696239,0.016460834,0.018151361,0.018151155,0.36986366,1.00284945e-11,1.0030817e-11,1.8470902e-11,1.0804238e-06,1.0796991e-06,5e-08,0.0,0.0,0.0,0.0,0.0,0.0,0.8362069,0.850545,919,0.1905322,0.6081642,0.06073982,0.017604215,0.0050991746,0.008308607,0.0,0.0,0.0,0.011969,0,0,0,831,24,0,0,0
527567668,0.978093,-0.0119366115,0.015450279,0.207251,0.15458353,0.041169334,-1.622764,0.51071084,0.4285744,-4.4489713,-2.6061001e-05,2.191343e-06,4.212959e-05,2.8646615e-05,-4.250803e-06,8.397947e-05,0.23041251,-0.028827788,0.3857524,0.0,0.0,0.0,0.5103058,-0.30278677,2.1290563e-07,0.00094842486,0.02007411,1.8546074e-06,4.577669e-05,4.564553e-05,3.6502875e-05,0.007590546,0.0075905756,0.016457487,0.018208511,0.018208303,0.36958215,1.0020791e-11,1.0023037e-11,1.8469396e-11,1.0776483e-06,1.0769311e-06,5e-08,0.0,0.0,0.0,0.0,0.0,0.0,0.7980771,0.82238704,919,0.1908319,0.6079327,0.07098069,0.027407076,0.00889809,0.011310599,0.0,0.0,0.0,0.011969,0,0,0,831,24,0,0,0
527770874,0.9782499,-0.009280366,0.017430633,0.20648766,0.16878633,-0.01992555,-1.6134913,0.54761547,0.43367937,-4.7612734,-2.6088184e-05,2.2079464e-06,4.2279677e-05,3.042389e-05,2.1306444e-06,7.972987e-05,0.23041251,-0.028827788,0.3857524,0.0,0.0,0.0,0.87464803,0.015491608,2.013109e-07,0.00091191207,0.020836262,1.8588647e-06,4.5428424e-05,4.5288514e-05,3.6510435e-05,0.007511398,0.0075108497,0.016480349,0.018301925,0.018301763,0.37095734,1.00260295e-11,1.0028303e-11,1.8479425e-11,1.0752285e-06,1.0745099e-06,5e-08,0.0,0.0,0.0,0.0,0.0,0.0,0.7526882,0.79347456,919,0.19132091,0.6090627,0.06250914,0.023398446,0.006580079,0.021182897,0.0,0.0,0.0,0.011969,0,0,0,831,24,0,0,0
527970068,0.9832247,-0.0038097124,0.020346513,0.18122037,0.1850926,-0.07231108,-1.6107485,0.592819,0.42595834,-5.078574,-2.6061345e-05,2.2748388e-06,4.2312677e-05,3.45061e-05,2.9587834e-06,7.9589736e-05,0.2399381,-0.030019572,0.38278353,0.0,0.0,0.0,0.71860653,-0.27943397,1.8987343e-07,0.000865615,0.02223561,5.0002454e-05,4.60689e-05,4.533987e-05,0.0014632543,0.007046088,0.0070397407,0.016475517,0.018312288,0.018312167,0.37065297,1.0025695e-11,1.002807e-11,1.855549e-11,1.0743e-06,1.0735671e-06,5e-08,0.0,0.0,0.0,0.0,0.0,0.0,0.72171974,0.76287264,8389527,0.19137517,0.60881275,0.018169133,0.036189474,0.010543202,0.0068079024,0.0,0.0,0.0,0.011969,0,0,0,831,24,0,0,0
528178068,0.9832687,0.00090547884,0.022548478,0.18075836,0.16444363,-0.094280064,-1.6096355,0.6328563,0.41424945,-5.4052215,-2.6087042e-05,2.3102873e-06,4.2309784e-05,3.0473431e-05,-3.330035e-08,7.844374e-05,0.2399381,-0.030019572,0.38278353,0.0,0.0,0.0,0.44340718,-0.6143061,2.0946396e-07,0.0010078176,0.021221893,3.2421816e-05,4.552757e-05,4.4915414e-05,0.0009513836,0.008722375,0.008720916,0.016541366,0.018339228,0.018339075,0.3723426,1.0039469e-11,1.004195e-11,1.8660117e-11,1.0694913e-06,1.0687232e-06,5.0000036e-08,0.0,0.0,0.0,0.0,0.0,0.0,0.6850268,0.73250914,8389527,0.1915158,0.6101988,0.021822954,0.019036347,0.012402212,0.0017675394,0.0,0.0,0.0,0.011969,0,0,0,831,24,0,0,0
528377268,0.9833052,0.003703504,0.024923211,0.18021098,0.1300383,-0.09690632,-1.6260715,0.66486263,0.3957659,-5.7186346,-2.6087297e-05,2.3133157e-06,4.2309613e-05,3.9817187e-05,-5.4376806e-06,7.567632e-05,0.2399381,-0.030019572,0.38278353,0.0,0.0,0.0,0.354987,-0.57841474,1.8532208e-07,0.0009454643,0.022790546,2.3076196e-05,4.4270884e-05,4.3749093e-05,0.0006828828,0.012281952,0.012306103,0.016552,0.018255908,0.018256001,0.3719936,1.0062769e-11,1.0065325e-11,1.8762113e-11,1.0516582e-06,1.0508433e-06,5.0000036e-08,0.0,0.0,0.0,0.0,0.0,0.0,0.65950614,0.71321094,8389527,0.1910809,0.60991275,0.0021355574,0.036785882,0.006484274,0.003238008,0.0,0.0,0.0,0.011969,0,0,0,831,24,0,0,0
528577276,0.9833245,0.0057812626,0.024929024,0.18005048,0.11698166,-0.10085657,-1.6465861,0.6984992,0.37842715,-6.0377564,-2.6077885e-05,2.3619884e-06,4.230569e-05,-1.1850875e-06,9.933812e-06,7.3938434e-05,0.2399381,-0.030019572,0.38278353,0.0,0.0,0.0,0.8372767,-0.2202529,1.887812e-07,0.0009898839,0.021667562,1.8263478e-05,4.2131906e-05,4.1728286e-05,0.0005460861,0.01670442,0.016750462,0.016566409,0.018303933,0.018305084,0.37156573,1.0098996e-11,1.0101578e-11,1.886272e-11,1.0165775e-06,1.0157235e-06,5e-08,0.0,0.0,0.0,0.0,0.0,0.0,0.6170061,0.6875236,8389527,0.19133483,0.6095619,0.009381549,0.03750689,0.009336527,0.004891476,0.0,0.0,0.0,0.011969,0,0,0,831,24,0,0,0
528784504,0.98335314,0.008415808,0.024108361,0.1799019,0.076724365,-0.083161324,-1.6433827,0.725321,0.3620184,-6.366468,-2.608112e-05,2.3911616e-06,4.2302618e-05,-3.064609e-05,9.833525e-06,7.149487e-05,0.2399381,-0.030019572,0.38278353,0.0,0.0,0.0,0.8710446,-0.3844019,1.3954077e-07,0.00076985324,0.018676149,1.5096746e-05,3.9388175e-05,3.9108538e-05,0.00045500457,0.0211527,0.021224493,0.016634556,0.018749585,0.01875299,0.37186387,1.0154743e-11,1.0157315e-11,1.8967333e-11,9.672058e-07,9.663426e-07,5e-08,0.0,0.0,0.0,0.0,0.0,0.0,0.60119605,0.6667788,8389527,0.19365582,0.6098064,0.0068689776,0.041919976,0.012690194,0.006788795,0.0,0.0,0.0,0.011969,0,0,0,831,24,0,0,0
528983677,0.98344374,0.00853224,0.024020022,0.17941234,0.060828783,-0.061073355,-1.6744618,0.74373764,0.35163018,-6.6936245,-2.6087393e-05,2.4102364e-06,4.2300886e-05,-4.401259e-05,-8.07189e-06,7.102811e-05,0.2399381,-0.030019572,0.38278353,0.0,0.0,0.0,0.86362666,-0.45494926,1.4975875e-07,0.00085828034,0.015900249,1.3104792e-05,3.6405014e-05,3.6174537e-05,0.00039709723,0.024150271,0.0242209,0.01666832,0.019233746,0.019239638,0.37289003,1.0221839e-11,1.0224383e-11,1.9069383e-11,9.089612e-07,9.0812324e-07,5.000007e-08,0.0,0.0,0.0,0.0,0.0,0.0,0.5845854,0.65268224,8389527,0.19614632,0.6106472,0.0060375175,0.020751595,0.011331431,0.0067804987,0.0,0.0,0.0,0.011969,0,0,0,831,24,0,0,0
529191683,0.9833941,0.007416204,0.024249466,0.17970303,0.043670505,-0.03460608,-1.6688862,0.7648183,0.34452596,-7.042375,-2.6085234e-05,2.431771e-06,4.229817e-05,-9.075087e-05,-5.9508375e-06,7.212397e-05,0.2399381,-0.030019572,0.38278353,0.0,0.0,0.0,0.88260263,-0.53739464,1.5518155e-07,0.0008464814,0.01566405,1.1253004e-05,3.3606913e-05,3.3395696e-05,0.0003412265,0.02594633,0.0260123,0.016725123,0.020018281,0.02002661,0.37316456,1.0302753e-11,1.0305274e-11,1.9174069e-11,8.511624e-07,8.5036316e-07,5.000007e-08,0.0,0.0,0.0,0.0,0.0,0.0,0.5759908,0.6395403,8389527,0.2001122,0.610872,0.008858309,0.01695539,0.0076911226,0.002330818,0.0,0.0,0.0,0.011969,0,0,0,831,24,0,0,0
529390868,0.9832194,0.006010135,0.02595517,0.18047157,0.009899221,-0.029545117,-1.6684749,0.7748738,0.34200007,-7.3788958,-2.6085409e-05,2.4409753e-06,4.2296193e-05,-0.000106556,-1.6988883e-05,7.423082e-05,0.2399381,-0.030019572,0.38278353,0.0,0.0,0.0,0.71822095,-0.7012066,2.997473e-07,0.0007602312,0.016171359,1.019895e-05,3.1258383e-05,3.103406e-05,0.00030753153,0.026253035,0.026315339,0.01673277,0.02065318,0.020662991,0.37277332,1.0388454e-11,1.039096e-11,1.927606e-11,7.994865e-07,7.9872996e-07,5e-08,0.0,0.0,0.0,0.0,0.0,0.0,0.5570712,0.6246687,8389527,0.2032638,0.61055166,0.032879315,0.0090621095,0.008801645,0.0111177545,0.0,0.0,0.0,0.011969,0,0,0,831,24,0,0,0
529598895,0.98328865,0.0068649733,-0.0009814381,0.18192138,0.016938595,-0.00940774,-1.6796613,0.7804266,0.34227264,-7.712041,-2.6082453e-05,2.4459116e-06,4.229378e-05,-0.0001222081,-3.0685e-05,7.070919e-05,0.2399381,-0.030019572,0.38278353,0.0,0.0,0.0,0.6864788,-0.8964619,7.5620716e-07,0.0007592316,0.01683397,9.069255e-06,2.9222943e-05,2.9225492e-05,0.0002729958,0.025955625,0.025999509,0.016796691,0.021447575,0.02145857,0.37441272,1.0481933e-11,1.048443e-11,1.9380997e-11,7.554974e-07,7.547703e-07,5.000007e-08,0.0,0.0,0.0,0.0,0.0,0.0,0.54501164,0.60651135,8389527,0.20713799,0.61189276,0.01688094,0.049477786,0.00912874,0.004812358,0.0,0.0,0.0,0.011969,0,0,0,831,24,0,0,0
529798109,0.98088074,0.01727373,-0.06640347,0.18211336,0.22593695,0.04899802,-1.7537911,0.80717576,0.33409947,-8.044099,-2.6086414e-05,2.4496685e-06,4.2294065e-05,-0.00012764089,8.423437e-06,6.96517e-05,0.2399381,-0.030019572,0.38278353,0.0,0.0,0.0,1.0237532,-0.72625816,1.448943e-06,0.0009638012,0.019503377,8.353743e-06,2.883702e-05,2.781058e-05,0.0002499194,0.024875984,0.024907464,0.016762575,0.021895891,0.02190638,0.37399307,1.05751415e-11,1.0577634e-11,1.9482875e-11,7.194323e-07,7.186631e-07,5.0000036e-08,0.0,0.0,0.0,0.0,0.0,0.0,0.5204135,0.59027874,8389527,0.20928991,0.61154974,0.0023864377,0.009308805,0.0072698323,0.009238842,0.0,0.0,0.0,0.011969,0,0,0,831,24,0,0,0
529998081,0.9730754,0.032384835,-0.13933071,0.18072766,0.7337503,0.23088415,-1.8378402,0.91564095,0.368542,-8.4020405,-2.6086831e-05,2.4378346e-06,4.2295236e-05,-0.000186444,2.1199248e-06,6.9745816e-05,0.2399381,-0.030019572,0.38278353,0.0,0.0,0.0,1.0689257,-0.7725364,1.6226907e-06,0.0010150399,0.02104439,7.726625e-06,3.0618176e-05,2.6555475e-05,0.00022319105,0.023541868,0.023803266,0.01673021,0.022241613,0.022249795,0.37489992,1.066918e-11,1.0671664e-11,1.9583571e-11,6.911974e-07,6.9012737e-07,5.0000107e-08,0.0,0.0,0.0,0.0,0.0,0.0,0.5070006,0.57286125,8389527,0.21092987,0.61229074,0.022348303,0.06988101,0.0078613,0.005818136,0.0,0.0,0.0,0.011969,0,0,0,831,24,0,0,0
530201271,0.96303856,0.045582972,-0.19660988,0.17839187,1.5033164,0.5485099,-1.9018514,1.1499923,0.46036023,-8.788918,-2.6078871e-05,2.422819e-06,4.22971e-05,-0.0002342897,-2.4372845e-05,7.302722e-05,0.23700568,-0.029615114,0.38395151,-0.00025675568,0.0049627656,0.0013204972,1.1389626,-0.7902262,1.7613929e-06,0.0009496793,0.02062761,7.6045526e-06,3.2913766e-05,2.5446141e-05,0.00020941059,0.022040688,0.02304687,0.016691426,0.022446275,0.022452956,0.37444878,1.0765397e-11,1.0767826e-11,1.9685493e-11,6.692625e-07,6.6747117e-07,5.0000036e-08,0.0014097053,4.4654913e-05,0.0014299777,0.0012852135,0.00084214256,0.0014019269,0.49825445,0.56194174,8389607,0.2118944,0.6119222,0.022310995,0.042722188,0.0059226854,0.007344483,0.0,0.0,0.0,0.011969,0,0,0,831,24,0,0,0
530408468,0.9757307,0.033935998,-0.12186361,0.1787377,2.327218,0.90778136,-1.9050642,1.5816818,0.64348966,-9.200111,-2.6062276e-05,2.4031367e-06,4.2295378e-05,-0.00029042826,-6.737578e-05,8.1044884e-05,0.23851573,-0.029787976,0.3845265,0.00055148004,0.0057136794,-1.8434142e-05,1.1496406,-0.846456,2.6514954e-06,0.0009483879,0.022381365,6.951104e-06,2.736946e-05,2.5048881e-05,0.0002109497,0.020862378,0.022948612,0.016760336,0.022976274,0.02299363,0.3750213,1.0876432e-11,1.0878671e-11,1.9801435e-11,6.5284195e-07,6.502729e-07,5.0000107e-08,0.0012675831,4.21031e-05,0.0012815581,0.0010879658,0.0004846864,0.001247144,0.49264416,0.5523987,8389607,0.21440592,0.61238986,0.06733594,0.08777307,0.018099837,0.019378977,0.0,0.0,0.0,0.011969,0,0,0,831,24,0,0,0
530608468,0.9834284,-0.0022749607,0.0055512665,0.18119769,2.5513659,1.0223463,-1.9705478,2.0704741,0.8583781,-9.554087,-2.604624e-05,2.4094845e-06,4.22921e-05,-0.00028389692,-0.000100384175,7.136239e-05,0.23902611,-0.029888662,0.3869372,-0.0023283318,0.0018057192,-0.001406214,1.1286986,-0.91117316,2.3840869e-06,0.000962632,0.020898536,6.7498013e-06,2.4758943e-05,2.448564e-05,0.00020872711,0.019365614,0.0211713,0.016766038,0.023008578,0.023045847,0.37452197,1.0973444e-11,1.0975353e-11,1.990233e-11,6.399261e-07,6.3713105e-07,5.000007e-08,0.0011200719,3.9853545e-05,0.0010974355,0.0009357245,0.00040663022,0.0010792179,0.48110536,0.5395119,8389607,0.21460295,0.611982,0.050808717,0.04974638,0.0127282,0.0016097664,0.0,0.0,0.0,0.011969,0,0,0,831,24,0,0,0
530816468,0.97698814,-0.0700495,0.07525544,0.1868796,2.3851411,0.81774884,-2.0184908,2.574224,1.0493966,-9.954704,-2.604784e-05,2.4322514e-06,4.2289965e-05,-0.00025296057,-9.431039e-05,6.4763175e-05,0.23822618,-0.029823238,0.3829827,0.0007036749,0.00024983723,0.0012030364,1.1050801,-0.985089,1.7765569e-06,0.0009766269,0.019665182,7.4888817e-06,2.6169824e-05,2.4885614e-05,0.00020258759,0.01789489,0.01888832,0.01676924,0.023275087,0.02333593,0.37481818,1.10767055e-11,1.1078324e-11,2.000877e-11,6.296137e-07,6.269668e-07,5.000007e-08,0.0009039205,3.688115e-05,0.0007923647,0.00073006103,0.00034081735,0.00078709,0.47314292,0.5298922,8389607,0.21589585,0.612224,0.04438667,0.052103482,0.00861831,0.0053801714,0.0,0.0,0.0,0.011969,0,0,0,831,24,0,0,0
531015705,0.97093195,-0.10627502,0.095391855,0.19208634,2.117102,0.32693473,-1.9062644,2.9987237,1.1413828,-10.327786,-2.6054859e-05,2.4637548e-06,4.2287193e-05,-0.00020292774,-7.406251e-05,5.6539746e-05,0.23714107,-0.029722638,0.3810251,0.0027113967,-0.0005648461,0.0021305867,1.1279209,-1.1486878,1.7960623e-06,0.00092550117,0.019662151,8.197586e-06,2.6769441e-05,2.5722495e-05,0.00019887883,0.01646519,0.016775992,0.016701547,0.0231723,0.023242649,0.37431517,1.1175085e-11,1.1176618e-11,2.0109737e-11,6.210879e-07,6.18495e-07,5e-08,0.00080951856,3.567639e-05,0.00062906044,0.00063953374,0.00031672994,0.0006248476,0.46296537,0.5165655,8389607,0.21544129,0.611813,0.021043489,0.073210254,0.0059905583,0.0092257345,0.0,0.0,0.0,0.011969,0,0,0,831,24,0,0,0
531218868,0.9786859,-0.043356083,0.04813722,0.1948769,1.92911,-0.069760844,-1.7313968,3.3821442,1.137261,-10.67182,-2.6065816e-05,2.4867425e-06,4.2283456e-05,-0.00016168445,-4.8344817e-05,5.1498308e-05,0.23615432,-0.029625747,0.37992948,0.004073615,-0.0011181487,0.0024122607,1.1445587,-1.2419242,1.967164e-06,0.0009700464,0.020876493,7.934361e-06,2.5014037e-05,2.393426e-05,0.00020191746,0.0154552,0.015242624,0.016694238,0.02302415,0.023092723,0.3752562,1.1275312e-11,1.127696e-11,2.0211952e-11,6.135107e-07,6.107223e-07,5.0000036e-08,0.00076431606,3.4914523e-05,0.00056713243,0.0005973692,0.00030223007,0.0005614704,0.4562691,0.50715476,8389607,0.2147484,0.6125816,0.02671545,0.06958722,0.0077681327,0.003653189,0.0,0.0,0.0,0.011969,0,0,0,831,24,0,0,0
531418868,0.9803754,0.036231145,0.027147017,0.19187096,1.8026503,-0.10856993,-1.7735689,3.7397633,1.1052895,-11.018147,-2.6060792e-05,2.5014515e-06,4.2284813e-05,-0.00013032081,-5.3086264e-05,4.945612e-05,0.23648362,-0.029669423,0.37942818,0.0043144478,-0.0013546961,0.0028502212,1.1602435,-1.344176,1.8172918e-06,0.0009114565,0.022177698,7.540092e-06,2.4309178e-05,2.3749473e-05,0.0002025598,0.014480977,0.0142012555,0.01672652,0.022951568,0.023006914,0.3764785,1.1385669e-11,1.1387508e-11,2.0323602e-11,6.071595e-07,6.0404835e-07,5.0000107e-08,0.0007419194,3.4233035e-05,0.0005520649,0.0005793158,0.00029002587,0.00054651254,0.45034963,0.4938342,8389607,0.2143793,0.61357844,0.026046855,0.046940036,0.013371093,0.0052290624,0.0,0.0,0.0,0.011969,0,0,0,831,24,0,0,0
531626068,0.97574484,0.110310815,0.029463187,0.1867767,1.6825539,0.16664718,-1.8380264,4.085812,1.1033623,-11.3829,-2.6056332e-05,2.5076465e-06,4.228557e-05,-0.000111223264,-6.0371e-05,4.757382e-05,0.23728757,-0.029813876,0.37927654,0.0034694814,-0.0011362983,0.003369554,1.2113367,-1.2726339,1.5463293e-06,0.00085213175,0.021017732,7.3383767e-06,2.3946966e-05,2.571635e-05,0.00020086214,0.013445716,0.013403541,0.016771754,0.02298035,0.023015052,0.37670156,1.1491224e-11,1.1493229e-11,2.0429785e-11,6.019564e-07,5.985549e-07,5.000007e-08,0.0007103831,3.3081404e-05,0.0005128836,0.000558118,0.00027175996,0.0005079669,0.4401892,0.4807149,8389607,0.21446538,0.6137602,0.02446902,0.054542042,0.014302324,0.008811812,0.0,0.0,0.0,0.011969,0,0,0,831,24,0,0,0
531826076,0.97331834,0.13166413,0.045513302,0.18233082,1.420501,0.7151452,-1.8532135,4.3721647,1.1989932,-11.727054,-2.6046802e-05,2.5111058e-06,4.2288386e-05,-9.1435664e-05,-8.2456405e-05,4.1203395e-05,0.23944667,-0.030224932,0.37577316,0.0010957608,-0.0007446371,0.0076272707,1.2563622,-1.2652116,1.5091292e-06,0.00077556935,0.017701378,7.1711956e-06,2.4147179e-05,2.6588927e-05,0.00019982121,0.01257433,0.012724837,0.016757717,0.02273083,0.022746745,0.3761163,1.15918004e-11,1.15938995e-11,2.0530324e-11,5.9757286e-07,5.940549e-07,5e-08,0.00067278417,3.1779662e-05,0.0004631676,0.00053396885,0.000252534,0.00045787604,0.43298435,0.4732795,8389607,0.21325472,0.6132832,0.047023304,0.039825644,0.01427266,0.018827256,0.0,0.0,0.0,0.011969,0,0,0,831,24,0,0,0
532033317,0.9811059,0.044750888,0.042994786,0.18324858,1.2307144,1.0071733,-1.7769359,4.625083,1.3812627,-12.072698,-2.6044036e-05,2.514124e-06,4.2282172e-05,-6.7972396e-05,-8.8280125e-05,3.062449e-05,0.23920739,-0.030175498,0.3775449,0.0010788433,-0.00026987065,0.005812341,1.2977409,-1.2456075,1.2847078e-06,0.0007254487,0.016499039,6.9285206e-06,2.4540395e-05,2.3745577e-05,0.00020200928,0.012020624,0.012253825,0.016825598,0.022696601,0.022698548,0.37766993,1.1696728e-11,1.1698859e-11,2.0634605e-11,5.9369387e-07,5.9020743e-07,5.0000107e-08,0.0006491625,3.0955238e-05,0.00044248573,0.00051776815,0.000241169,0.00043658342,0.42750853,0.46829233,8389607,0.21306138,0.61454856,0.03211308,0.051021133,0.016443422,0.0023682066,0.0,0.0,0.0,0.011969,0,0,0,831,24,0,0,0
532232484,0.9808851,-0.010942291,0.06425292,0.18334723,1.049028,0.95736474,-1.8603857,4.835913,1.5677305,-12.447917,-2.604212e-05,2.5140246e-06,4.2267748e-05,-4.3979355e-05,-7.9061094e-05,3.5724064e-05,0.2390942,-0.030150685,0.37769,0.0012473814,0.00025558213,0.0055641574,1.4215297,-1.2095824,1.1199903e-06,0.00072774495,0.01592231,6.954736e-06,2.5277113e-05,2.3359884e-05,0.00020066989,0.011302608,0.011874997,0.016826244,0.022454018,0.022451863,0.37713802,1.1799117e-11,1.1801229e-11,2.0736107e-11,5.9029145e-07,5.868168e-07,5.000007e-08,0.00063906604,3.0583993e-05,0.00043629747,0.00050939684,0.00023650158,0.00043038413,0.41726264,0.45976123,8389607,0.21191007,0.61411566,0.04782541,0.061824754,0.01911927,0.009650628,0.0,0.0,0.0,0.011969,0,0,0,831,24,0,0,0
532432468,0.9770557,-0.034367986,0.10535412,0.18188334,0.77925575,0.7619571,-1.8948188,5.0025115,1.726371,-12.834888,-2.6038459e-05,2.5080647e-06,4.2253712e-05,-2.1667614e-05,-7.063186e-05,3.925306e-05,0.23876485,-0.03011423,0.37766653,0.0016938547,0.00038515145,0.0053986832,1.4694239,-1.290515,1.4498431e-06,0.0009668221,0.020626577,7.0265105e-06,2.6915131e-05,2.3384137e-05,0.00019767517,0.010628631,0.011734259,0.016819017,0.022230303,0.022239948,0.37656704,1.18999186e-11,1.1901939e-11,2.0836107e-11,5.875006e-07,5.839449e-07,5.000007e-08,0.0006232821,3.020428e-05,0.00042110225,0.0004953461,0.00023167758,0.00041533654,0.41058147,0.4486647,8389607,0.21087971,0.61365056,0.024318548,0.06407587,0.013968931,0.0023411775,0.0,0.0,0.0,0.011969,0,0,0,831,24,0,0,0
532639668,0.96972054,-0.04520241,0.1588111,0.17993838,0.30819556,0.4439243,-1.9122746,5.1011004,1.8314945,-13.226645,-2.6029214e-05,2.4962003e-06,4.2234926e-05,2.3389046e-06,-5.610354e-05,3.9496863e-05,0.23806182,-0.030038642,0.37698966,0.002710796,0.00043088724,0.005861508,1.4798782,-1.1844987,1.3943154e-06,0.0009242566,0.019055586,7.195308e-06,2.9834633e-05,2.3185412e-05,0.00019273207,0.0101747485,0.0122001,0.016842678,0.02218828,0.022241615,0.37679103,1.2005908e-11,1.2007694e-11,2.0941443e-11,5.850962e-07,5.8130684e-07,5.0000036e-08,0.00058043806,2.949481e-05,0.00038636773,0.00045801475,0.00022209954,0.00038062775,0.4052182,0.44066152,8389607,0.210784,0.61383307,0.023493646,0.07055621,0.015626375,0.0029892058,0.0,0.0,0.0,0.011969,0,0,0,831,24,0,0,0
532839671,0.96268433,-0.047316372,0.19804792,0.17826155,-0.32348737,0.09089224,-1.836312,5.076833,1.8593705,-13.602192,-2.6016509e-05,2.4720612e-06,4.2214207e-05,2.81665e-05,-4.3293756e-05,3.767151e-05,0.23901714,-0.030149207,0.37785122,0.002104101,0.000707639,0.00502235,1.5869067,-1.2207416,1.4888396e-06,0.00082791445,0.01682185,7.2848466e-06,3.232685e-05,2.2873892e-05,0.00018639378,0.009869494,0.013210146,0.016823992,0.021936253,0.022076136,0.37762523,1.2106755e-11,1.2108019e-11,2.1041585e-11,5.83133e-07,5.788981e-07,5.0000107e-08,0.00052060874,2.8570681e-05,0.0003449993,0.00040690892,0.00020888433,0.00033921548,0.3990645,0.43337473,8389607,0.2097913,0.6145122,0.10393108,0.093372874,0.01950749,0.0023885013,0.0,0.0,0.0,0.011969,0,0,0,831,24,0,0,0
533042868,0.9760666,-0.025650509,0.11299243,0.18403476,-0.7772866,-0.18798396,-1.5741248,4.9503293,1.8146665,-13.903784,-2.6000167e-05,2.4475294e-06,4.2186526e-05,4.299994e-05,-1.6091455e-05,2.6136227e-05,0.23807399,-0.030030515,0.37814778,0.0032009962,0.0011532374,0.0045331223,1.6406314,-1.2630534,1.7250666e-06,0.00084478717,0.020800516,6.5617146e-06,2.6793334e-05,2.3410876e-05,0.00018476366,0.009622262,0.013680438,0.016805027,0.021704288,0.021977747,0.3770882,1.22036894e-11,1.2205052e-11,2.1138346e-11,5.8083435e-07,5.7604774e-07,5.0000036e-08,0.00048690717,2.7951788e-05,0.00032246578,0.0003783155,0.00020001442,0.00031659528,0.39231658,0.42672408,8389607,0.20900248,0.61407506,0.03266741,0.096068405,0.024355385,0.0076456363,0.0,0.0,0.0,0.011969,0,0,0,831,24,0,0,0
533242875,0.98222494,-0.004323378,0.027578115,0.18562056,-0.9321461,-0.3180024,-1.6182995,4.758374,1.7361423,-14.230976,-2.599615e-05,2.4181584e-06,4.217104e-05,5.4863056e-05,3.8897733e-06,2.8568904e-05,0.237984,-0.030007455,0.37815654,0.003308549,0.0018069791,0.0045168367,1.7443918,-1.1649779,1.8240286e-06,0.00085170544,0.01976296,5.927139e-06,2.4276858e-05,2.3799224e-05,0.00017954138,0.009364216,0.013077955,0.016841533,0.021533823,0.021963289,0.37824482,1.23146545e-11,1.2314342e-11,2.1250248e-11,5.788836e-07,5.733448e-07,5.0000065e-08,0.0004840989,2.7682776e-05,0.00032041222,0.000376026,0.00019660612,0.0003145421,0.38137528,0.4162245,8389607,0.20855962,0.6150161,0.062888324,0.06464597,0.026245544,0.00093123934,0.0,0.0,0.0,0.011969,0,0,0,831,24,0,0,0
533450079,0.9818943,0.013408896,-0.03955539,0.1847678,-0.7923104,-0.30651486,-1.7993001,4.5772614,1.6477224,-14.594628,-2.5978161e-05,2.4198378e-06,4.2152333e-05,5.336178e-05,1.992091e-05,3.1806565e-05,0.23783153,-0.029981295,0.37797695,0.0035479798,0.0021701606,0.0047886237,1.8171753,-1.2387667,1.9811025e-06,0.000958988,0.018354448,5.5267974e-06,2.4229834e-05,2.3981174e-05,0.00017304151,0.009056619,0.01171269,0.016892295,0.021506472,0.022077441,0.37840715,1.2412901e-11,1.2408904e-11,2.1351209e-11,5.7722247e-07,5.7123606e-07,5.0000036e-08,0.0004758872,2.7357422e-05,0.00031563928,0.00036942287,0.00019231137,0.0003099185,0.3758543,0.4072138,8389607,0.20876761,0.61514807,0.046515875,0.02598162,0.027305411,0.003385008,0.0,0.0,0.0,0.011969,0,0,0,831,24,0,0,0
533650068,0.9774301,0.027775194,-0.10331072,0.18217005,-0.41852385,-0.16225211,-1.7852268,4.468182,1.5838974,-14.954943,-2.595608e-05,2.422755e-06,4.212658e-05,3.783734e-05,3.2219195e-05,3.2444033e-05,0.23740663,-0.029927209,0.37599584,0.003358037,0.002416043,0.006797362,1.8548948,-1.3345425,1.7579653e-06,0.0009699318,0.02012671,5.31447e-06,2.558999e-05,2.4003497e-05,0.00016713164,0.008580636,0.0100160595,0.01687157,0.021283077,0.021901727,0.37776595,1.2503402e-11,1.24944005e-11,2.1447207e-11,5.756911e-07,5.6958453e-07,5e-08,0.00044962644,2.6789037e-05,0.00029994396,0.0003478562,0.00018474243,0.00029449258,0.3712316,0.39952663,8389607,0.20780954,0.6146267,0.08097947,0.08974735,0.021084292,0.0025817794,0.0,0.0,0.0,0.011969,0,0,0,831,24,0,0,0
533857275,0.9707829,0.03888684,-0.15562646,0.17846252,0.22695136,0.07607209,-1.7514505,4.468297,1.5676996,-15.318619,-2.5957857e-05,2.4879562e-06,4.2141593e-05,2.5628875e-05,4.4352186e-05,2.907409e-05,0.2377875,-0.029963182,0.37542823,0.002836205,0.003049097,0.007323161,1.9574536,-1.2056712,1.9549987e-06,0.0009634908,0.019030467,5.2833902e-06,2.767366e-05,2.391275e-05,0.0001625644,0.008200485,0.008574838,0.01689073,0.021210764,0.021796742,0.37927896,1.2594531e-11,1.2580384e-11,2.1546888e-11,5.741573e-07,5.6818095e-07,5.0000093e-08,0.00039834643,2.5858542e-05,0.00026846718,0.0003055396,0.00017243075,0.00026340847,0.36345187,0.3930614,8389607,0.20738252,0.6158563,0.062920146,0.10471113,0.017776687,0.009672223,0.0,0.0,0.0,0.011969,0,0,0,831,24,0,0,0
534056468,0.9815653,0.025652468,-0.06700162,0.17715096,0.68640864,0.27163354,-1.3623925,4.587355,1.6041923,-15.640482,-2.5940468e-05,2.5237887e-06,4.2111405e-05,7.89962e-06,4.411637e-05,3.216577e-05,0.23727998,-0.02990507,0.3739779,0.0028813304,0.0027099408,0.008855015,2.0416193,-1.208712,3.068842e-06,0.0010832272,0.019564774,4.799099e-06,2.4973808e-05,2.4227673e-05,0.00016449043,0.007854288,0.007927515,0.016854882,0.021000346,0.021470902,0.37869146,1.2680213e-11,1.2662475e-11,2.1643675e-11,5.728881e-07,5.668774e-07,5.0000036e-08,0.0003682425,2.5251722e-05,0.00024936092,0.00028069693,0.00016503254,0.0002445624,0.35818183,0.38814723,8389607,0.20608553,0.6153791,0.06766384,0.032862645,0.01729255,0.011180631,0.0,0.0,0.0,0.011969,0,0,0,831,24,0,0,0
534264468,0.9838529,0.0032361806,0.035137106,0.17546622,0.81627285,0.3198138,-0.95956653,4.768332,1.6668376,-15.859237,-2.5906582e-05,2.5559573e-06,4.2076314e-05,-7.963347e-06,4.4217362e-05,2.1474983e-05,0.23681198,-0.029853782,0.373749,0.0030430455,0.0022253054,0.009246124,2.1053994,-1.1949916,2.4399576e-06,0.00096891087,0.018271532,4.7372e-06,2.464165e-05,2.4188643e-05,0.00016465326,0.0076636807,0.0077112336,0.01690514,0.02091935,0.02127136,0.37875777,1.2764536e-11,1.2743328e-11,2.1741386e-11,5.716306e-07,5.6533344e-07,5e-08,0.0003654569,2.4996447e-05,0.0002475802,0.0002786064,0.00016327259,0.00024284648,0.35223046,0.38358647,8389607,0.20540377,0.615433,0.03711971,0.037701115,0.01869527,1.355458e-05,0.0,0.0,0.0,0.011969,0,0,0,831,24,0,0,0
534463714,0.98116213,-0.008178782,0.08241898,0.1745314,0.686335,0.26355636,-0.39560127,4.9262047,1.7200761,-15.961434,-2.5862011e-05,2.5353079e-06,4.204262e-05,-9.611646e-06,4.6555426e-05,7.5493112e-06,0.23669283,-0.029842092,0.37410387,0.0029837082,0.0018637002,0.008965759,2.1240745,-1.2054044,1.5898644e-06,0.000750386,0.015918178,4.876019e-06,2.554041e-05,2.4117542e-05,0.00016358796,0.0074851885,0.0075430437,0.016928025,0.0207102,0.020975526,0.3796106,1.2843968e-11,1.2818985e-11,2.1836742e-11,5.6997874e-07,5.6338143e-07,5.0000104e-08,0.00036239962,2.4763716e-05,0.00024576852,0.00027633467,0.00016162402,0.000241003,0.34912923,0.37998107,8389607,0.20417082,0.61612546,0.05347402,0.060323846,0.01614805,0.0051243887,0.0,0.0,0.0,0.011969,0,0,0,831,24,0,0,0
534663691,0.9797292,-0.011424144,0.097268,0.17475465,0.5110524,0.19558248,0.2016026,5.04713,1.7598643,-15.960497,-2.5828223e-05,2.4917456e-06,4.2010513e-05,-4.5022225e-06,4.8082304e-05,-8.7489747e-07,0.23658541,-0.029830262,0.37464672,0.0029025665,0.0015642233,0.008470421,2.1389039,-1.2039503,1.0229098e-06,0.0006964385,0.015424967,4.9650116e-06,2.6023148e-05,2.4174737e-05,0.0001629705,0.007372767,0.0074622906,0.016927019,0.020499755,0.020712782,0.37894234,1.2919705e-11,1.2890633e-11,2.1930735e-11,5.675926e-07,5.606988e-07,5.0000036e-08,0.00035641287,2.4495394e-05,0.0002420385,0.00027159211,0.0001595085,0.00023721896,0.34677452,0.3771473,8389607,0.20300871,0.61558294,0.04354665,0.040662482,0.01064698,0.003818366,0.0,0.0,0.0,0.011969,0,0,0,831,24,0,0,0
534870916,0.9797019,-0.007530196,0.09695607,0.17529163,0.29964203,0.113536656,0.82239205,5.1282835,1.7793739,-15.813318,-2.5778241e-05,2.4151655e-06,4.1981995e-05,1.684971e-05,5.6737033e-05,-1.758228e-05,0.23652087,-0.029824032,0.37518936,0.0027672795,0.0012990332,0.007997155,2.2087874,-1.1754589,7.135091e-07,0.0007178108,0.015611409,4.975571e-06,2.6119798e-05,2.4303836e-05,0.00016257663,0.0068556224,0.006989287,0.016477482,0.018639522,0.018791186,0.37542215,1.2986703e-11,1.29513475e-11,2.2029463e-11,5.624294e-07,5.5506143e-07,5e-08,0.00034936587,2.4191111e-05,0.0002377616,0.00026600118,0.00015713494,0.00023288326,0.34171695,0.3730921,8389607,0.19347017,0.61271703,0.05824721,0.04907594,0.010664259,0.0012960214,0.0,0.0,0.0,0.011969,0,0,0,831,24,0,0,0
535070868,0.98039573,-0.0016429015,0.091022216,0.17474698,0.1259276,0.057817552,1.3524207,5.165057,1.7859187,-15.579341,-2.5748292e-05,2.3578496e-06,4.197599e-05,4.000586e-05,6.639231e-05,-2.474057e-05,0.23665266,-0.029842,0.37527838,0.0026014736,0.0012915201,0.007985611,2.2405298,-1.1790701,7.0823336e-07,0.0008579312,0.01708576,4.89873e-06,2.6083373e-05,2.4469615e-05,0.00016248527,0.006841888,0.0070312615,0.01650083,0.018489145,0.018629648,0.37615788,1.3056762e-11,1.30161125e-11,2.2123688e-11,5.5784136e-07,5.501446e-07,5e-08,0.00034411578,2.3932958e-05,0.00023485009,0.00026193485,0.00015526211,0.00022992512,0.33865923,0.37012738,8389607,0.19266237,0.61331713,0.039744817,0.060025524,0.013270731,0.0064076125,0.0,0.0,0.0,0.011969,0,0,0,831,24,0,0,0
535274068,0.9818455,0.0045058937,0.07105422,0.17581397,-0.16032375,0.0060082222,1.0801786,5.1549926,1.7764953,-15.359669,-2.5729727e-05,2.3387845e-06,4.202278e-05,6.0386556e-05,8.884857e-05,-1.514368e-05,0.23692375,-0.02987337,0.37474403,0.00265782,0.0017054868,0.008504655,2.3305562,-1.0880346,7.1388627e-07,0.00083471736,0.017278032,4.82875e-06,2.5785552e-05,2.4738887e-05,0.00016242146,0.0067427964,0.0070609646,0.016524702,0.018420111,0.018562755,0.37723348,1.31374295e-11,1.3090226e-11,2.223413e-11,5.537684e-07,5.4580255e-07,5e-08,0.000340741,2.37029e-05,0.00023316046,0.0002594327,0.00015378644,0.00022819593,0.33262444,0.36498594,8389607,0.19230929,0.6141934,0.036918357,0.051047523,0.019183584,0.012836728,0.0,0.0,0.0,0.011969,0,0,0,831,24,0,0,0
535482068,0.98212254,0.0044723935,0.045123827,0.18270004,-0.3593423,-0.021642495,0.4593889,5.0963182,1.765401,-15.2316065,-2.573219e-05,2.3490352e-06,4.2057884e-05,6.541677e-05,9.7748845e-05,-3.5551427e-06,0.23709938,-0.029891074,0.37459296,0.00271025,0.0020120046,0.008651307,2.3651793,-1.0817652,6.705374e-07,0.000821977,0.01950979,5.0725034e-06,2.5555843e-05,2.5025625e-05,0.00016183342,0.006764311,0.0071582915,0.016574698,0.018465823,0.01862446,0.37730065,1.31983235e-11,1.31427464e-11,2.2333697e-11,5.5108006e-07,5.4295515e-07,5.0000033e-08,0.0003397508,2.3514873e-05,0.00023270436,0.00025875933,0.00015291577,0.00022771567,0.32961747,0.36224505,8389607,0.19258837,0.61424804,0.033413347,0.029899077,0.0154462,0.023593144,0.0,0.0,0.0,0.011969,0,0,0,831,24,0,0,0
535681272,0.9807551,-0.0004882998,0.030148953,0.19289957,-0.43500128,-0.06327611,-0.10578846,5.0165377,1.7482554,-15.22556,-2.5727426e-05,2.365684e-06,4.2101616e-05,6.7772395e-05,0.00010764301,7.935461e-06,0.23709854,-0.029882398,0.37455475,0.002868675,0.0022077109,0.0086465925,2.402374,-1.0758483,5.9148516e-07,0.000869432,0.022478122,5.5534483e-06,2.55716e-05,2.5228464e-05,0.00015956671,0.0068667457,0.007212823,0.01659901,0.01838287,0.018552905,0.3779961,1.3243258e-11,1.3178329e-11,2.2426198e-11,5.4937567e-07,5.411849e-07,5.000006e-08,0.0,0.0,0.0,0.0,0.0,0.0,0.32613388,0.35929635,8389527,0.19218683,0.61481386,0.04401306,0.056573804,0.017900035,0.02244557,0.0,0.0,0.0,0.011969,0,0,0,831,24,0,0,0
535888483,0.97921443,-0.003006974,0.025125127,0.20124324,-0.4367079,-0.09791915,-0.7382236,4.926795,1.7267375,-15.353339,-2.568469e-05,2.383385e-06,4.2154406e-05,6.4615786e-05,0.00011156951,2.1971155e-05,0.23709854,-0.029882398,0.37455475,0.002868675,0.0022077109,0.0086465925,2.4643223,-1.0691228,5.2862754e-07,0.0008937714,0.02241069,5.7230463e-06,2.5672023e-05,2.5378742e-05,0.00014878812,0.007134276,0.0073593645,0.016652793,0.01847412,0.01864357,0.37806585,1.3285077e-11,1.3213251e-11,2.2510901e-11,5.4834675e-07,5.401416e-07,5.0000036e-08,0.0,0.0,0.0,0.0,0.0,0.0,0.32204676,0.3557047,8389527,0.19265951,0.6148706,0.031153545,0.04771189,0.015055947,0.0037453684,0.0,0.0,0.0,0.011969,0,0,0,831,24,0,0,0
