timestamp,timestamp_sample,control[0],control[1],control[2],control[3],control[4],control[5],control[6],control[7]
519054153,519054068,-0.006202801,-0.006854073,-0.19592938,-0.0,0.0,0.0,0.0,-1.0
519106149,519106068,-0.0064600334,-0.0065530785,-0.1955618,-0.0,0.0,0.0,0.0,-1.0
519157345,519157268,-0.0065934323,-0.006763378,-0.1957224,-0.0,0.0,0.0,0.0,-1.0
519209362,519209276,-0.0066762697,-0.0067032515,-0.19594008,-0.0,0.0,0.0,0.0,-1.0
519261370,519261291,-0.006557467,-0.0068781883,-0.19540316,-0.0,0.0,0.0,0.0,-1.0
519313384,519313308,-0.0065026055,-0.0067386474,-0.19577883,-0.0,0.0,0.0,0.0,-1.0
519365353,519365271,-0.006618322,-0.0064761965,-0.196695,-0.0,0.0,0.0,0.0,-1.0
519417359,519417281,-0.0066827466,-0.006690961,-0.19589388,-0.0,0.0,0.0,0.0,-1.0
519468617,519468504,-0.0062699933,-0.006160425,-0.19461009,-0.0,0.0,0.0,0.0,-1.0
519520544,519520468,-0.006245462,-0.0063619185,-0.19461364,-0.0,0.0,0.0,0.0,-1.0
519572567,519572468,-0.0069713155,-0.0069310847,-0.19581631,-0.0,0.0,0.0,0.0,-1.0
519624557,519624481,-0.007201939,-0.006922223,-0.19709502,-0.0,0.0,0.0,0.0,-1.0
519676603,519676468,-0.0060002897,-0.0073756,-0.19618244,-0.0,0.0,0.0,0.0,-1.0
519728555,519728475,-0.0066102063,-0.006461099,-0.19504778,-0.0,0.0,0.0,0.0,-1.0
519780585,519780506,-0.0065892204,-0.0066943914,-0.1946003,-0.0,0.0,0.0,0.0,-1.0
519832540,519832468,-0.006117065,-0.0066810003,-0.19628018,-0.0,0.0,0.0,0.0,-1.0
519883741,519883668,-0.0060942094,-0.006557475,-0.1970135,-0.0,0.0,0.0,0.0,-1.0
519935748,519935668,-0.0065601286,-0.0062389662,-0.19617191,-0.0,0.0,0.0,0.0,-1.0
519987744,519987668,-0.006253056,-0.0067077433,-0.19485968,-0.0,0.0,0.0,0.0,-1.0
520039853,520039668,-0.0066648195,-0.0064490754,-0.19501352,-0.0,0.0,0.0,0.0,-1.0
520091745,520091668,-0.006738538,-0.0063718786,-0.19554397,-0.0,0.0,0.0,0.0,-1.0
520143770,520143668,-0.006462412,-0.007074735,-0.1957661,-0.0,0.0,0.0,0.0,-1.0
520195752,520195674,-0.0065151914,-0.006857705,-0.19583651,-0.0,0.0,0.0,0.0,-1.0
520246947,520246874,-0.007060257,-0.0070834327,-0.19606158,-0.0,0.0,0.0,0.0,-1.0
520298962,520298868,-0.0067062275,-0.0066775987,-0.19716966,-0.0,0.0,0.0,0.0,-1.0
520350966,520350888,-0.0074443617,-0.0070269597,-0.19716114,-0.0,0.0,0.0,0.0,-1.0
520402970,520402867,-0.006195812,-0.0064118416,-0.1949324,-0.0,0.0,0.0,0.0,-1.0
520454961,520454883,-0.0053006965,-0.00591757,-0.19226786,-0.0,0.0,0.0,0.0,-1.0
520506941,520506868,-0.0070375605,-0.006393629,-0.19339015,-0.0,0.0,0.0,0.0,-1.0
520558956,520558878,-0.0074897045,-0.0067951074,-0.1992845,-0.0,0.0,0.0,0.0,-1.0
520610944,520610868,-0.0069615166,-0.007094086,-0.20252398,-0.0,0.0,0.0,0.0,-1.0
520662203,520662068,-0.00632234,-0.0063587767,-0.19652665,-0.0,0.0,0.0,0.0,-1.0
520714151,520714075,-0.005186156,-0.0056717703,-0.18749553,-0.0,0.0,0.0,0.0,-1.0
520766182,520766068,-0.007116717,-0.0072614593,-0.18883161,-0.0,0.0,0.0,0.0,-1.0
520818148,520818068,-0.0067987666,-0.0066133114,-0.20299178,-0.0,0.0,0.0,0.0,-1.0
520870147,520870068,-0.00843125,-0.008838209,-0.20685194,-0.0,0.0,0.0,0.0,-1.0
520922239,520922099,-0.0049646,-0.0050616893,-0.19387415,-0.0,0.0,0.0,0.0,-1.0
520973412,520973331,-0.004366718,-0.0060352404,-0.18445882,-0.0,0.0,0.0,0.0,-1.0
521025374,521025296,-0.008421907,-0.0054911026,-0.19134331,-0.0,0.0,0.0,0.0,-1.0
521077368,521077288,-0.010302945,-0.008348235,-0.20329383,-0.0,0.0,0.0,0.0,-1.0
521129392,521129275,-0.004119419,-0.004834662,-0.20520255,-0.0,0.0,0.0,0.0,-1.0
521181371,521181296,-0.0034866147,-0.00812629,-0.19502614,-0.0,0.0,0.0,0.0,-1.0
521233351,521233275,-0.0075750365,-0.0054759793,-0.18398961,-0.0,0.0,0.0,0.0,-1.0
521285345,521285267,-0.008472813,-0.0044513117,-0.1920045,-0.0,0.0,0.0,0.0,-1.0
521336570,521336468,-0.005598183,-0.0117710335,-0.20299011,-0.0,0.0,0.0,0.0,-1.0
521388544,521388468,-0.005050559,-0.0055180765,-0.20525011,-0.0,0.0,0.0,0.0,-1.0
521440641,521440486,-0.009148706,-0.0053487606,-0.19707575,-0.0,0.0,0.0,0.0,-1.0
521492547,521492468,-0.0016986905,-0.0076838294,-0.19237274,-0.0,0.0,0.0,0.0,-1.0
521544548,521544476,-0.01343062,-0.0007820556,-0.19588959,-0.0,0.0,0.0,0.0,-1.0
521596552,521596474,-0.018680414,-0.011845791,-0.19472976,-0.0,0.0,0.0,0.0,-1.0
521648587,521648507,-0.014830234,-0.009623371,-0.19624671,-0.0,0.0,0.0,0.0,-1.0
521703022,521702894,0.002325418,-0.0042105233,-0.19858325,-0.0,0.0,0.0,0.0,-1.0
521755789,521755668,0.00392509,-0.0054378994,-0.19599354,-0.0,0.0,0.0,0.0,-1.0
521807746,521807668,-0.018000083,-0.0045708716,-0.1922974,-0.0,0.0,0.0,0.0,-1.0
521859748,521859668,-0.019461758,-0.004379537,-0.00061810034,0.0,0.0,0.0,0.0,-1.0
521911757,521911684,0.011837824,-0.0034649638,-0.0056614224,0.0,0.0,0.0,0.0,-1.0
521963792,521963674,-0.0046265526,-0.010926392,0.0024003412,0.0,0.0,0.0,0.0,-1.0
522015754,522015681,-0.031512428,-0.011309769,0.0063133934,0.0,0.0,0.0,0.0,-1.0
522066174,522066098,0.0019903663,-8.176423e-05,-0.0028762922,0.0,0.0,0.0,0.0,-1.0
522118984,522118884,0.011775385,-0.0017377094,-0.004076797,0.0,0.0,0.0,0.0,-1.0
522170944,522170868,-0.026922816,-0.011876734,0.002700694,0.0,0.0,0.0,0.0,-1.0
522222955,522222876,-0.013835034,-0.0018524097,0.00080333604,0.0,0.0,0.0,0.0,-1.0
522274955,522274881,0.017108403,0.005594012,-0.002149964,0.0,0.0,0.0,0.0,-1.0
522326954,522326868,-0.015380959,-0.00910316,0.0028246145,0.0,0.0,0.0,0.0,-1.0
522378960,522378874,-0.024514504,-0.008893485,2.0742222e-05,0.0,0.0,0.0,0.0,-1.0
522430940,522430868,0.010746724,0.004574937,-0.004006722,0.0,0.0,0.0,0.0,-1.0
522486151,522486068,0.006246607,-0.005644481,0.0011766223,0.0,0.0,0.0,0.0,-1.0
522538155,522538068,-0.028243842,-0.014072757,0.0042685242,0.0,0.0,0.0,0.0,-1.0
522590187,522590068,-0.008741638,-0.0041905115,-0.0018940384,0.0,0.0,0.0,0.0,-1.0
522642154,522642068,0.013432862,0.000477635,-0.0026449864,0.0,0.0,0.0,0.0,-1.0
522694155,522694074,-0.020934006,-0.011382088,0.0025755537,0.0,0.0,0.0,0.0,-1.0
522746144,522746068,-0.01917998,-0.007327282,0.00039247406,0.0,0.0,0.0,0.0,-1.0
522797340,522797268,0.017284483,0.00695395,-0.001352044,0.0,0.0,0.0,0.0,-1.0
522849351,522849272,-0.012354293,-0.0059730946,0.0027957354,0.0,0.0,0.0,0.0,-1.0
522901377,522901295,-0.028656308,-0.00910636,-0.00080948725,0.0,0.0,0.0,0.0,-1.0
522953396,522953274,0.013606755,0.0045944327,-0.0040965546,0.0,0.0,0.0,0.0,-1.0
523005346,523005271,0.0005314378,-0.005266819,0.0025046812,0.0,0.0,0.0,0.0,-1.0
523057351,523057274,-0.033707764,-0.014931302,0.003463982,0.0,0.0,0.0,0.0,-1.0
523109394,523109320,0.0023084432,-0.002009382,-0.0031973277,0.0,0.0,0.0,0.0,-1.0
523160590,523160514,0.010173079,-0.0027658984,-0.0010718808,0.0,0.0,0.0,0.0,-1.0
523212551,523212474,-0.031144515,-0.014093139,0.0031132123,0.0,0.0,0.0,0.0,-1.0
523264585,523264500,-0.012016971,-0.0042767343,-0.0010030691,0.0,0.0,0.0,0.0,-1.0
523316567,523316468,0.017966706,0.003991945,-0.00097457,0.0,0.0,0.0,0.0,-1.0
523368577,523368501,-0.018280834,-0.008505121,0.0026170071,0.0,0.0,0.0,0.0,-1.0
523420588,523420512,-0.025191557,-0.0051750634,-0.0006285261,0.0,0.0,0.0,0.0,-1.0
523472572,523472492,0.014406034,0.0035668232,-0.0027058695,0.0,0.0,0.0,0.0,-1.0
523523842,523523681,-0.0047498,-0.006353277,0.0019634212,0.0,0.0,0.0,0.0,-1.0
523575752,523575668,-0.03160118,-0.012233132,0.0013454414,0.0,0.0,0.0,0.0,-1.0
523627781,523627701,0.007404562,-0.0014077623,-0.0020014648,0.0,0.0,0.0,0.0,-1.0
523679746,523679668,0.006534947,-0.0053591663,0.0007570078,0.0,0.0,0.0,0.0,-1.0
523731792,523731716,-0.031807728,-0.012808119,0.0016852564,0.0,0.0,0.0,0.0,-1.0
523783809,523783668,-0.0065328088,-0.0042555947,-0.0023961286,0.0,0.0,0.0,0.0,-1.0
523835744,523835672,0.014729902,0.0025942312,0.00027420616,0.0,0.0,0.0,0.0,-1.0
523886941,523886868,-0.023156043,-0.00871704,0.002683283,0.0,0.0,0.0,0.0,-1.0
523938990,523938910,-0.016823338,-0.0051063844,-0.002171349,0.0,0.0,0.0,0.0,-1.0
523990970,523990868,0.014260011,0.0038921328,-0.0015805343,0.0,0.0,0.0,0.0,-1.0
524042944,524042868,-0.011564523,-0.0064892233,0.0017250607,0.0,0.0,0.0,0.0,-1.0
524095018,524094906,-0.025155855,-0.007998484,6.1048166e-05,0.0,0.0,0.0,0.0,-1.0
524146940,524146867,0.009178675,0.0008690926,-0.001382839,0.0,0.0,0.0,0.0,-1.0
524198981,524198902,0.00033107275,-0.0076545044,0.001625528,0.0,0.0,0.0,0.0,-1.0
524254145,524254069,-0.028614031,-0.011142418,0.0012626396,0.0,0.0,0.0,0.0,-1.0
524306193,524306068,-0.0069310693,-0.005763179,-0.002477403,0.0,0.0,0.0,0.0,-1.0
524358151,524358075,0.01429779,-0.002528593,0.0007562832,0.0,0.0,0.0,0.0,-1.0
524410157,524410073,-0.022062344,-0.0074013076,0.0032023496,0.0,0.0,0.0,0.0,-1.0
524462155,524462068,-0.017241478,-0.0056476286,-0.001495726,0.0,0.0,0.0,0.0,-1.0
524514144,524514068,0.013326375,0.0015062861,-0.001240607,0.0,0.0,0.0,0.0,-1.0
524566150,524566068,-0.010833347,-0.0044228,0.00067772553,0.0,0.0,0.0,0.0,-1.0
524621355,524621283,-0.026947938,-0.0078705335,0.0008968655,0.0,0.0,0.0,0.0,-1.0
524673352,524673278,0.006384534,-0.0016040503,-0.00064731314,0.0,0.0,0.0,0.0,-1.0
524725358,524725278,0.0063047283,-0.0017992089,0.0014316095,0.0,0.0,0.0,0.0,-1.0
524777430,524777272,-0.032300778,-0.01084283,0.0015264602,0.0,0.0,0.0,0.0,-1.0
524829340,524829268,-0.0036975236,-0.0061262306,-0.002671159,0.0,0.0,0.0,0.0,-1.0
524881384,524881271,0.01272607,-0.002997804,0.00014225155,0.0,0.0,0.0,0.0,-1.0
524933349,524933271,-0.024776338,-0.007884619,0.0025733013,0.0,0.0,0.0,0.0,-1.0
524984628,524984468,-0.01259298,-0.005630474,-0.00038763904,0.0,0.0,0.0,0.0,-1.0
525036541,525036468,0.013680819,-0.00073973404,-0.0011523163,0.0,0.0,0.0,0.0,-1.0
525088545,525088469,-0.016053634,-0.0047693956,2.1468737e-05,0.0,0.0,0.0,0.0,-1.0
525140577,525140476,-0.022385597,-0.0051982594,7.3284755e-05,0.0,0.0,0.0,0.0,-1.0
525192544,525192468,0.012070116,-0.0018743048,0.00017652875,0.0,0.0,0.0,0.0,-1.0
525244640,525244468,-0.004999836,-0.0033959874,0.0013002985,0.0,0.0,0.0,0.0,-1.0
525296547,525296471,-0.028831173,-0.0066473624,0.0006465412,0.0,0.0,0.0,0.0,-1.0
525348636,525348508,0.004403381,-0.0045600818,-0.0031203087,0.0,0.0,0.0,0.0,-1.0
525399741,525399668,0.003834495,-0.0054274453,6.0471437e-05,0.0,0.0,0.0,0.0,-1.0
525451757,525451669,-0.02970586,-0.0061495122,0.003016892,0.0,0.0,0.0,0.0,-1.0
525503781,525503670,-0.0041383198,-0.0044601364,-2.6475149e-05,0.0,0.0,0.0,0.0,-1.0
525555764,525555688,0.010995449,-0.0058410885,-0.000545309,0.0,0.0,0.0,0.0,-1.0
525607751,525607675,-0.023828723,-0.0046125865,0.00046969892,0.0,0.0,0.0,0.0,-1.0
525659772,525659688,-0.014321576,-0.004095592,-2.4433832e-05,0.0,0.0,0.0,0.0,-1.0
525711752,525711668,0.014117892,-0.005911684,-0.00018288355,0.0,0.0,0.0,0.0,-1.0
525762944,525762868,-0.024925139,-0.0059226034,0.0010319407,0.12006411,0.0,0.0,0.0,-1.0
525814979,525814903,-0.026602753,-0.007621039,0.001244023,0.12001654,0.0,0.0,0.0,-1.0
525866974,525866868,0.008929148,-0.005977805,-0.00425151,0.12001693,0.0,0.0,0.0,-1.0
525918941,525918868,-0.009133092,-0.006946228,-0.0069622993,0.12000447,0.0,0.0,0.0,-1.0
525970947,525970868,-0.0057516117,0.0051176534,-0.005581046,0.13081768,0.0,0.0,0.0,-1.0
526022970,526022898,0.012186188,0.018385084,-0.003268254,0.16194233,0.0,0.0,0.0,-1.0
526074187,526074074,0.019931335,0.017511312,-0.004652008,0.19286948,0.0,0.0,0.0,-1.0
526126156,526126074,0.029169707,0.006525291,-0.005929506,0.21306357,0.0,0.0,0.0,-1.0
526178243,526178112,0.0054033296,-0.0077226735,-0.0079087345,0.24025406,0.0,0.0,0.0,-1.0
526230147,526230068,-0.026314445,-0.009959496,0.0005113508,0.26381192,0.0,0.0,0.0,-1.0
526282193,526282116,-0.048672836,-0.021807343,-0.0043984326,0.29765233,0.0,0.0,0.0,-1.0
526334152,526334068,-0.0043910984,0.0053277323,-0.006161433,0.3244756,0.0,0.0,0.0,-1.0
526386209,526386118,-0.018803922,0.00979979,-0.011321174,0.34246317,0.0,0.0,0.0,-1.0
526441349,526441273,-0.019186072,0.0040587443,-0.014387042,0.37240908,0.0,0.0,0.0,-1.0
526493385,526493278,-0.026639257,0.0076209977,-0.011906268,0.39290723,0.0,0.0,0.0,-1.0
526545349,526545272,-0.017587623,0.0023106488,-0.0091819195,0.40629864,0.0,0.0,0.0,-1.0
526597370,526597295,-0.008777042,0.012387683,-0.010548387,0.41848722,0.0,0.0,0.0,-1.0
526649351,526649273,-0.011633673,0.017151872,-0.0051878025,0.41904944,0.0,0.0,0.0,-1.0
526701393,526701278,-0.01185483,0.010293665,-0.005935481,0.42459658,0.0,0.0,0.0,-1.0
526753348,526753273,-0.0103336265,0.013104324,-0.009189953,0.42271984,0.0,0.0,0.0,-1.0
526804542,526804468,-0.010803359,0.013771978,-0.006122897,0.42573634,0.0,0.0,0.0,-1.0
526856609,526856498,-0.007954434,0.0057062185,-0.0032721276,0.42317498,0.0,0.0,0.0,-1.0
526908606,526908473,-0.0057370653,0.0032616875,-0.0042291703,0.4254645,0.0,0.0,0.0,-1.0
526960550,526960468,-0.020875677,0.00505532,-0.0059917797,0.4263409,0.0,0.0,0.0,-1.0
527012553,527012472,-0.008981957,0.005058968,-0.004992569,0.42811358,0.0,0.0,0.0,-1.0
527068640,527068468,-0.0052578487,-0.0010706536,-0.0044213864,0.42678288,0.0,0.0,0.0,-1.0
527120542,527120468,0.0013828783,-0.008894097,-0.0023006415,0.39750218,0.0,0.0,0.0,-1.0
527171754,527171680,0.0009258749,-0.0050194976,-0.0025455623,0.37924626,0.0,0.0,0.0,-1.0
527223751,527223674,0.0013538259,0.0024952425,-0.0029553093,0.36395866,0.0,0.0,0.0,-1.0
527275742,527275668,0.0060552103,0.0020724265,-0.0040271087,0.35774386,0.0,0.0,0.0,-1.0
527327847,527327668,0.0016355464,-0.0022480942,-0.0025405465,0.35792807,0.0,0.0,0.0,-1.0
527379794,527379716,0.004757183,0.0022514714,-0.002474784,0.35977945,0.0,0.0,0.0,-1.0
527431742,527431668,0.008802543,0.0023689615,-0.0019802668,0.36332703,0.0,0.0,0.0,-1.0
527483742,527483668,-0.0028941326,0.0032747467,-0.002921835,0.3598104,0.0,0.0,0.0,-1.0
527535833,527535674,-3.075625e-05,0.0015136981,-0.004520668,0.3584328,0.0,0.0,0.0,-1.0
527587744,527587668,0.003566425,7.191743e-05,0.0006073994,0.36172232,0.0,0.0,0.0,-1.0
527638948,527638874,0.0031191194,0.0043774988,-0.0017026945,0.35919046,0.0,0.0,0.0,-1.0
527690972,527690868,0.00051959837,0.0009803192,-0.0045599346,0.36131188,0.0,0.0,0.0,-1.0
527742975,527742901,-0.002353984,0.0005918921,-0.0009053962,0.36402544,0.0,0.0,0.0,-1.0
527794945,527794868,0.0007848488,0.0038543323,-0.0018014678,0.36508906,0.0,0.0,0.0,-1.0
527847064,527846876,0.0019629437,-0.0014982319,0.022835713,0.36473948,0.0,0.0,0.0,-1.0
527898946,527898868,-0.008117427,0.005532316,-0.00067339226,0.36670136,0.0,0.0,0.0,-1.0
527954158,527954072,-0.0018183556,0.004905566,-0.0011334979,0.3676953,0.0,0.0,0.0,-1.0
528006194,528006068,0.0016961652,-0.0026410096,-0.00072569505,0.3672237,0.0,0.0,0.0,-1.0
528058145,528058068,-0.00671769,0.0030457822,0.0013401951,0.37046644,0.0,0.0,0.0,-1.0
528110190,528110068,-0.0029105262,0.00071031577,0.00029309047,0.36845413,0.0,0.0,0.0,-1.0
528162208,528162068,0.00025847182,-0.0040320773,0.0019511742,0.36727247,0.0,0.0,0.0,-1.0
528214164,528214080,-0.008275974,0.0031955543,0.0029836488,0.37031463,0.0,0.0,0.0,-1.0
528265358,528265284,-0.0021930689,0.00022956509,0.0013329824,0.36461464,0.0,0.0,0.0,-1.0
528317360,528317281,-0.0028444263,-0.0013919806,0.00412592,0.36392674,0.0,0.0,0.0,-1.0
528369361,528369281,-0.0058452403,0.008283011,0.0038604913,0.36549821,0.0,0.0,0.0,-1.0
528421349,528421272,-0.0015019126,0.0036559717,0.001402984,0.36433855,0.0,0.0,0.0,-1.0
528473422,528473313,-0.007036559,0.004898959,0.0046710246,0.36401972,0.0,0.0,0.0,-1.0
528525379,528525268,-0.0095989825,0.010183062,0.0038271088,0.3647594,0.0,0.0,0.0,-1.0
528577393,528577276,-0.0028068025,0.0040461025,0.00023831951,0.36823723,0.0,0.0,0.0,-1.0
528632548,528632474,-0.0056695747,0.0018059873,0.00371359,0.36692962,0.0,0.0,0.0,-1.0
528684597,528684523,-0.011894795,0.009187556,0.0037690874,0.36631674,0.0,0.0,0.0,-1.0
528736542,528736468,-0.002621669,0.0066446634,0.0003444317,0.36647245,0.0,0.0,0.0,-1.0
528788582,528788503,-0.006064979,0.005259253,0.0033877415,0.36699542,0.0,0.0,0.0,-1.0
528840542,528840468,-0.008122132,0.009042733,0.0030876384,0.36320043,0.0,0.0,0.0,-1.0
528892556,528892478,-0.0005264527,0.005103147,-0.0012748654,0.36348593,0.0,0.0,0.0,-1.0
528947749,528947675,-0.002889083,0.0040484886,0.002886274,0.36377499,0.0,0.0,0.0,-1.0
528999742,528999668,-0.0083452575,0.0075440654,0.0021050374,0.36326596,0.0,0.0,0.0,-1.0
529051748,529051668,-0.00085473235,0.0030653395,-0.0022197105,0.3637572,0.0,0.0,0.0,-1.0
529103787,529103668,-0.005610491,0.0021370384,0.003126679,0.36444914,0.0,0.0,0.0,-1.0
529155742,529155668,-0.0037644831,0.005471568,0.0018616337,0.36604562,0.0,0.0,0.0,-1.0
529207758,529207668,-0.001734462,-0.021154232,-0.0022846602,0.365048,0.0,0.0,0.0,-1.0
529259798,529259713,-0.005730782,-0.036934573,0.0029132145,0.36786866,0.0,0.0,0.0,-1.0
529311742,529311668,0.0067120893,-0.021562308,0.0017993161,0.37142453,0.0,0.0,0.0,-1.0
529362948,529362874,0.005681508,-0.026785942,-0.00011643465,0.3742983,0.0,0.0,0.0,-1.0
529414966,529414882,-0.003144077,-0.01559809,0.0011233785,0.37679195,0.0,0.0,0.0,-1.0
529466945,529466868,0.0060087424,-0.010779279,-0.002295655,0.381572,0.0,0.0,0.0,-1.0
529518951,529518873,-0.00033639523,-0.013612343,-0.0016163884,0.39002287,0.0,0.0,0.0,-1.0
529570980,529570899,1.5096829e-05,-0.0051005003,0.00016537154,0.3901266,0.0,0.0,0.0,-1.0
529622958,529622882,0.004895882,-0.0023298354,-0.0013358471,0.39306244,0.0,0.0,0.0,-1.0
529674942,529674868,-0.0020326173,-0.002943173,-0.00024239137,0.39260772,0.0,0.0,0.0,-1.0
529726157,529726076,-0.005668168,-0.00017224827,0.0012692723,0.39314204,0.0,0.0,0.0,-1.0
529778173,529778088,-0.0028194,0.0048897658,0.00075415534,0.41001734,0.0,0.0,0.0,-1.0
529830170,529830087,-0.005933411,0.0038946527,0.001288067,0.40430883,0.0,0.0,0.0,-1.0
529882152,529882074,-0.008602581,0.010084393,0.0024979024,0.40806672,0.0,0.0,0.0,-1.0
529934148,529934068,-0.008619333,0.017542435,0.0010771011,0.4207374,0.0,0.0,0.0,-1.0
529986186,529986105,-0.00023609734,0.044244356,0.0018181849,0.41077116,0.0,0.0,0.0,-1.0
530037352,530037272,-0.005584071,0.1911063,-0.0010264993,0.38225132,0.0,0.0,0.0,-1.0
530089447,530089271,-0.009444102,0.14856122,0.0051991954,0.39780858,0.0,0.0,0.0,-1.0
530141374,530141298,-0.014659582,0.029268548,0.008934615,0.41467637,0.0,0.0,0.0,-1.0
530193377,530193273,-0.013456623,0.006311416,0.014700868,0.41080883,0.0,0.0,0.0,-1.0
530245358,530245274,-0.0114282975,0.014432661,0.010614437,0.38786358,0.0,0.0,0.0,-1.0
530297369,530297283,-0.03533916,-0.00899613,0.016698178,0.3673781,0.0,0.0,0.0,-1.0
530349419,530349302,-0.040780302,-0.033600178,0.019883703,0.36389062,0.0,0.0,0.0,-1.0
530400542,530400468,-0.03699228,-0.03799897,0.016747095,0.37170535,0.0,0.0,0.0,-1.0
530452545,530452467,-0.01629906,-0.040242366,0.011602437,0.36710155,0.0,0.0,0.0,-1.0
530504579,530504477,-0.026626354,-0.038862567,0.014104331,0.36279783,0.0,0.0,0.0,-1.0
530556545,530556468,-0.02946911,-0.042096864,0.0151587995,0.37224513,0.0,0.0,0.0,-1.0
530608545,530608468,0.009227265,-0.02562299,0.008670693,0.37426132,0.0,0.0,0.0,-1.0
530660582,530660468,0.042172395,-0.024863474,0.0013109923,0.36688897,0.0,0.0,0.0,-1.0
530712571,530712467,0.052001934,-0.035182253,0.001573541,0.36360115,0.0,0.0,0.0,-1.0
530764597,530764474,0.096544616,-0.1541544,-0.018677527,0.34168282,0.0,0.0,0.0,-1.0
530816548,530816468,0.07829723,-0.113607824,-0.017559182,0.33743754,0.0,0.0,0.0,-1.0
530867776,530867701,0.048899766,-0.034869146,-0.011374208,0.3380758,0.0,0.0,0.0,-1.0
530919748,530919668,0.018671688,0.0029133176,-0.011096475,0.36216646,0.0,0.0,0.0,-1.0
530971815,530971668,0.025516273,0.0034609404,-0.011493376,0.372885,0.0,0.0,0.0,-1.0
531023753,531023668,0.030398602,0.00037816985,-0.0102218855,0.37387905,0.0,0.0,0.0,-1.0
531075787,531075668,0.014929218,0.0073394394,-0.007333018,0.3684947,0.0,0.0,0.0,-1.0
531127746,531127668,0.0084409,-5.2610827e-05,-0.008948157,0.3769381,0.0,0.0,0.0,-1.0
531178947,531178870,-0.0011281739,0.0013204286,-0.007386725,0.39152375,0.0,0.0,0.0,-1.0
531231016,531230868,0.003221345,0.007011487,-0.010707306,0.397088,0.0,0.0,0.0,-1.0
531282962,531282875,0.0065843933,0.0010952217,-0.003597809,0.37960964,0.0,0.0,0.0,-1.0
531334941,531334868,0.0049034515,0.004461343,-0.0071584405,0.37580892,0.0,0.0,0.0,-1.0
531391023,531390868,0.0013808532,0.011895732,-0.008452491,0.3851259,0.0,0.0,0.0,-1.0
531442955,531442881,-0.0066117463,0.019855188,-0.017752051,0.38866276,0.0,0.0,0.0,-1.0
531494952,531494874,-0.025088498,0.023779266,-0.0158665,0.38658452,0.0,0.0,0.0,-1.0
531546161,531546074,-0.19031881,-0.023513276,0.0051699877,0.3316593,0.0,0.0,0.0,-1.0
531598157,531598074,-0.09907295,-0.016488077,0.0043649888,0.33890358,0.0,0.0,0.0,-1.0
531650149,531650068,-0.038566437,-0.0010092732,-0.0040008994,0.34526652,0.0,0.0,0.0,-1.0
531706152,531706068,-0.02092444,0.014243179,-3.0659023e-05,0.3656233,0.0,0.0,0.0,-1.0
531754145,531754068,0.0016432599,0.011109746,-0.00013644865,0.3717714,0.0,0.0,0.0,-1.0
531810154,531810073,0.014660887,0.013257748,-0.00042127934,0.3696596,0.0,0.0,0.0,-1.0
531861358,531861283,0.02150783,0.014621154,0.0025703604,0.3757178,0.0,0.0,0.0,-1.0
531913373,531913297,0.030154997,0.0074758604,-0.00030280062,0.39529327,0.0,0.0,0.0,-1.0
531965361,531965281,0.01983186,-0.0039830115,0.0043293834,0.39625055,0.0,0.0,0.0,-1.0
532017345,532017268,0.017925352,0.007631531,0.010267713,0.3914365,0.0,0.0,0.0,-1.0
532073371,532073291,0.023393366,0.012655963,0.0065312833,0.3795852,0.0,0.0,0.0,-1.0
532125432,532125275,0.024188627,0.010542565,0.0050065015,0.3770853,0.0,0.0,0.0,-1.0
532177345,532177268,0.014183711,0.010971705,0.010640009,0.36964902,0.0,0.0,0.0,-1.0
532228542,532228468,0.019200966,0.010445605,0.008037556,0.36786097,0.0,0.0,0.0,-1.0
532280583,532280468,0.019116271,0.0046242117,0.0060784584,0.37554854,0.0,0.0,0.0,-1.0
532332597,532332468,0.0070671383,0.004393711,0.008739229,0.37744907,0.0,0.0,0.0,-1.0
532384552,532384468,0.012180787,0.007962166,0.0065847873,0.38941142,0.0,0.0,0.0,-1.0
532436541,532436468,0.015894795,0.00582485,0.00947146,0.39196974,0.0,0.0,0.0,-1.0
532488542,532488468,0.0063451673,0.0032178012,0.0061905864,0.4019955,0.0,0.0,0.0,-1.0
532540545,532540468,0.004752446,-0.013320366,0.005488206,0.36636192,0.0,0.0,0.0,-1.0
532590973,532590899,0.021093987,-0.17106065,0.004594948,0.30280915,0.0,0.0,0.0,-1.0
532647766,532647668,0.009383286,-0.16263929,-0.0009637579,0.3029686,0.0,0.0,0.0,-1.0
532699753,532699679,0.015375311,-0.06269975,-0.00797113,0.31935182,0.0,0.0,0.0,-1.0
532751786,532751668,0.0066646845,0.0072178794,-0.0052541043,0.3388439,0.0,0.0,0.0,-1.0
532807749,532807668,0.0072351415,0.0069270865,-0.0019986113,0.36090437,0.0,0.0,0.0,-1.0
532859775,532859690,0.0038418686,0.017550997,-0.004110351,0.36468935,0.0,0.0,0.0,-1.0
532911786,532911668,0.008713887,0.03001178,-0.004295049,0.3653258,0.0,0.0,0.0,-1.0
532962951,532962868,0.0050686034,0.017979989,-0.00015372626,0.3690751,0.0,0.0,0.0,-1.0
533014959,533014885,-0.00032498623,0.013552736,-0.0012288176,0.37848324,0.0,0.0,0.0,-1.0
533070942,533070868,-0.003930952,0.013297476,5.8999198e-05,0.38481086,0.0,0.0,0.0,-1.0
533122961,533122888,-0.0020886848,0.012287466,0.0046848324,0.39740703,0.0,0.0,0.0,-1.0
533174951,533174868,-0.0010321385,0.020298047,0.0026224784,0.39794824,0.0,0.0,0.0,-1.0
533226942,533226868,-0.0022895792,0.0058097686,0.0019453757,0.37460226,0.0,0.0,0.0,-1.0
533278947,533278874,0.0008909533,-0.0035357212,0.008017517,0.35169414,0.0,0.0,0.0,-1.0
533330955,533330871,-0.008692999,0.012274265,0.005405745,0.3606831,0.0,0.0,0.0,-1.0
533386149,533386068,-0.0042152954,0.019917639,0.0064082732,0.3710185,0.0,0.0,0.0,-1.0
533438303,533438076,0.0015107741,0.014057945,0.009788943,0.36790797,0.0,0.0,0.0,-1.0
533490151,533490068,-0.006882282,0.008558002,0.0068752253,0.36505705,0.0,0.0,0.0,-1.0
533542148,533542068,-0.008849684,0.017504077,0.00907358,0.38366407,0.0,0.0,0.0,-1.0
533594172,533594068,0.00037371356,0.019799571,0.009344255,0.36783993,0.0,0.0,0.0,-1.0
533646184,533646068,-0.0014589478,0.22798829,0.0027396565,0.2780911,0.0,0.0,0.0,-1.0
533697355,533697272,-0.0052376124,0.1840719,0.006126634,0.28818524,0.0,0.0,0.0,-1.0
533749396,533749311,-0.0017421853,0.084766075,0.012874464,0.30823013,0.0,0.0,0.0,-1.0
533801388,533801278,-0.010095622,0.00722762,0.0073514073,0.31767812,0.0,0.0,0.0,-1.0
533853354,533853273,-0.0023169643,-0.0041969297,0.022351157,0.31803662,0.0,0.0,0.0,-1.0
533905352,533905270,-0.0053664893,-0.011364049,0.014515362,0.3047863,0.0,0.0,0.0,-1.0
533957384,533957299,0.003813311,-0.028461996,0.018285275,0.29582173,0.0,0.0,0.0,-1.0
534012590,534012511,0.0054391655,-0.021417309,0.0144158,0.27270323,0.0,0.0,0.0,-1.0
534064598,534064520,0.0070361085,-0.020891374,0.01644124,0.26145232,0.0,0.0,0.0,-1.0
534116543,534116468,0.009852703,-0.028481105,0.012040633,0.26110658,0.0,0.0,0.0,-1.0
534168548,534168468,0.003733632,-0.02669681,0.0109207,0.249617,0.0,0.0,0.0,-1.0
534220542,534220468,0.0018202435,-0.020029355,0.010652501,0.24499598,0.0,0.0,0.0,-1.0
534276551,534276471,0.010504857,-0.013307325,0.011573452,0.24363633,0.0,0.0,0.0,-1.0
534324542,534324468,0.005293355,-0.015120367,0.00785999,0.2491884,0.0,0.0,0.0,-1.0
534376582,534376468,0.008202038,-0.013000292,0.0071636233,0.24949244,0.0,0.0,0.0,-1.0
534427130,534426916,0.013523252,-0.008800208,0.010071918,0.24741676,0.0,0.0,0.0,-1.0
534479745,534479668,0.0041739745,-0.008521427,0.006625861,0.24823824,0.0,0.0,0.0,-1.0
534531752,534531674,0.008008851,-0.0070800576,0.011050194,0.24602039,0.0,0.0,0.0,-1.0
534583751,534583668,0.010043629,-0.000565532,0.008036186,0.24652502,0.0,0.0,0.0,-1.0
534635781,534635668,0.0007754623,0.0013862769,0.0026548272,0.24520624,0.0,0.0,0.0,-1.0
534687745,534687668,0.0015188436,0.008654284,0.009693797,0.24568981,0.0,0.0,0.0,-1.0
534738942,534738868,-0.002581721,0.0061818794,0.011949669,0.24695648,0.0,0.0,0.0,-1.0
534790972,534790891,-0.006224746,0.0031186247,0.0062997406,0.24112745,0.0,0.0,0.0,-1.0
534842942,534842868,-0.000797291,0.0027589207,0.011203239,0.31168446,0.0,0.0,0.0,-1.0
534894948,534894868,-0.012495717,-0.0043992824,0.014129647,0.35300788,0.0,0.0,0.0,-1.0
534946942,534946868,-0.011916181,0.0003667651,0.012192449,0.40829316,0.0,0.0,0.0,-1.0
535002941,535002868,-0.014690255,0.0053979293,0.0062278286,0.44248468,0.0,0.0,0.0,-1.0
535054942,535054868,-0.0102079315,0.011172566,0.008551102,0.4538914,0.0,0.0,0.0,-1.0
535106155,535106068,-0.018065618,0.018254934,0.018453559,0.45622244,0.0,0.0,0.0,-1.0
535158148,535158068,-0.007588521,0.024930626,0.020088173,0.4586773,0.0,0.0,0.0,-1.0
535210172,535210079,-0.0056630773,0.023336317,0.017723795,0.45376056,0.0,0.0,0.0,-1.0
535262175,535262093,0.00012294068,0.025022168,0.018916702,0.45396015,0.0,0.0,0.0,-1.0
535314192,535314074,-0.004114557,0.021969056,0.016938783,0.45009148,0.0,0.0,0.0,-1.0
535366149,535366068,-0.0047085164,0.022821568,0.016049799,0.45034426,0.0,0.0,0.0,-1.0
535418193,535418068,-0.0021471346,0.024693752,0.009051913,0.45571762,0.0,0.0,0.0,-1.0
535470190,535470070,-0.001988972,0.023792861,0.007353344,0.46430382,0.0,0.0,0.0,-1.0
535521346,535521272,-0.0002681675,0.015649246,0.0030345877,0.4636531,0.0,0.0,0.0,-1.0
535573352,535573274,0.007998792,0.021958947,0.0008637421,0.46614978,0.0,0.0,0.0,-1.0
535625367,535625267,0.004313573,0.02306238,0.00034360727,0.46634582,0.0,0.0,0.0,-1.0
535677472,535677278,-0.0022289883,0.014592161,-0.002413922,0.46635792,0.0,0.0,0.0,-1.0
535729360,535729282,0.0047781984,0.009507819,0.00030195224,0.45511517,0.0,0.0,0.0,-1.0
535781368,535781284,0.0077673797,0.0068648853,0.0029920514,0.45658034,0.0,0.0,0.0,-1.0
535832557,535832468,-0.0017543198,0.007736118,0.0006039103,0.46430787,0.0,0.0,0.0,-1.0
535884542,535884468,-0.0033494637,0.010467547,0.0006211342,0.46172795,0.0,0.0,0.0,-1.0
535936545,535936468,0.0023737734,0.010708586,0.0008344285,0.46282426,0.0,0.0,0.0,-1.0
535988590,535988468,-0.0009559565,0.012256447,0.0003783258,0.46733022,0.0,0.0,0.0,-1.0
536040542,536040468,-0.0021357518,0.01255706,-0.0006131709,0.46544582,0.0,0.0,0.0,-1.0
536092562,536092481,0.0014763208,0.007825767,0.0012204282,0.4686492,0.0,0.0,0.0,-1.0
536144544,536144468,-0.00040835436,0.0051523913,0.0015292552,0.47262654,0.0,0.0,0.0,-1.0
536199751,536199668,0.0026674503,0.005981884,0.00048484746,0.469039,0.0,0.0,0.0,-1.0
536251768,536251688,-0.002872917,0.008948888,0.0008921602,0.47357854,0.0,0.0,0.0,-1.0
536303751,536303668,-0.011064344,0.008704079,0.004239211,0.4743933,0.0,0.0,0.0,-1.0
536355794,536355668,-0.008013963,0.0077952556,0.0046344707,0.4290219,0.0,0.0,0.0,-1.0
536407745,536407668,-0.0050258497,0.007777311,0.00047580467,0.3682171,0.0,0.0,0.0,-1.0
536459808,536459667,0.0043772375,0.0071197427,0.0006565745,0.3338628,0.0,0.0,0.0,-1.0
536511760,536511674,0.008137539,0.011479292,-0.0027280005,0.3101412,0.0,0.0,0.0,-1.0
536563757,536563679,-0.0024168734,0.010465848,-0.0021011797,0.2895524,0.0,0.0,0.0,-1.0
536614989,536614908,0.0035183632,0.007257932,-0.004220402,0.2803567,0.0,0.0,0.0,-1.0
536666948,536666868,-0.0042804186,0.005882161,0.0069898874,0.27204826,0.0,0.0,0.0,-1.0
536718942,536718868,-0.0012399581,0.009546395,0.02404135,0.27209902,0.0,0.0,0.0,-1.0
536770949,536770868,0.0003840362,0.008523063,0.060668483,0.26316094,0.0,0.0,0.0,-1.0
536822972,536822868,-0.0005855176,0.011911062,0.101143174,0.26773807,0.0,0.0,0.0,-1.0
536874941,536874868,0.0024940374,0.019127036,0.15303248,0.26345545,0.0,0.0,0.0,-1.0
536926989,536926874,0.0074398406,0.011379766,0.20785816,0.2647182,0.0,0.0,0.0,-1.0
536978243,536978093,0.009584325,0.013695494,0.20280886,0.25716192,0.0,0.0,0.0,-1.0
537030151,537030074,0.01886096,0.020490412,0.20681952,0.25415847,0.0,0.0,0.0,-1.0
537082150,537082070,0.019603418,0.028533762,0.19179457,0.2483694,0.0,0.0,0.0,-1.0
537134151,537134068,0.018625379,0.025629574,0.10984826,0.23948926,0.0,0.0,0.0,-1.0
537190149,537190068,0.00726905,0.01399466,-0.012303438,0.23903684,0.0,0.0,0.0,-1.0
537242152,537242074,0.009051392,0.0041566924,-0.040879108,0.23904067,0.0,0.0,0.0,-1.0
537293451,537293301,0.003953401,-0.00076402386,-0.056310367,0.25664526,0.0,0.0,0.0,-1.0
537345345,537345271,-0.0098294,-0.0059400517,-0.06609367,0.29373807,0.0,0.0,0.0,-1.0
537397392,537397278,0.0031565223,-0.0073664715,-0.066617146,0.31031227,0.0,0.0,0.0,-1.0
537449416,537449327,0.014361517,0.0023826135,-0.06598572,0.33145824,0.0,0.0,0.0,-1.0
537501401,537501280,0.012018009,0.00092459715,-0.062286865,0.34035507,0.0,0.0,0.0,-1.0
537553349,537553272,0.0020750894,-0.0036152937,-0.08670662,0.34816957,0.0,0.0,0.0,-1.0
537604557,537604482,0.008156879,-0.0058713523,-0.093534544,0.35647228,0.0,0.0,0.0,-1.0
537656542,537656468,0.008794904,-0.00047422573,-0.055365633,0.35459083,0.0,0.0,0.0,-1.0
537708567,537708489,0.013846712,-0.004754082,-0.040932313,0.3595452,0.0,0.0,0.0,-1.0
537764583,537764468,0.011287019,0.0035767374,-0.031806763,0.36000746,0.0,0.0,0.0,-1.0
537816546,537816468,0.00843357,-0.0016428125,-0.02372952,0.35451353,0.0,0.0,0.0,-1.0
537868547,537868468,0.005207886,-0.0062314775,-0.023694433,0.36568582,0.0,0.0,0.0,-1.0
537920594,537920509,0.008622721,-0.006420461,-0.018930994,0.39344162,0.0,0.0,0.0,-1.0
537972573,537972495,0.0015324855,-0.003719817,-0.009897764,0.372844,0.0,0.0,0.0,-1.0
538023756,538023674,-0.004308996,-0.003241128,-0.009272039,0.33338308,0.0,0.0,0.0,-1.0
538071745,538071668,0.003621841,-0.0059501533,-0.007702928,0.33243498,0.0,0.0,0.0,-1.0
538123745,538123668,0.0069932844,-0.004891225,-0.0027378243,0.3379961,0.0,0.0,0.0,-1.0
538179752,538179678,0.003808017,-0.0076390146,0.000550825,0.338558,0.0,0.0,0.0,-1.0
538231741,538231668,0.0033160062,-0.0009118969,0.0019357908,0.3469028,0.0,0.0,0.0,-1.0
538283755,538283681,0.0071740043,-0.004009441,0.004489773,0.3490556,0.0,0.0,0.0,-1.0
538334942,538334868,0.004047246,-0.00535434,0.003663209,0.3490455,0.0,0.0,0.0,-1.0
538386942,538386868,-0.0012825106,-0.004846509,0.007902944,0.35197195,0.0,0.0,0.0,-1.0
538438997,538438890,0.0025941595,-0.0055491542,0.008566773,0.3528118,0.0,0.0,0.0,-1.0
538490952,538490874,0.0036516255,-0.0019234414,0.010426513,0.35246858,0.0,0.0,0.0,-1.0
538543032,538542905,0.0050241905,-1.9058132e-05,0.010903305,0.3517932,0.0,0.0,0.0,-1.0
538594945,538594868,0.0009929179,-0.0023092201,0.009208858,0.35257006,0.0,0.0,0.0,-1.0
538646985,538646908,-0.0009772509,-0.0024403452,0.012566349,0.35550043,0.0,0.0,0.0,-1.0
538701371,538701291,0.001843017,0.003811134,0.014706098,0.35210812,0.0,0.0,0.0,-1.0
538754197,538754074,-9.744724e-06,0.0030714516,0.013668326,0.3538691,0.0,0.0,0.0,-1.0
538806157,538806074,-0.0065288474,0.0051281434,0.011492245,0.35762382,0.0,0.0,0.0,-1.0
538858159,538858068,-0.0020488207,0.0010900843,0.014712993,0.35846487,0.0,0.0,0.0,-1.0
538910156,538910072,-0.0026026443,0.0020772268,0.018096525,0.35783523,0.0,0.0,0.0,-1.0
538962158,538962068,-0.0011935588,-0.0012633707,0.015317538,0.35730955,0.0,0.0,0.0,-1.0
539014149,539014068,-0.0005973021,0.002708497,0.02123745,0.35494405,0.0,0.0,0.0,-1.0
539070203,539070078,-0.0026767259,0.0058939494,0.018151257,0.35298005,0.0,0.0,0.0,-1.0
539121340,539121268,-0.0018643768,0.00033133457,0.016053768,0.3535066,0.0,0.0,0.0,-1.0
539173349,539173274,-0.0009214814,-0.0012218881,0.02365916,0.35409465,0.0,0.0,0.0,-1.0
539225446,539225292,0.005593056,0.0034860203,0.021556892,0.35209596,0.0,0.0,0.0,-1.0
539277349,539277270,-0.002555026,0.0014760027,0.022922613,0.35385615,0.0,0.0,0.0,-1.0
539329388,539329271,-0.0042243837,0.006278261,0.023440426,0.36964202,0.0,0.0,0.0,-1.0
539381358,539381272,-0.00020024483,0.0054564155,0.022337839,0.39994907,0.0,0.0,0.0,-1.0
539437345,539437268,-0.0013758675,0.0046808673,0.020310858,0.43011886,0.0,0.0,0.0,-1.0
539488582,539488504,0.002662539,0.002046982,0.018411318,0.44867402,0.0,0.0,0.0,-1.0
539540659,539540477,0.00049276324,0.0047037625,0.016482966,0.45359054,0.0,0.0,0.0,-1.0
539592542,539592468,-0.006057178,0.0023401587,0.016159087,0.45891085,0.0,0.0,0.0,-1.0
539644547,539644468,0.00034088315,0.0040324037,0.014837602,0.46382907,0.0,0.0,0.0,-1.0
539696583,539696468,0.0070883296,0.011116649,0.011885559,0.46221352,0.0,0.0,0.0,-1.0
539748552,539748474,0.0044120266,0.006782371,0.0076193865,0.45940593,0.0,0.0,0.0,-1.0
539800550,539800474,0.0064406823,0.004482644,0.0025019865,0.43905765,0.0,0.0,0.0,-1.0
539851797,539851719,0.011540428,0.0058851,0.0009486148,0.3794399,0.0,0.0,0.0,-1.0
539903782,539903668,0.011122998,0.008228183,0.003228389,0.3565049,0.0,0.0,0.0,-1.0
539955750,539955669,0.007598058,0.008797165,2.5204325e-05,0.35582218,0.0,0.0,0.0,-1.0
540007797,540007717,0.008956907,0.0059825773,-0.00080525246,0.35785136,0.0,0.0,0.0,-1.0
540059831,540059680,0.013199359,0.008858036,-0.0016438572,0.34056386,0.0,0.0,0.0,-1.0
540111752,540111678,0.0100957295,0.0066486974,-0.002976941,0.35323125,0.0,0.0,0.0,-1.0
540162191,540162110,0.013827237,0.0058821253,-0.0020328073,0.3655097,0.0,0.0,0.0,-1.0
540210945,540210868,0.0090715755,0.0069057243,-0.0025278653,0.35922125,0.0,0.0,0.0,-1.0
540266951,540266874,0.003414099,0.0072935307,-0.002063921,0.36246428,0.0,0.0,0.0,-1.0
540318942,540318868,0.008919373,0.0077106776,-0.0010794769,0.36769363,0.0,0.0,0.0,-1.0
540370989,540370868,0.007558504,0.007834039,-0.0023855485,0.3622977,0.0,0.0,0.0,-1.0
540422969,540422868,0.0053228573,0.0016001394,-0.00035622244,0.3579133,0.0,0.0,0.0,-1.0
540475015,540474905,0.0060355756,0.0020529947,0.0017857447,0.36222985,0.0,0.0,0.0,-1.0
540526942,540526868,0.0038180263,0.0046389676,0.0042418875,0.3618698,0.0,0.0,0.0,-1.0
540582178,540582094,0.00062241824,0.0023529683,0.003903489,0.35649496,0.0,0.0,0.0,-1.0
540634145,540634068,-0.0026212935,0.0018279587,0.004651564,0.36010996,0.0,0.0,0.0,-1.0
540690192,540690068,-0.0015403001,0.003950426,0.0056848554,0.3696912,0.0,0.0,0.0,-1.0
540742200,540742068,-0.0025472739,0.0062333494,0.0064692213,0.373697,0.0,0.0,0.0,-1.0
540794210,540794093,-0.0031584818,0.0053506675,0.006611597,0.38403434,0.0,0.0,0.0,-1.0
540845350,540845274,-0.0019196515,0.0074746655,0.00933621,0.37724128,0.0,0.0,0.0,-1.0
540897372,540897295,-0.002581299,0.0067565404,0.007996547,0.37490386,0.0,0.0,0.0,-1.0
540949356,540949277,-0.0011831411,0.007437576,0.007506679,0.3723248,0.0,0.0,0.0,-1.0
541001381,541001271,0.008881021,0.008101409,0.01076376,0.3773757,0.0,0.0,0.0,-1.0
541053349,541053272,0.004248581,0.0068293773,0.008056075,0.37676817,0.0,0.0,0.0,-1.0
541105351,541105274,0.0016890212,0.0047810744,0.010786469,0.37585774,0.0,0.0,0.0,-1.0
541157416,541157303,0.005911339,0.008181022,0.009783685,0.37203842,0.0,0.0,0.0,-1.0
541208546,541208468,0.0032009352,0.005505678,0.0064030625,0.36919647,0.0,0.0,0.0,-1.0
541260547,541260468,0.008583509,0.0069400584,0.012065441,0.36887673,0.0,0.0,0.0,-1.0
541312548,541312474,0.013248607,0.015098038,0.009332503,0.36910933,0.0,0.0,0.0,-1.0
541364554,541364474,0.008872161,0.0066644796,0.0064687836,0.37425986,0.0,0.0,0.0,-1.0
541416596,541416518,0.01170048,0.0043443884,0.008618749,0.3686615,0.0,0.0,0.0,-1.0
541468542,541468468,0.01375023,0.008268255,0.009342907,0.34996316,0.0,0.0,0.0,-1.0
541520556,541520482,0.008829816,0.0045552016,0.0102596665,0.35049805,0.0,0.0,0.0,-1.0
541575745,541575668,0.008140235,0.008315756,0.011272819,0.35047057,0.0,0.0,0.0,-1.0
541627812,541627675,0.0028670575,0.0068949573,0.010988993,0.36525998,0.0,0.0,0.0,-1.0
541679743,541679668,0.0031175874,0.008628253,0.010041005,0.38496554,0.0,0.0,0.0,-1.0
541731785,541731668,-0.0014924447,0.0032596847,0.009393834,0.39859158,0.0,0.0,0.0,-1.0
541783752,541783668,0.0015920436,0.005231194,0.014874431,0.38817424,0.0,0.0,0.0,-1.0
541835826,541835677,0.0054108105,0.005283399,0.01045491,0.36504787,0.0,0.0,0.0,-1.0
541887759,541887668,0.0046904827,0.00015612757,0.0107164495,0.3512599,0.0,0.0,0.0,-1.0
541938946,541938868,0.00619321,0.0023250182,0.014759869,0.35526928,0.0,0.0,0.0,-1.0
541990983,541990868,0.010735535,0.0029627264,0.012644239,0.36102942,0.0,0.0,0.0,-1.0
542042999,542042868,0.0062622246,0.0017259805,0.015992953,0.35906142,0.0,0.0,0.0,-1.0
542094948,542094874,0.007910404,0.0031852257,0.014351048,0.35940868,0.0,0.0,0.0,-1.0
542146969,542146880,0.006543684,0.0008975989,0.013818347,0.3636096,0.0,0.0,0.0,-1.0
542198959,542198868,0.0025244746,0.0040594093,0.015880438,0.37068248,0.0,0.0,0.0,-1.0
542250945,542250868,-0.0024836862,0.0018588407,0.01449547,0.37552595,0.0,0.0,0.0,-1.0
542301395,542301317,0.0018600932,0.00019165038,0.015959,0.3718388,0.0,0.0,0.0,-1.0
542354184,542354068,0.003470727,0.003777874,0.016204212,0.37857243,0.0,0.0,0.0,-1.0
542406163,542406068,0.0068307063,7.915855e-05,0.016028991,0.38551345,0.0,0.0,0.0,-1.0
542458145,542458068,0.010202259,-0.00012260662,0.0145867085,0.3778532,0.0,0.0,0.0,-1.0
542510181,542510097,0.0066129006,-0.0022501962,0.015459563,0.36771765,0.0,0.0,0.0,-1.0
542562248,542562074,0.013701517,0.0021728568,0.018327307,0.3703229,0.0,0.0,0.0,-1.0
542614153,542614068,0.014735186,0.006794769,0.01382958,0.38600293,0.0,0.0,0.0,-1.0
542666149,542666068,0.004302721,0.0006529149,0.0138980085,0.40404338,0.0,0.0,0.0,-1.0
542717412,542717298,0.0058967536,0.003644944,0.016291393,0.40552652,0.0,0.0,0.0,-1.0
542769351,542769274,0.0044012554,0.0024107448,0.013913871,0.39315963,0.0,0.0,0.0,-1.0
542821364,542821281,-0.0021061294,0.00086849125,0.013442744,0.39185807,0.0,0.0,0.0,-1.0
542873376,542873303,0.0009942837,0.0040838653,0.016310703,0.40447372,0.0,0.0,0.0,-1.0
542925346,542925268,0.004326713,0.009384626,0.014257494,0.41484007,0.0,0.0,0.0,-1.0
542977385,542977302,-0.0006016237,0.00784765,0.012589528,0.40904143,0.0,0.0,0.0,-1.0
543029344,543029270,0.0015282067,0.008573349,0.015777547,0.39672598,0.0,0.0,0.0,-1.0
543084545,543084468,-0.0036857834,0.010246043,0.014412725,0.38774884,0.0,0.0,0.0,-1.0
543136543,543136468,-0.0042767003,0.012194702,0.010669656,0.38285667,0.0,0.0,0.0,-1.0
543188594,543188468,-0.002333548,0.006664861,0.0148499375,0.3833912,0.0,0.0,0.0,-1.0
543240541,543240467,0.007580816,0.008708939,0.01177467,0.38821408,0.0,0.0,0.0,-1.0
543292559,543292474,0.0060692383,0.0049798526,0.011323082,0.41281673,0.0,0.0,0.0,-1.0
543344708,543344504,0.0064739725,0.007758171,0.016934896,0.41028726,0.0,0.0,0.0,-1.0
543396542,543396468,0.015579148,0.008352805,0.012464206,0.38964885,0.0,0.0,0.0,-1.0
543451779,543451702,0.014585892,0.0076904865,0.010673705,0.3901537,0.0,0.0,0.0,-1.0
543503793,543503668,0.016358009,0.006753457,0.01472265,0.39226645,0.0,0.0,0.0,-1.0
543555742,543555668,0.013749222,0.010753405,0.012257863,0.3563677,0.0,0.0,0.0,-1.0
543607754,543607674,0.014832785,0.0071628843,0.00987568,0.32548788,0.0,0.0,0.0,-1.0
543659791,543659668,0.013671425,0.006955301,0.01394129,0.34064442,0.0,0.0,0.0,-1.0
543711742,543711668,0.0052216225,0.006891797,0.010969066,0.39608628,0.0,0.0,0.0,-1.0
543766941,543766868,0.0036032337,0.002978035,0.012491904,0.39703122,0.0,0.0,0.0,-1.0
543818942,543818868,0.004347246,0.0018477739,0.012247686,0.41921067,0.0,0.0,0.0,-1.0
543870954,543870881,-0.0017646105,0.0027581695,0.008613092,0.42789024,0.0,0.0,0.0,-1.0
543922963,543922889,0.0023426032,-0.0010759973,0.013009207,0.40676212,0.0,0.0,0.0,-1.0
543974964,543974887,0.0037935036,-0.0010281139,0.00795761,0.40139925,0.0,0.0,0.0,-1.0
544026946,544026868,0.0041703284,0.003726266,0.010180278,0.40347624,0.0,0.0,0.0,-1.0
544078945,544078868,0.0005817378,-0.0020395434,0.009287822,0.42859703,0.0,0.0,0.0,-1.0
544134193,544134068,0.00052624755,-0.0026637502,0.011400036,0.45147577,0.0,0.0,0.0,-1.0
544186161,544186074,0.0038903037,0.0024953212,0.010445331,0.44017833,0.0,0.0,0.0,-1.0
544238217,544238074,0.0038570291,0.0023119855,0.009021168,0.4148788,0.0,0.0,0.0,-1.0
544290148,544290068,0.0016410275,-0.00087901903,0.009204066,0.39697236,0.0,0.0,0.0,-1.0
544342158,544342080,-0.005264895,-0.0039221826,0.012430449,0.40536335,0.0,0.0,0.0,-1.0
544394154,544394067,-0.0055092075,0.00095344713,0.008553432,0.41055122,0.0,0.0,0.0,-1.0
544449345,544449268,-0.0028219374,0.0042629307,0.00755957,0.40701658,0.0,0.0,0.0,-1.0
544501375,544501274,-0.0078083724,0.0035077333,0.006068098,0.38776663,0.0,0.0,0.0,-1.0
544553355,544553279,-0.00811775,0.0016129202,0.009107749,0.38273728,0.0,0.0,0.0,-1.0
544605353,544605275,-0.008596749,0.004101484,0.0057580485,0.4126735,0.0,0.0,0.0,-1.0
544657392,544657310,-0.0077926507,0.0077668843,0.006542434,0.44045892,0.0,0.0,0.0,-1.0
544709374,544709271,-0.008701977,0.0022858398,0.0025682205,0.43483818,0.0,0.0,0.0,-1.0
544764568,544764489,-0.009906271,0.0047381576,0.0037399947,0.4123302,0.0,0.0,0.0,-1.0
544816562,544816474,-0.006157174,0.0037232686,0.0048156865,0.38290513,0.0,0.0,0.0,-1.0
544868538,544868468,-0.009691583,0.008957835,0.0020075268,0.3880152,0.0,0.0,0.0,-1.0
544920556,544920475,-0.00821199,0.0070908396,0.0016764435,0.42864865,0.0,0.0,0.0,-1.0
544972581,544972502,-0.008567025,0.0063542686,0.004393582,0.40866044,0.0,0.0,0.0,-1.0
545024714,545024468,-0.009645416,0.007259338,0.0020972812,0.38802975,0.0,0.0,0.0,-1.0
545076542,545076468,-0.010671366,-0.004806528,0.004170734,0.40334162,0.0,0.0,0.0,-1.0
545127774,545127697,-0.008029982,-0.02193484,0.002054604,0.41754267,0.0,0.0,0.0,-1.0
545183745,545183668,-0.010169495,-0.02237266,0.0030178982,0.44924814,0.0,0.0,0.0,-1.0
545235773,545235699,-0.0061881063,-0.028371418,0.0031929025,0.42342505,0.0,0.0,0.0,-1.0
545287745,545287668,-0.011419596,-0.023849407,0.0031825807,0.398709,0.0,0.0,0.0,-1.0
545339752,545339668,-0.012261964,-0.0202913,0.002550508,0.3913106,0.0,0.0,0.0,-1.0
545391746,545391668,-0.009328676,-0.015604014,-0.0013856301,0.39939559,0.0,0.0,0.0,-1.0
545443758,545443676,-0.009704148,-0.011968352,0.0023065226,0.41136086,0.0,0.0,0.0,-1.0
545495751,545495673,-0.013436473,-0.0071532917,0.0033543375,0.4328138,0.0,0.0,0.0,-1.0
545547046,545546884,-0.010216188,-0.001974051,0.00020725792,0.43664426,0.0,0.0,0.0,-1.0
545599023,545598904,-0.009859955,-0.0029188476,-0.0005241174,0.42187583,0.0,0.0,0.0,-1.0
545650946,545650868,-0.014032386,0.023187375,0.0002779654,0.4013003,0.0,0.0,0.0,-1.0
545702957,545702878,-0.019289602,0.03083682,0.0016294951,0.39287007,0.0,0.0,0.0,-1.0
545754942,545754868,-0.011698001,0.026068566,0.0006518732,0.39265454,0.0,0.0,0.0,-1.0
545807133,545806877,-0.010532204,0.04145632,-0.0015662196,0.4020007,0.0,0.0,0.0,-1.0
545858145,545858068,-0.008679531,0.061849844,0.0029700804,0.39120176,0.0,0.0,0.0,-1.0
545910147,545910068,-0.008366871,0.05295592,0.0022625062,0.3913473,0.0,0.0,0.0,-1.0
545962225,545962102,-0.01375239,0.055008154,0.00020101352,0.39199033,0.0,0.0,0.0,-1.0
546014161,546014074,-0.0085878875,0.056757137,0.0030148316,0.363502,0.0,0.0,0.0,-1.0
546066192,546066074,-0.010619429,0.051695354,0.0018078637,0.34381983,0.0,0.0,0.0,-1.0
546122149,546122068,-0.010391711,0.029940749,-0.0022261245,0.33284682,0.0,0.0,0.0,-1.0
546174158,546174068,-0.017446995,-0.02516291,0.0066433153,0.37079936,0.0,0.0,0.0,-1.0
546224594,546224508,-0.011379757,-0.02687617,0.0038463187,0.38687044,0.0,0.0,0.0,-1.0
546277416,546277312,-0.003257925,-0.0085784355,0.0066415095,0.3989724,0.0,0.0,0.0,-1.0
546329359,546329282,-0.0054896534,-0.022959322,0.004080119,0.41244933,0.0,0.0,0.0,-1.0
546381353,546381272,-0.0040410687,-0.02098476,0.008081188,0.45198825,0.0,0.0,0.0,-1.0
546437341,546437268,-4.0076822e-05,-0.0121527435,0.00655142,0.4422173,0.0,0.0,0.0,-1.0
546489385,546489271,0.0020826717,-0.016122583,0.003723554,0.4334873,0.0,0.0,0.0,-1.0
546541352,546541273,-8.722887e-05,-0.0076511437,0.004473679,0.417227,0.0,0.0,0.0,-1.0
546593424,546593323,-0.003245941,0.007817016,0.0017900674,0.39030004,0.0,0.0,0.0,-1.0
546644555,546644481,0.0024420084,0.009270419,0.0006310553,0.3875222,0.0,0.0,0.0,-1.0
546696549,546696468,-0.002700419,0.0007646729,-0.00048572134,0.38870794,0.0,0.0,0.0,-1.0
546748590,546748468,-0.0030524784,0.005353319,0.0007773553,0.3926091,0.0,0.0,0.0,-1.0
546800553,546800468,-0.0048746928,-0.0061712055,0.00022092462,0.39707297,0.0,0.0,0.0,-1.0
546852555,546852468,-0.0050346097,-0.01598623,-0.0004165084,0.39146292,0.0,0.0,0.0,-1.0
546903788,546903681,0.0030067298,-0.009276253,0.00048116274,0.4012273,0.0,0.0,0.0,-1.0
546955753,546955668,-0.005256764,-0.0027648874,0.00094031997,0.41478726,0.0,0.0,0.0,-1.0
547007766,547007668,-0.009643029,-0.006248421,-0.00035103376,0.4186368,0.0,0.0,0.0,-1.0
547063793,547063716,-0.009647393,-0.006597326,-8.754106e-05,0.42769197,0.0,0.0,0.0,-1.0
547115746,547115668,-0.003905283,-0.008724569,0.00400351,0.4422918,0.0,0.0,0.0,-1.0
547167769,547167681,-0.005812771,-0.016578503,0.0038964243,0.45524168,0.0,0.0,0.0,-1.0
547219769,547219668,-0.0031085245,-0.0183988,0.0050060805,0.44017085,0.0,0.0,0.0,-1.0
547271748,547271668,-0.0035902434,-0.0053344085,0.0027896438,0.42019227,0.0,0.0,0.0,-1.0
547322942,547322868,-0.0038185585,-0.0021655753,0.002007508,0.3767707,0.0,0.0,0.0,-1.0
547378945,547378868,-0.0024469367,-0.011435242,0.004155823,0.36610237,0.0,0.0,0.0,-1.0
547430942,547430868,-0.005698931,-0.012385257,0.0037512456,0.3735192,0.0,0.0,0.0,-1.0
547482951,547482871,-0.009208727,-0.009313863,0.0026106793,0.36947155,0.0,0.0,0.0,-1.0
547534948,547534868,-0.006224712,-0.011360284,0.0036202047,0.3680133,0.0,0.0,0.0,-1.0
547587070,547586872,-0.009931147,-0.0100911865,0.0061021363,0.369843,0.0,0.0,0.0,-1.0
547638176,547638098,-0.0069008796,-0.01707541,0.0062456382,0.38424397,0.0,0.0,0.0,-1.0
547690157,547690074,-0.00950945,-0.01769221,0.008719942,0.3878566,0.0,0.0,0.0,-1.0
547742150,547742073,-0.0047403923,-0.0016176716,0.010290564,0.39114124,0.0,0.0,0.0,-1.0
547794145,547794068,-0.0032959757,-0.000115446586,0.010485435,0.38347983,0.0,0.0,0.0,-1.0
547846158,547846076,-0.00026458502,-0.013323097,0.014416106,0.39089763,0.0,0.0,0.0,-1.0
547898155,547898068,-0.00016644913,-0.0095064,0.016602969,0.4032376,0.0,0.0,0.0,-1.0
547950149,547950068,0.0028592856,0.00132525,0.01727677,0.39404345,0.0,0.0,0.0,-1.0
548001394,548001272,0.004778786,-0.0028207425,0.01812793,0.3999154,0.0,0.0,0.0,-1.0
548053341,548053268,-0.0030434649,-0.009889889,0.01865861,0.41602656,0.0,0.0,0.0,-1.0
548105358,548105276,0.003669714,0.0033634214,0.01990528,0.41538164,0.0,0.0,0.0,-1.0
548157375,548157279,0.008103078,0.010585445,0.017889543,0.40488085,0.0,0.0,0.0,-1.0
548209386,548209278,0.0042798426,-0.0044393116,0.01760221,0.4287804,0.0,0.0,0.0,-1.0
548261348,548261271,-0.00072523445,-0.009307674,0.017974615,0.43730572,0.0,0.0,0.0,-1.0
548313341,548313268,-0.0024675557,0.00883326,0.017186606,0.41041678,0.0,0.0,0.0,-1.0
548364628,548364514,-0.0016165167,0.004881888,0.016346712,0.39716154,0.0,0.0,0.0,-1.0
548416545,548416468,-0.0006888509,-0.004703223,0.013562806,0.4005149,0.0,0.0,0.0,-1.0
548468587,548468468,0.0057425676,-0.0027439545,0.012975018,0.399249,0.0,0.0,0.0,-1.0
548520542,548520468,0.0006583739,-0.0057268017,0.012133105,0.41699383,0.0,0.0,0.0,-1.0
548572621,548572468,-0.0033769496,-0.0063677807,0.011367867,0.40600488,0.0,0.0,0.0,-1.0
548624561,548624474,0.000712943,-0.0044037905,0.008455247,0.3788768,0.0,0.0,0.0,-1.0
548676550,548676476,-0.0034293393,-0.007844656,0.007073099,0.37922624,0.0,0.0,0.0,-1.0
548727098,548726917,-0.011847734,-0.011847345,0.006649051,0.39350176,0.0,0.0,0.0,-1.0
548779745,548779668,-0.010474294,-0.021025429,0.0052472674,0.42572218,0.0,0.0,0.0,-1.0
548831767,548831683,-0.0045121126,-0.018974904,0.0051094894,0.4354482,0.0,0.0,0.0,-1.0
548883745,548883668,-0.00580123,0.017133063,0.0028179083,0.42732915,0.0,0.0,0.0,-1.0
548935775,548935668,-0.0058531743,0.00644817,0.0024129865,0.39766464,0.0,0.0,0.0,-1.0
548987745,548987668,-0.0034878238,-0.012440381,0.00087427604,0.38650742,0.0,0.0,0.0,-1.0
549039788,549039674,-0.0030043428,-0.017824275,0.0025668764,0.3942769,0.0,0.0,0.0,-1.0
549090993,549090908,-0.0060794605,-4.2526786e-05,0.0015052079,0.3744111,0.0,0.0,0.0,-1.0
549142952,549142874,1.3612533e-05,0.0061812643,0.0007378723,0.33865333,0.0,0.0,0.0,-1.0
549198945,549198871,0.0014460131,0.014415761,-0.0013834568,0.31473374,0.0,0.0,0.0,-1.0
549250968,549250877,-0.0020009023,0.006862657,0.00087275944,0.3047319,0.0,0.0,0.0,-1.0
549302982,549302909,0.0001338381,0.012504878,-0.00026996247,0.29441237,0.0,0.0,0.0,-1.0
549354970,549354892,-0.0040703807,0.0066381874,0.0010568432,0.29244378,0.0,0.0,0.0,-1.0
549406163,549406074,0.0013135731,0.018536242,-0.0002718942,0.34992766,0.0,0.0,0.0,-1.0
549458149,549458068,-0.004117026,0.017539661,0.00093356275,0.3814035,0.0,0.0,0.0,-1.0
549510195,549510068,-0.0014449671,0.016306456,0.00060032745,0.41663128,0.0,0.0,0.0,-1.0
549562166,549562088,0.00058605906,0.013638738,-0.0008878748,0.43019074,0.0,0.0,0.0,-1.0
549614170,549614068,-0.0003165351,0.013368963,0.0012316147,0.4356902,0.0,0.0,0.0,-1.0
549666148,549666067,-0.0070743775,0.0043144403,0.0006603404,0.42783925,0.0,0.0,0.0,-1.0
549718164,549718080,-0.0040480304,0.008857524,0.0016044746,0.42429772,0.0,0.0,0.0,-1.0
549769462,549769291,0.0004952411,0.007862494,-0.0005418196,0.41701242,0.0,0.0,0.0,-1.0
549821349,549821272,-0.0031118449,0.00053036783,2.9656803e-06,0.43395576,0.0,0.0,0.0,-1.0
549873346,549873275,-0.0042596264,-0.0056592836,0.0027957384,0.4556834,0.0,0.0,0.0,-1.0
549925387,549925271,-0.0031066122,-0.0033801626,0.0022221634,0.47795442,0.0,0.0,0.0,-1.0
549977371,549977292,-0.0041526784,0.0033875592,0.003302381,0.49256966,0.0,0.0,0.0,-1.0
550029407,550029274,-0.0065707513,-0.0007248686,0.0030716963,0.4973968,0.0,0.0,0.0,-1.0
550081413,550081299,-0.003155817,-0.010249787,0.0010609849,0.50678045,0.0,0.0,0.0,-1.0
550136552,550136474,-0.003829163,-0.011106084,0.00088612275,0.5085965,0.0,0.0,0.0,-1.0
550188583,550188509,-0.004668287,-0.009085837,-0.00033314322,0.51049477,0.0,0.0,0.0,-1.0
550240542,550240468,0.0033568614,-0.006311047,-0.001075164,0.51767015,0.0,0.0,0.0,-1.0
550292558,550292481,0.0026988164,-0.011019203,-0.0013688509,0.5209334,0.0,0.0,0.0,-1.0
550344542,550344468,0.0048087514,-0.006771526,-0.0014323823,0.5184733,0.0,0.0,0.0,-1.0
550396575,550396501,0.01185659,-0.00836268,-0.00069593434,0.52334386,0.0,0.0,0.0,-1.0
550448545,550448468,0.0072277836,-0.016587894,0.0007216398,0.5233753,0.0,0.0,0.0,-1.0
550500542,550500468,0.007401192,-0.01637376,0.001839086,0.5215582,0.0,0.0,0.0,-1.0
550551876,550551691,0.007286974,-0.014881885,0.003622598,0.522268,0.0,0.0,0.0,-1.0
550603750,550603668,0.00034962167,-0.015508841,0.004284897,0.5180451,0.0,0.0,0.0,-1.0
550655791,550655676,-0.00013502514,-0.022872707,0.00489281,0.49802095,0.0,0.0,0.0,-1.0
550707762,550707668,-0.00402727,-0.022508219,0.004886994,0.47027937,0.0,0.0,0.0,-1.0
550759780,550759680,-0.008065275,-0.010363129,0.004083665,0.45279545,0.0,0.0,0.0,-1.0
550811745,550811668,-0.0042766654,-0.005938576,0.0030969589,0.44738105,0.0,0.0,0.0,-1.0
550863754,550863677,-0.0011685343,-0.009125439,0.0028029263,0.4444277,0.0,0.0,0.0,-1.0
550914950,550914867,-0.003895889,-0.0075048422,-1.2287346e-06,0.4449987,0.0,0.0,0.0,-1.0
550966963,550966881,-0.0057140067,0.0012105672,0.00086074136,0.43894252,0.0,0.0,0.0,-1.0
551019030,551018910,-0.010846484,0.0022496113,0.0037221021,0.43720627,0.0,0.0,0.0,-1.0
551070950,551070874,-0.015568608,0.0039005543,0.0035778233,0.44205296,0.0,0.0,0.0,-1.0
551123029,551122874,-0.015763408,0.004246488,0.0033622282,0.44580844,0.0,0.0,0.0,-1.0
551174956,551174868,-0.013328254,-0.00036458063,0.0016322524,0.4439173,0.0,0.0,0.0,-1.0
551226145,551226068,-0.011141721,0.0002384702,0.0013443287,0.44760963,0.0,0.0,0.0,-1.0
551278153,551278076,-0.010645325,0.0015905809,0.0033278146,0.44992244,0.0,0.0,0.0,-1.0
551330149,551330068,-0.0072414456,-0.0061259735,0.0048044818,0.4496122,0.0,0.0,0.0,-1.0
551382151,551382068,-0.008316194,-0.007231136,0.0059618144,0.44918197,0.0,0.0,0.0,-1.0
551434152,551434068,-0.00831161,-0.00933883,0.0059966,0.4538424,0.0,0.0,0.0,-1.0
551486175,551486068,-0.010094167,-0.008871465,0.005631643,0.45118907,0.0,0.0,0.0,-1.0
551538157,551538074,-0.0081057055,-0.007345395,0.00579089,0.4504896,0.0,0.0,0.0,-1.0
551589357,551589282,-0.0077545415,-0.027791623,0.0057450496,0.45166123,0.0,0.0,0.0,-1.0
551641386,551641274,-0.0057383464,-0.038381606,0.0060719643,0.4515391,0.0,0.0,0.0,-1.0
551693374,551693268,-0.010844186,-0.036566947,0.0046755513,0.45281097,0.0,0.0,0.0,-1.0
551745372,551745295,-0.0077283666,-0.038226824,0.0033599709,0.45784268,0.0,0.0,0.0,-1.0
551797351,551797274,-0.002197786,-0.035794623,0.005319757,0.4632878,0.0,0.0,0.0,-1.0
551849372,551849270,-0.009611605,-0.034575403,0.002515222,0.4616059,0.0,0.0,0.0,-1.0
551901355,551901277,-0.005054686,-0.030931016,0.0034439103,0.46748483,0.0,0.0,0.0,-1.0
551952555,551952477,-0.006934234,-0.023721216,0.001051678,0.4679605,0.0,0.0,0.0,-1.0
552004586,552004468,-0.003146509,-0.021009848,0.0030554712,0.47078016,0.0,0.0,0.0,-1.0
552056548,552056474,-0.00033610323,-0.0143558,0.0046894965,0.46993604,0.0,0.0,0.0,-1.0
552108574,552108500,-0.0066271573,-0.018771952,0.0021469442,0.4739695,0.0,0.0,0.0,-1.0
552160546,552160469,-0.005492621,-0.020777334,-0.0011168451,0.48072693,0.0,0.0,0.0,-1.0
552212587,552212468,-0.002466543,-0.014253096,-0.0013655268,0.48026428,0.0,0.0,0.0,-1.0
552263746,552263668,-0.0034831935,-0.013747911,-0.0032018495,0.48310006,0.0,0.0,0.0,-1.0
552315795,552315668,-0.013093223,-0.014707494,-0.004335572,0.4884529,0.0,0.0,0.0,-1.0
552367775,552367668,-0.02309311,-0.0062322444,-0.0056592575,0.47303778,0.0,0.0,0.0,-1.0
552419778,552419668,-0.0144771105,0.0015630008,-0.003560702,0.4745432,0.0,0.0,0.0,-1.0
552475776,552475668,-0.01288207,-0.0035346297,-0.0030819897,0.48201764,0.0,0.0,0.0,-1.0
552527749,552527668,-0.015431844,-0.0056741163,-0.0033304375,0.48956025,0.0,0.0,0.0,-1.0
552583765,552583679,-0.018241033,-0.0032971974,-0.002992156,0.49149543,0.0,0.0,0.0,-1.0
552635752,552635669,-0.017326027,-0.0022099663,-0.002818267,0.49289247,0.0,0.0,0.0,-1.0
552686952,552686874,-0.0146207865,-0.0038144835,-0.0031831134,0.5022128,0.0,0.0,0.0,-1.0
552739013,552738903,-0.021807507,-0.006136714,-0.003729578,0.5054138,0.0,0.0,0.0,-1.0
552794939,552794868,-0.024895681,-0.009053575,-0.003422161,0.51040894,0.0,0.0,0.0,-1.0
552846945,552846868,-0.02251251,-0.0046472144,-0.0037416124,0.50528306,0.0,0.0,0.0,-1.0
552898998,552898874,-0.026061587,0.0111763505,-0.004416796,0.49424046,0.0,0.0,0.0,-1.0
552950942,552950868,-0.022097608,0.011142342,-0.0034969936,0.4884102,0.0,0.0,0.0,-1.0
553002155,553002074,-0.012074916,0.013373315,-0.0043471307,0.4913845,0.0,0.0,0.0,-1.0
553054178,553054068,-0.014352164,0.002074073,-0.0032875608,0.50182986,0.0,0.0,0.0,-1.0
553106159,553106068,-0.011692811,-0.0020698763,-0.0031941556,0.51012343,0.0,0.0,0.0,-1.0
553158145,553158068,-0.008708039,-0.0031824561,-0.0023656234,0.5118786,0.0,0.0,0.0,-1.0
553210148,553210068,-0.007455599,-0.012427254,-0.0018896281,0.5202518,0.0,0.0,0.0,-1.0
553266163,553266078,4.8177742e-05,-0.010473038,0.0021652547,0.5149877,0.0,0.0,0.0,-1.0
553318152,553318068,0.0062753563,-0.0055847825,0.0029931061,0.51035994,0.0,0.0,0.0,-1.0
553369345,553369268,0.0044095637,-0.010431497,0.004837019,0.5070554,0.0,0.0,0.0,-1.0
553421361,553421278,0.011868703,-0.022711825,0.007401704,0.507501,0.0,0.0,0.0,-1.0
553477339,553477268,0.005429764,-0.022393694,0.009338105,0.503291,0.0,0.0,0.0,-1.0
553525426,553525271,-0.00394696,-0.0077675073,0.013038227,0.4943154,0.0,0.0,0.0,-1.0
553577345,553577268,-0.016416032,-0.035905905,0.014507553,0.4872008,0.0,0.0,0.0,-1.0
553633396,553633297,-0.016564457,-0.053255953,0.014845097,0.47931558,0.0,0.0,0.0,-1.0
553688545,553688468,-0.0118363,-0.036414295,0.012486268,0.4715996,0.0,0.0,0.0,-1.0
553740569,553740468,0.008192178,-0.026962012,0.011342943,0.4660694,0.0,0.0,0.0,-1.0
553792552,553792474,-0.008003989,-0.041515697,0.013487413,0.46287388,0.0,0.0,0.0,-1.0
553844584,553844474,-0.005534373,-0.022039486,0.010384847,0.4639786,0.0,0.0,0.0,-1.0
553896545,553896468,-0.0036148725,-0.026860721,0.014609719,0.46071556,0.0,0.0,0.0,-1.0
553948619,553948468,-0.008576637,-0.062530875,0.011559856,0.45066813,0.0,0.0,0.0,-1.0
554004542,554004468,-0.009007956,-0.06544705,0.010544365,0.43890744,0.0,0.0,0.0,-1.0
554055763,554055678,-0.0067722932,-0.05194175,0.0075854287,0.4400272,0.0,0.0,0.0,-1.0
554107748,554107674,-0.0020446926,-0.058989048,0.0102463085,0.43552527,0.0,0.0,0.0,-1.0
554159750,554159674,-0.01128626,-0.051978704,0.007324491,0.42803675,0.0,0.0,0.0,-1.0
554211782,554211674,-0.0031258238,-0.04421439,0.009958654,0.43375656,0.0,0.0,0.0,-1.0
554263749,554263668,-0.0070232027,-0.03345506,0.0010231127,0.4293397,0.0,0.0,0.0,-1.0
554315791,554315668,-0.016748093,-0.026613679,0.0048611183,0.40351242,0.0,0.0,0.0,-1.0
554366970,554366887,-0.013741287,-0.0009187391,0.004218649,0.37620074,0.0,0.0,0.0,-1.0
554418978,554418873,-0.018686699,-0.0025115372,0.005117126,0.36701944,0.0,0.0,0.0,-1.0
554474980,554474907,-0.012424254,-0.028981613,0.0073424485,0.34980738,0.0,0.0,0.0,-1.0
554526951,554526868,-0.0051724752,-0.0532076,0.008278276,0.3356435,0.0,0.0,0.0,-1.0
554578947,554578870,-0.0081003085,-0.021737665,0.009368406,0.33163056,0.0,0.0,0.0,-1.0
554630942,554630868,-0.008921391,-0.036034737,0.011465739,0.3235741,0.0,0.0,0.0,-1.0
554682979,554682868,-0.009726568,-0.057429638,0.00836068,0.31631362,0.0,0.0,0.0,-1.0
554734981,554734868,-0.010331645,-0.07672815,0.012636592,0.3164123,0.0,0.0,0.0,-1.0
554786152,554786068,-0.009179434,-0.06777987,0.009826061,0.31714642,0.0,0.0,0.0,-1.0
554838188,554838113,-0.0062298216,-0.03649209,0.0021625585,0.31709382,0.0,0.0,0.0,-1.0
554890155,554890074,-0.0010322339,-0.0451739,0.0048427954,0.31672245,0.0,0.0,0.0,-1.0
554942145,554942068,-0.0049892827,-0.023489377,0.007552817,0.32276145,0.0,0.0,0.0,-1.0
554994147,554994068,-0.01132294,0.0029490183,0.0066505224,0.32768103,0.0,0.0,0.0,-1.0
555046175,555046068,-0.0092723165,-0.013224519,0.008939556,0.323972,0.0,0.0,0.0,-1.0
555097388,555097307,0.0007120316,-0.03797689,0.0073098955,0.33415258,0.0,0.0,0.0,-1.0
555149349,555149273,-0.0031326246,-0.031487666,0.010931231,0.32763276,0.0,0.0,0.0,-1.0
555201395,555201318,0.0006849871,-0.051959917,0.009224175,0.32878268,0.0,0.0,0.0,-1.0
555257349,555257272,0.0017733092,-0.05735528,0.0123915905,0.32568985,0.0,0.0,0.0,-1.0
555309429,555309312,-0.0020966781,-0.042268224,0.01112454,0.31743735,0.0,0.0,0.0,-1.0
555361356,555361277,0.0049018203,-0.03336484,0.009866913,0.31781507,0.0,0.0,0.0,-1.0
555413357,555413276,0.00063620944,-0.041833185,0.012714934,0.3138352,0.0,0.0,0.0,-1.0
555465384,555465304,0.0005665152,-0.047170974,0.01216252,0.3055382,0.0,0.0,0.0,-1.0
555516627,555516467,0.0032175682,-0.049463995,0.01047506,0.30914518,0.0,0.0,0.0,-1.0
555568545,555568468,0.0070445496,-0.038258974,0.015016868,0.30550474,0.0,0.0,0.0,-1.0
555624568,555624468,-0.001011228,-0.023048999,0.0073016332,0.2970229,0.0,0.0,0.0,-1.0
555676558,555676468,0.005211371,-0.036716975,0.008645557,0.2968474,0.0,0.0,0.0,-1.0
