timestamp,windspeed_north,windspeed_east,variance_north,variance_east,tas_innov,tas_innov_var,tas_scale,beta_innov,beta_innov_var
527183668,0.35213366,-0.20116508,0.8605565,0.8689824,1.0976956e-19,4.0208055e-34,4.0207366e-34,4.6684372e-34,1.0979489e-19
527191674,0.35799795,-0.20740463,0.85760754,0.8659749,1.0976956e-19,4.0208055e-34,4.0207366e-34,4.6684372e-34,1.0979489e-19
527391668,0.5577065,-0.13966332,0.82094103,0.84519494,1.0976956e-19,4.0208055e-34,4.0207366e-34,4.6684372e-34,1.0979489e-19
527594873,0.5105884,-0.29984272,0.7955418,0.81969523,1.0976956e-19,4.0208055e-34,4.0207366e-34,4.6684372e-34,1.0979489e-19
527802868,0.80290407,-0.05883373,0.7433493,0.78673434,1.0976956e-19,4.0208055e-34,4.0207366e-34,4.6684372e-34,1.0979489e-19
528002069,0.7134329,-0.33031607,0.7176737,0.75679606,1.0976956e-19,4.0208055e-34,4.0207366e-34,4.6684372e-34,1.0979489e-19
528210094,0.34975547,-0.6541113,0.676743,0.7294616,1.0976956e-19,4.0208055e-34,4.0207366e-34,4.6684372e-34,1.0979489e-19
528409311,0.46074054,-0.49750313,0.65000755,0.7073664,1.0976956e-19,4.0208055e-34,4.0207366e-34,4.6684372e-34,1.0979489e-19
528608473,0.8854966,-0.23112729,0.6127137,0.6834983,1.0976956e-19,4.0208055e-34,4.0207366e-34,4.6684372e-34,1.0979489e-19
528808487,0.8271648,-0.40980044,0.5968065,0.66459125,1.0976956e-19,4.0208055e-34,4.0207366e-34,4.6684372e-34,1.0979489e-19
529015668,0.8636333,-0.45494315,0.5845853,0.6526821,1.0976956e-19,4.0208055e-34,4.0207366e-34,4.6684372e-34,1.0979489e-19
529215668,0.8826049,-0.5373919,0.57599074,0.63954026,1.0976956e-19,4.0208055e-34,4.0207366e-34,4.6684372e-34,1.0979489e-19
529422868,0.7134933,-0.71483296,0.5556012,0.6227864,1.0976956e-19,4.0208055e-34,4.0207366e-34,4.6684372e-34,1.0979489e-19
529622882,0.72816634,-0.8754251,0.5413471,0.60468763,1.0976956e-19,4.0208055e-34,4.0207366e-34,4.6684372e-34,1.0979489e-19
529822068,1.022025,-0.722791,0.5193531,0.5888936,1.0976956e-19,4.0208055e-34,4.0207366e-34,4.6684372e-34,1.0979489e-19
530022068,1.0689257,-0.7725364,0.5070006,0.57286125,1.0976956e-19,4.0208055e-34,4.0207366e-34,4.6684372e-34,1.0979489e-19
530225269,1.1491199,-0.83141184,0.49702087,0.55826306,1.0976956e-19,4.0208055e-34,4.0207366e-34,4.6684372e-34,1.0979489e-19
530424475,1.1679984,-0.8375712,0.49080768,0.55106676,1.0976956e-19,4.0208055e-34,4.0207366e-34,4.6684372e-34,1.0979489e-19
530624467,1.1286986,-0.91117305,0.48110536,0.5395119,1.0976956e-19,4.0208055e-34,4.0207366e-34,4.6684372e-34,1.0979489e-19
530831668,1.1411173,-0.98031074,0.4706784,0.5284216,1.0976956e-19,4.0208055e-34,4.0207366e-34,4.6684372e-34,1.0979489e-19
531031669,1.116884,-1.1523556,0.4617033,0.5154969,1.0976956e-19,4.0208055e-34,4.0207366e-34,4.6684372e-34,1.0979489e-19
531234868,1.1278248,-1.2079192,0.45511842,0.5042263,1.0976956e-19,4.0208055e-34,4.0207366e-34,4.6684372e-34,1.0979489e-19
531434875,1.2073876,-1.3435317,0.44754866,0.49177307,1.0976956e-19,4.0208055e-34,4.0207366e-34,4.6684372e-34,1.0979489e-19
531642097,1.2069722,-1.2863698,0.4391312,0.47943226,1.0976956e-19,4.0208055e-34,4.0207366e-34,4.6684372e-34,1.0979489e-19
531841276,1.2563622,-1.2652116,0.43298662,0.47328177,1.0976956e-19,4.0208055e-34,4.0207366e-34,4.6684372e-34,1.0979489e-19
532049274,1.2977417,-1.2456081,0.42751086,0.46829465,1.0976956e-19,4.0208055e-34,4.0207366e-34,4.6684372e-34,1.0979489e-19
532248468,1.4215307,-1.209583,0.41726503,0.45976362,1.0976956e-19,4.0208055e-34,4.0207366e-34,4.6684372e-34,1.0979489e-19
532448468,1.4694229,-1.2905147,0.41058385,0.44866708,1.0976956e-19,4.0208055e-34,4.0207366e-34,4.6684372e-34,1.0979489e-19
532655668,1.4798772,-1.1844985,0.40522066,0.44066396,1.0976956e-19,4.0208055e-34,4.0207366e-34,4.6684372e-34,1.0979489e-19
532855674,1.5869278,-1.2207353,0.39906693,0.4333772,1.0976956e-19,4.0208055e-34,4.0207366e-34,4.6684372e-34,1.0979489e-19
533058874,1.6406289,-1.2630564,0.3923191,0.4267266,1.0976956e-19,4.0208055e-34,4.0207366e-34,4.6684372e-34,1.0979489e-19
533266868,1.7448803,-1.1654435,0.38137367,0.4162247,1.0976956e-19,4.0208055e-34,4.0207366e-34,4.6684372e-34,1.0979489e-19
533466075,1.8175697,-1.2390227,0.37585205,0.40721294,1.0976956e-19,4.0208055e-34,4.0207366e-34,4.6684372e-34,1.0979489e-19
533666068,1.8549061,-1.3345389,0.3712342,0.39952925,1.0976956e-19,4.0208055e-34,4.0207366e-34,4.6684372e-34,1.0979489e-19
533873270,1.9644722,-1.2225671,0.3628593,0.3917254,1.0976956e-19,4.0208055e-34,4.0207366e-34,4.6684372e-34,1.0979489e-19
534072468,2.1009808,-1.1752762,0.35551253,0.38694283,1.0976956e-19,4.0208055e-34,4.0207366e-34,4.6684372e-34,1.0979489e-19
534280468,2.111158,-1.2104542,0.35165063,0.38235626,1.0976956e-19,4.0208055e-34,4.0207366e-34,4.6684372e-34,1.0979489e-19
534479668,2.1261694,-1.2069231,0.34865576,0.37940627,1.0976956e-19,4.0208055e-34,4.0207366e-34,4.6684372e-34,1.0979489e-19
534679668,2.1495907,-1.2044029,0.34602687,0.37654302,1.0976956e-19,4.0208055e-34,4.0207366e-34,4.6684372e-34,1.0979489e-19
534886903,2.2087874,-1.1754589,0.34171927,0.3730944,1.0976956e-19,4.0208055e-34,4.0207366e-34,4.6684372e-34,1.0979489e-19
535086868,2.2405303,-1.1790701,0.33866173,0.37012988,1.0976956e-19,4.0208055e-34,4.0207366e-34,4.6684372e-34,1.0979489e-19
535290112,2.330555,-1.0880347,0.33262688,0.3649884,1.0976956e-19,4.0208055e-34,4.0207366e-34,4.6684372e-34,1.0979489e-19
535490068,2.3651793,-1.0817652,0.32961866,0.36224625,1.0976956e-19,4.0208055e-34,4.0207366e-34,4.6684372e-34,1.0979489e-19
535689283,2.4022837,-1.0758985,0.32613444,0.35929736,1.0976956e-19,4.0208055e-34,4.0207366e-34,4.6684372e-34,1.0979489e-19
535896501,2.4643207,-1.069123,0.32204795,0.3557059,1.0976956e-19,4.0208055e-34,4.0207366e-34,4.6684372e-34,1.0979489e-19
536096521,2.5323424,-1.0728143,0.31725898,0.35168123,1.0976956e-19,4.0208055e-34,4.0207366e-34,4.6684372e-34,1.0979489e-19
536303668,2.56813,-1.0696182,0.3140863,0.34813565,1.0976956e-19,4.0208055e-34,4.0207366e-34,4.6684372e-34,1.0979489e-19
536503668,2.632338,-1.080024,0.31047994,0.3444322,1.0976956e-19,4.0208055e-34,4.0207366e-34,4.6684372e-34,1.0979489e-19
536710869,2.6829653,-1.0022817,0.3060549,0.33978453,1.0976956e-19,4.0208055e-34,4.0207366e-34,4.6684372e-34,1.0979489e-19
536910918,2.727338,-0.97957367,0.3028545,0.33632547,1.0976956e-19,4.0208055e-34,4.0207366e-34,4.6684372e-34,1.0979489e-19
537110074,2.764885,-0.9396532,0.2996187,0.33310094,1.0976956e-19,4.0208055e-34,4.0207366e-34,4.6684372e-34,1.0979489e-19
537313287,2.8147027,-0.9371547,0.29654935,0.3297361,1.0976956e-19,4.0208055e-34,4.0207366e-34,4.6684372e-34,1.0979489e-19
537521276,2.8660436,-0.8805983,0.2935232,0.32592496,1.0976956e-19,4.0208055e-34,4.0207366e-34,4.6684372e-34,1.0979489e-19
537720468,2.8523152,-0.92404556,0.2904346,0.3214155,1.0976956e-19,4.0208055e-34,4.0207366e-34,4.6684372e-34,1.0979489e-19
537928468,2.910494,-0.87047964,0.2867684,0.31615576,1.0976956e-19,4.0208055e-34,4.0207366e-34,4.6684372e-34,1.0979489e-19
538127668,2.9301622,-0.8474889,0.2839669,0.3128126,1.0976956e-19,4.0208055e-34,4.0207366e-34,4.6684372e-34,1.0979489e-19
538327686,2.9734898,-0.8392778,0.28118077,0.3089277,1.0976956e-19,4.0208055e-34,4.0207366e-34,4.6684372e-34,1.0979489e-19
538530874,3.0150127,-0.8894292,0.2763029,0.30295974,1.0976956e-19,4.0208055e-34,4.0207366e-34,4.6684372e-34,1.0979489e-19
538741317,3.0385463,-0.91942847,0.27385932,0.30046874,1.0976956e-19,4.0208055e-34,4.0207366e-34,4.6684372e-34,1.0979489e-19
538942068,3.0413828,-0.92233163,0.2723161,0.2984766,1.0976956e-19,4.0208055e-34,4.0207366e-34,4.6684372e-34,1.0979489e-19
539141272,2.9984856,-0.9021614,0.2696041,0.295095,1.0976956e-19,4.0208055e-34,4.0207366e-34,4.6684372e-34,1.0979489e-19
539341268,3.016921,-0.98972946,0.26646516,0.29144606,1.0976956e-19,4.0208055e-34,4.0207366e-34,4.6684372e-34,1.0979489e-19
539548468,3.065332,-1.0197685,0.2636605,0.28845897,1.0976956e-19,4.0208055e-34,4.0207366e-34,4.6684372e-34,1.0979489e-19
539748474,3.0727856,-0.8835021,0.2599263,0.28353116,1.0976956e-19,4.0208055e-34,4.0207366e-34,4.6684372e-34,1.0979489e-19
539947668,3.1004536,-0.8867203,0.2578397,0.2813889,1.0976956e-19,4.0208055e-34,4.0207366e-34,4.6684372e-34,1.0979489e-19
540154890,3.124982,-0.87719494,0.25426868,0.2771247,1.0976956e-19,4.0208055e-34,4.0207366e-34,4.6684372e-34,1.0979489e-19
540354868,3.144336,-0.9395132,0.25085452,0.27286348,1.0976956e-19,4.0208055e-34,4.0207366e-34,4.6684372e-34,1.0979489e-19
540554868,3.2397974,-1.0306811,0.2467486,0.2686727,1.0976956e-19,4.0208055e-34,4.0207366e-34,4.6684372e-34,1.0979489e-19
540762068,3.2728739,-1.035945,0.24429606,0.2660077,1.0976956e-19,4.0208055e-34,4.0207366e-34,4.6684372e-34,1.0979489e-19
540961286,3.3302643,-0.88885415,0.24141267,0.26133847,1.0976956e-19,4.0208055e-34,4.0207366e-34,4.6684372e-34,1.0979489e-19
541169270,3.322051,-0.85130066,0.23885648,0.2578353,1.0976956e-19,4.0208055e-34,4.0207366e-34,4.6684372e-34,1.0979489e-19
541368476,3.3451273,-0.853045,0.23648064,0.2541396,1.0976956e-19,4.0208055e-34,4.0207366e-34,4.6684372e-34,1.0979489e-19
541567725,3.379184,-0.8042118,0.23476432,0.25173295,1.0976956e-19,4.0208055e-34,4.0207366e-34,4.6684372e-34,1.0979489e-19
541775668,3.4493744,-0.8205215,0.23170465,0.24796171,1.0976956e-19,4.0208055e-34,4.0207366e-34,4.6684372e-34,1.0979489e-19
541974868,3.4750485,-0.9846408,0.22794168,0.24362311,1.0976956e-19,4.0208055e-34,4.0207366e-34,4.6684372e-34,1.0979489e-19
542174881,3.5064645,-0.99335086,0.2256903,0.24147505,1.0976956e-19,4.0208055e-34,4.0207366e-34,4.6684372e-34,1.0979489e-19
542378068,3.5098293,-0.9478326,0.22413132,0.23947878,1.0976956e-19,4.0208055e-34,4.0207366e-34,4.6684372e-34,1.0979489e-19
542586068,3.5190773,-0.9531229,0.22226459,0.2368877,1.0976956e-19,4.0208055e-34,4.0207366e-34,4.6684372e-34,1.0979489e-19
542785279,3.5436819,-1.0470966,0.21959145,0.2338698,1.0976956e-19,4.0208055e-34,4.0207366e-34,4.6684372e-34,1.0979489e-19
542993274,3.633657,-1.16134,0.21592845,0.23062634,1.0976956e-19,4.0208055e-34,4.0207366e-34,4.6684372e-34,1.0979489e-19
543192468,3.6868632,-1.1348346,0.2133658,0.2278606,1.0976956e-19,4.0208055e-34,4.0207366e-34,4.6684372e-34,1.0979489e-19
543392468,3.684159,-1.1583762,0.21182467,0.22604372,1.0976956e-19,4.0208055e-34,4.0207366e-34,4.6684372e-34,1.0979489e-19
543599691,3.7338552,-1.144051,0.20971636,0.22365573,1.0976956e-19,4.0208055e-34,4.0207366e-34,4.6684372e-34,1.0979489e-19
543798868,3.7506511,-1.0978559,0.20801426,0.2214938,1.0976956e-19,4.0208055e-34,4.0207366e-34,4.6684372e-34,1.0979489e-19
544006868,3.7611353,-1.0541377,0.20639889,0.21938306,-2.4e-44,4.0208055e-34,4.0207366e-34,4.6684372e-34,1.0979489e-19
544210068,3.792779,-1.033403,0.20503446,0.21769328,1.0976956e-19,4.0208055e-34,4.0207366e-34,4.6684372e-34,1.0979489e-19
544409322,3.7899652,-1.058942,0.20344235,0.21581203,1.0976956e-19,4.0208055e-34,4.0207366e-34,4.6684372e-34,1.0979489e-19
544617272,3.8090427,-1.0668297,0.20222586,0.21464542,1.0976956e-19,4.0208055e-34,4.0207366e-34,4.6684372e-34,1.0979489e-19
544816474,3.8347905,-1.047232,0.20074287,0.21294053,1.0976956e-19,4.0208055e-34,4.0207366e-34,4.6684372e-34,1.0979489e-19
545016468,3.8492045,-1.0643637,0.19936122,0.21143277,1.0976956e-19,4.0208055e-34,4.0207366e-34,4.6684372e-34,1.0979489e-19
545223668,3.8813608,-1.0812345,0.19736403,0.20953701,1.0976956e-19,4.0208055e-34,4.0207366e-34,4.6684372e-34,1.0979489e-19
545423708,3.8987331,-1.0627047,0.19593789,0.20750201,1.0976956e-19,4.0208055e-34,4.0207366e-34,4.6684372e-34,1.0979489e-19
545622868,3.9247901,-1.0502846,0.19461843,0.20580834,1.0976956e-19,4.0208055e-34,4.0207366e-34,4.6684372e-34,1.0979489e-19
545830885,3.9259045,-1.0147914,0.1932709,0.20431225,1.0976956e-19,4.0208055e-34,4.0207366e-34,4.6684372e-34,1.0979489e-19
546034074,3.9450705,-0.99170125,0.19205317,0.20294774,1.0976956e-19,4.0208055e-34,4.0207366e-34,4.6684372e-34,1.0979489e-19
546233272,3.9629362,-1.0148519,0.19074926,0.20173118,1.0976956e-19,4.0208055e-34,4.0207366e-34,4.6684372e-34,1.0979489e-19
546441313,3.9718692,-1.0122383,0.18948695,0.20030542,1.0976956e-19,4.0208055e-34,4.0207366e-34,4.6684372e-34,1.0979489e-19
546640468,3.989634,-1.0152531,0.18832076,0.1989617,1.0976956e-19,4.0208055e-34,4.0207366e-34,4.6684372e-34,1.0979489e-19
546840468,3.9908993,-1.0291454,0.18698864,0.19750796,1.0976956e-19,4.0208055e-34,4.0207366e-34,4.6684372e-34,1.0979489e-19
547047668,3.9875808,-1.0281583,0.18544139,0.19551395,1.0976956e-19,4.0208055e-34,4.0207366e-34,4.6684372e-34,1.0979489e-19
547247673,3.997486,-1.065365,0.18407874,0.19383377,1.0976956e-19,4.0208055e-34,4.0207366e-34,4.6684372e-34,1.0979489e-19
547454868,4.0025854,-1.0681077,0.1832147,0.19280833,1.0976956e-19,4.0208055e-34,4.0207366e-34,4.6684372e-34,1.0979489e-19
547658109,4.0115843,-1.0453191,0.181744,0.19101386,1.0976956e-19,4.0208055e-34,4.0207366e-34,4.6684372e-34,1.0979489e-19
547858068,3.9918747,-0.9458256,0.179768,0.18884149,1.0976956e-19,4.0208055e-34,4.0207366e-34,4.6684372e-34,1.0979489e-19
548057268,4.008246,-1.005608,0.17825139,0.1871936,1.0976956e-19,4.0208055e-34,4.0207366e-34,4.6684372e-34,1.0979489e-19
548257289,4.012066,-0.96345055,0.17717268,0.18591264,1.0976956e-19,4.0208055e-34,4.0207366e-34,4.6684372e-34,1.0979489e-19
548464477,4.037308,-0.96656466,0.17539807,0.18405448,1.0976956e-19,4.0208055e-34,4.0207366e-34,4.6684372e-34,1.0979489e-19
548672468,4.059677,-0.98754835,0.17390515,0.18278779,1.0976956e-19,4.0208055e-34,4.0207366e-34,4.6684372e-34,1.0979489e-19
548871668,4.0779805,-0.93812835,0.1727187,0.18118706,1.0976956e-19,4.0208055e-34,4.0207366e-34,4.6684372e-34,1.0979489e-19
549078868,4.087257,-0.9152732,0.17152658,0.17981064,1.0976956e-19,4.0208055e-34,4.0207366e-34,4.6684372e-34,1.0979489e-19
549278868,4.086476,-0.8888474,0.17075028,0.17891257,1.0976956e-19,4.0208055e-34,4.0207366e-34,4.6684372e-34,1.0979489e-19
549478074,4.111242,-0.96544826,0.16911288,0.17725252,1.0976956e-19,4.0208055e-34,4.0207366e-34,4.6684372e-34,1.0979489e-19
549678068,4.1176734,-0.9336944,0.16840133,0.17632307,1.0976956e-19,4.0208055e-34,4.0207366e-34,4.6684372e-34,1.0979489e-19
549885319,4.124217,-0.9040189,0.16763215,0.17536421,1.0976956e-19,4.0208055e-34,4.0207366e-34,4.6684372e-34,1.0979489e-19
550085283,4.131758,-0.90135884,0.16656356,0.17430185,1.0976956e-19,4.0208055e-34,4.0207366e-34,4.6684372e-34,1.0979489e-19
550288472,4.1314263,-0.9055484,0.166031,0.1736753,1.0976956e-19,4.0208055e-34,4.0207366e-34,4.6684372e-34,1.0979489e-19
550488473,4.1392846,-0.909144,0.1654343,0.17307973,1.0976956e-19,4.0208055e-34,4.0207366e-34,4.6684372e-34,1.0979489e-19
550695683,4.142367,-0.9112474,0.16496637,0.17256035,1.0976956e-19,4.0208055e-34,4.0207366e-34,4.6684372e-34,1.0979489e-19
550894898,4.1503634,-0.91621226,0.16444197,0.17200956,1.0976956e-19,4.0208055e-34,4.0207366e-34,4.6684372e-34,1.0979489e-19
551102874,4.155779,-0.9206153,0.1637816,0.1713161,1.0976956e-19,4.0208055e-34,4.0207366e-34,4.6684372e-34,1.0979489e-19
551302068,4.1586995,-0.9198137,0.16331683,0.1708405,1.0976956e-19,4.0208055e-34,4.0207366e-34,4.6684372e-34,1.0979489e-19
551502081,4.1653485,-0.916675,0.16258638,0.17000207,1.0976956e-19,4.0208055e-34,4.0207366e-34,4.6684372e-34,1.0979489e-19
551709284,4.1725397,-0.9262796,0.16183172,0.16921884,1.0976956e-19,4.0208055e-34,4.0207366e-34,4.6684372e-34,1.0979489e-19
551909274,4.1754456,-0.9298223,0.16128896,0.16852504,1.0976956e-19,4.0208055e-34,4.0207366e-34,4.6684372e-34,1.0979489e-19
552112495,4.1732626,-0.92679054,0.16061974,0.1677856,-2.4e-44,4.0208055e-34,4.0207366e-34,4.6684372e-34,1.0979489e-19
552319668,4.183834,-0.93396044,0.15999117,0.16720104,1.0976956e-19,4.0208055e-34,4.0207366e-34,4.6684372e-34,1.0979489e-19
552519668,4.1906633,-0.9318238,0.159539,0.16674031,1.0976956e-19,4.0208055e-34,4.0207366e-34,4.6684372e-34,1.0979489e-19
552726875,4.190784,-0.9303028,0.15915164,0.16634376,1.0976956e-19,4.0208055e-34,4.0207366e-34,4.6684372e-34,1.0979489e-19
552926913,4.196723,-0.9295208,0.15874398,0.16593337,1.0976956e-19,4.0208055e-34,4.0207366e-34,4.6684372e-34,1.0979489e-19
553126068,4.191035,-0.9260459,0.15834548,0.16556174,1.0976956e-19,4.0208055e-34,4.0207366e-34,4.6684372e-34,1.0979489e-19
553334068,4.1857624,-0.9283579,0.15797433,0.16518258,1.0976956e-19,4.0208055e-34,4.0207366e-34,4.6684372e-34,1.0979489e-19
553537268,4.1841435,-0.93740064,0.15747528,0.16462927,1.0976956e-19,4.0208055e-34,4.0207366e-34,4.6684372e-34,1.0979489e-19
553736481,4.1731377,-0.95543844,0.15696122,0.1639167,1.0976956e-19,4.0208055e-34,4.0207366e-34,4.6684372e-34,1.0979489e-19
553936499,4.1612062,-0.9751935,0.15631543,0.16304144,1.0976956e-19,4.0208055e-34,4.0207366e-34,4.6684372e-34,1.0979489e-19
554143668,4.14533,-1.0285414,0.15524526,0.1615619,1.0976956e-19,4.0208055e-34,4.0207366e-34,4.6684372e-34,1.0979489e-19
554343668,4.132081,-1.0506476,0.15448792,0.1606367,1.0976956e-19,4.0208055e-34,4.0207366e-34,4.6684372e-34,1.0979489e-19
554550868,4.106275,-1.1385137,0.15298551,0.15865995,1.0976956e-19,4.0208055e-34,4.0207366e-34,4.6684372e-34,1.0979489e-19
554750896,4.1040654,-1.10017,0.15210688,0.15780045,1.0976956e-19,4.0208055e-34,4.0207366e-34,4.6684372e-34,1.0979489e-19
554954068,4.0792866,-1.0887105,0.15136188,0.15702869,1.0976956e-19,4.0208055e-34,4.0207366e-34,4.6684372e-34,1.0979489e-19
555153278,4.094834,-1.1490364,0.15018247,0.15569022,1.0976956e-19,4.0208055e-34,4.0207366e-34,4.6684372e-34,1.0979489e-19
555361277,4.1002474,-1.1715353,0.14924203,0.15465024,1.0976956e-19,4.0208055e-34,4.0207366e-34,4.6684372e-34,1.0979489e-19
555560474,4.102692,-1.1897703,0.14855756,0.15391834,1.0976956e-19,4.0208055e-34,4.0207366e-34,4.6684372e-34,1.0979489e-19
555768473,4.0984483,-1.2136406,0.14781652,0.15308374,1.0976956e-19,4.0208055e-34,4.0207366e-34,4.6684372e-34,1.0979489e-19
555967676,4.0922375,-1.2411637,0.14707354,0.15219575,1.0976956e-19,4.0208055e-34,4.0207366e-34,4.6684372e-34,1.0979489e-19
556167668,4.089555,-1.2552484,0.14645931,0.15149933,1.0976956e-19,4.0208055e-34,4.0207366e-34,4.6684372e-34,1.0979489e-19
556374868,4.0850763,-1.2741495,0.14593464,0.15082659,1.0976956e-19,4.0208055e-34,4.0207366e-34,4.6684372e-34,1.0979489e-19
556578068,4.083659,-1.2791202,0.14551304,0.15032403,1.0976956e-19,4.0208055e-34,4.0207366e-34,4.6684372e-34,1.0979489e-19
556778074,4.098829,-1.3062108,0.14464568,0.14918563,1.0976956e-19,4.0208055e-34,4.0207366e-34,4.6684372e-34,1.0979489e-19
556985277,4.061933,-1.2962753,0.14333656,0.1478413,1.0976956e-19,4.0208055e-34,4.0207366e-34,4.6684372e-34,1.0979489e-19
557185290,4.0565896,-1.312416,0.14290555,0.14729607,1.0976956e-19,4.0208055e-34,4.0207366e-34,4.6684372e-34,1.0979489e-19
557392468,4.033092,-1.3574717,0.14159432,0.14564225,1.0976956e-19,4.0208055e-34,4.0207366e-34,4.6684372e-34,1.0979489e-19
557591674,4.01113,-1.3618499,0.14051037,0.14434831,1.0976956e-19,4.0208055e-34,4.0207366e-34,4.6684372e-34,1.0979489e-19
557791668,3.9771836,-1.3525329,0.13969186,0.14341685,1.0976956e-19,4.0208055e-34,4.0207366e-34,4.6684372e-34,1.0979489e-19
557994888,3.9875422,-1.341658,0.13906185,0.14249079,1.0976956e-19,4.0208055e-34,4.0207366e-34,4.6684372e-34,1.0979489e-19
558194868,3.9880152,-1.3267367,0.13806571,0.14168024,1.0976956e-19,4.0208055e-34,4.0207366e-34,4.6684372e-34,1.0979489e-19
558402074,3.9808788,-1.3805625,0.13716878,0.14050874,1.0976956e-19,4.0208055e-34,4.0207366e-34,4.6684372e-34,1.0979489e-19
558602068,3.9922776,-1.4460909,0.13627002,0.1392795,1.0976956e-19,4.0208055e-34,4.0207366e-34,4.6684372e-34,1.0979489e-19
558809282,4.0100203,-1.4752359,0.135292,0.13807905,1.0976956e-19,4.0208055e-34,4.0207366e-34,4.6684372e-34,1.0979489e-19
559008476,3.988844,-1.503131,0.1342297,0.13702723,1.0976956e-19,4.0208055e-34,4.0207366e-34,4.6684372e-34,1.0979489e-19
559208468,3.9920468,-1.5311913,0.1335974,0.13624388,1.0976956e-19,4.0208055e-34,4.0207366e-34,4.6684372e-34,1.0979489e-19
559415673,4.0030756,-1.5900501,0.13260485,0.13508004,1.0976956e-19,4.0208055e-34,4.0207366e-34,4.6684372e-34,1.0979489e-19
559615710,4.0122585,-1.6021535,0.13168621,0.13416018,1.0976956e-19,4.0208055e-34,4.0207366e-34,4.6684372e-34,1.0979489e-19
559814882,4.039875,-1.6727242,0.13062334,0.13284673,1.0976956e-19,4.0208055e-34,4.0207366e-34,4.6684372e-34,1.0979489e-19
560022868,4.0555716,-1.6967672,0.12982306,0.13155636,1.0976956e-19,4.0208055e-34,4.0207366e-34,4.6684372e-34,1.0979489e-19
560226068,4.0402446,-1.7391349,0.1290901,0.13058504,1.0976956e-19,4.0208055e-34,4.0207366e-34,4.6684372e-34,1.0979489e-19
560426068,4.0255227,-1.7581689,0.1284179,0.12970589,1.0976956e-19,4.0208055e-34,4.0207366e-34,4.6684372e-34,1.0979489e-19
560633273,4.0488715,-1.8032758,0.12705818,0.12854171,1.0976956e-19,4.0208055e-34,4.0207366e-34,4.6684372e-34,1.0979489e-19
560832468,4.060263,-1.849036,0.12635328,0.12760831,1.0976956e-19,4.0208055e-34,4.0207366e-34,4.6684372e-34,1.0979489e-19
561032474,4.0412016,-1.8583856,0.12568879,0.12674846,1.0976956e-19,4.0208055e-34,4.0207366e-34,4.6684372e-34,1.0979489e-19
561239668,4.0277133,-1.828401,0.12502404,0.12579526,1.0976956e-19,4.0208055e-34,4.0207366e-34,4.6684372e-34,1.0979489e-19
561439671,4.041816,-1.8711216,0.123862125,0.12482044,1.0976956e-19,4.0208055e-34,4.0207366e-34,4.6684372e-34,1.0979489e-19
561646868,4.0585833,-1.9412194,0.12298685,0.1236304,1.0976956e-19,4.0208055e-34,4.0207366e-34,4.6684372e-34,1.0979489e-19
561846074,4.056781,-1.958272,0.12253998,0.12296618,1.0976956e-19,4.0208055e-34,4.0207366e-34,4.6684372e-34,1.0979489e-19
562054068,4.045999,-1.9923196,0.121879876,0.122126564,1.0976956e-19,4.0208055e-34,4.0207366e-34,4.6684372e-34,1.0979489e-19
562257272,4.075329,-2.0787084,0.12085144,0.12080284,1.0976956e-19,4.0208055e-34,4.0207366e-34,4.6684372e-34,1.0979489e-19
562457281,4.085452,-2.1033936,0.12006626,0.12012299,1.0976956e-19,4.0208055e-34,4.0207366e-34,4.6684372e-34,1.0979489e-19
562656468,4.089323,-2.1090455,0.11944227,0.119580545,1.0976956e-19,4.0208055e-34,4.0207366e-34,4.6684372e-34,1.0979489e-19
562856468,4.111449,-2.156744,0.11865438,0.118647374,1.0976956e-19,4.0208055e-34,4.0207366e-34,4.6684372e-34,1.0979489e-19
563063674,4.1038055,-2.1883628,0.11790748,0.117800035,1.0976956e-19,4.0208055e-34,4.0207366e-34,4.6684372e-34,1.0979489e-19
563262900,4.1422086,-2.2340784,0.11703865,0.1168407,1.0976956e-19,4.0208055e-34,4.0207366e-34,4.6684372e-34,1.0979489e-19
563462868,4.121069,-2.2730792,0.11626052,0.11567702,1.0976956e-19,4.0208055e-34,4.0207366e-34,4.6684372e-34,1.0979489e-19
563666068,4.129812,-2.3294659,0.11558554,0.114701435,1.0976956e-19,4.0208055e-34,4.0207366e-34,4.6684372e-34,1.0979489e-19
563874068,4.124194,-2.3634112,0.11451226,0.11361225,1.0976956e-19,4.0208055e-34,4.0207366e-34,4.6684372e-34,1.0979489e-19
564073267,4.124562,-2.4151561,0.11371623,0.112600945,1.0976956e-19,4.0208055e-34,4.0207366e-34,4.6684372e-34,1.0979489e-19
564280468,4.1385703,-2.4663887,0.11305802,0.11158433,1.0976956e-19,4.0208055e-34,4.0207366e-34,4.6684372e-34,1.0979489e-19
564480472,4.161688,-2.5194557,0.11210402,0.11066578,1.0976956e-19,4.0208055e-34,4.0207366e-34,4.6684372e-34,1.0979489e-19
564679674,4.1564493,-2.5466285,0.111567795,0.109889515,1.0976956e-19,4.0208055e-34,4.0207366e-34,4.6684372e-34,1.0979489e-19
564887668,4.152055,-2.5655246,0.11075998,0.10907299,1.0976956e-19,4.0208055e-34,4.0207366e-34,4.6684372e-34,1.0979489e-19
565090868,4.177554,-2.6102653,0.11011129,0.10829904,1.0976956e-19,4.0208055e-34,4.0207366e-34,4.6684372e-34,1.0979489e-19
565290868,4.175165,-2.679398,0.109547004,0.10728322,1.0976956e-19,4.0208055e-34,4.0207366e-34,4.6684372e-34,1.0979489e-19
565498068,4.2079077,-2.7275505,0.10873416,0.106544055,1.0976956e-19,4.0208055e-34,4.0207366e-34,4.6684372e-34,1.0979489e-19
565697274,4.20787,-2.7465177,0.10829415,0.105900116,1.0976956e-19,4.0208055e-34,4.0207366e-34,4.6684372e-34,1.0979489e-19
565897281,4.205481,-2.7604587,0.10774,0.105250224,1.0976956e-19,4.0208055e-34,4.0207366e-34,4.6684372e-34,1.0979489e-19
566104468,4.2229733,-2.796802,0.10715548,0.10455979,1.0976956e-19,4.0208055e-34,4.0207366e-34,4.6684372e-34,1.0979489e-19
566304503,4.2189345,-2.8239727,0.10638189,0.103765264,1.0976956e-19,4.0208055e-34,4.0207366e-34,4.6684372e-34,1.0979489e-19
566503668,4.253805,-2.8501532,0.105372496,0.10302745,1.0976956e-19,4.0208055e-34,4.0207366e-34,4.6684372e-34,1.0979489e-19
566711668,4.2361197,-2.88569,0.10489671,0.10228594,1.0976956e-19,4.0208055e-34,4.0207366e-34,4.6684372e-34,1.0979489e-19
566910906,4.277215,-2.9331145,0.10414971,0.10159329,1.0976956e-19,4.0208055e-34,4.0207366e-34,4.6684372e-34,1.0979489e-19
567114068,4.3051643,-2.9685154,0.10346234,0.100945204,1.0976956e-19,4.0208055e-34,4.0207366e-34,4.6684372e-34,1.0979489e-19
567314068,4.3061337,-3.0067174,0.10304889,0.10025455,1.0976956e-19,4.0208055e-34,4.0207366e-34,4.6684372e-34,1.0979489e-19
567521281,4.2881722,-3.017763,0.10247839,0.099676535,1.0976956e-19,4.0208055e-34,4.0207366e-34,4.6684372e-34,1.0979489e-19
567721271,4.2689066,-3.0298517,0.10201966,0.09911193,1.0976956e-19,4.0208055e-34,4.0207366e-34,4.6684372e-34,1.0979489e-19
567920482,4.2575655,-3.0464282,0.10160561,0.09853803,1.0976956e-19,4.0208055e-34,4.0207366e-34,4.6684372e-34,1.0979489e-19
568128491,4.2755795,-3.0879524,0.101009004,0.09783011,1.0976956e-19,4.0208055e-34,4.0207366e-34,4.6684372e-34,1.0979489e-19
568327668,4.2873316,-3.117319,0.100440465,0.097256534,1.0976956e-19,4.0208055e-34,4.0207366e-34,4.6684372e-34,1.0979489e-19
568534868,4.2923937,-3.175186,0.09969459,0.096412666,1.0976956e-19,4.0208055e-34,4.0207366e-34,4.6684372e-34,1.0979489e-19
568734877,4.277586,-3.1749618,0.0989386,0.09587405,1.0976956e-19,4.0208055e-34,4.0207366e-34,4.6684372e-34,1.0979489e-19
568942068,4.333755,-3.245677,0.09792165,0.09502321,1.0976956e-19,4.0208055e-34,4.0207366e-34,4.6684372e-34,1.0979489e-19
569141293,4.315078,-3.2296243,0.097514726,0.094721906,1.0976956e-19,4.0208055e-34,4.0207366e-34,4.6684372e-34,1.0979489e-19
569345271,4.333672,-3.2661695,0.096683145,0.094097055,1.0976956e-19,4.0208055e-34,4.0207366e-34,4.6684372e-34,1.0979489e-19
569544468,4.351537,-3.3250623,0.09608007,0.09337362,1.0976956e-19,4.0208055e-34,4.0207366e-34,4.6684372e-34,1.0979489e-19
569744468,4.3665814,-3.3661587,0.095597394,0.09282289,1.0976956e-19,4.0208055e-34,4.0207366e-34,4.6684372e-34,1.0979489e-19
569951668,4.372715,-3.3807693,0.09499398,0.09233075,1.0976956e-19,4.0208055e-34,4.0207366e-34,4.6684372e-34,1.0979489e-19
570151678,4.37955,-3.4193861,0.09454045,0.09171908,1.0976956e-19,4.0208055e-34,4.0207366e-34,4.6684372e-34,1.0979489e-19
570350868,4.398049,-3.477125,0.0939489,0.090968564,1.0976956e-19,4.0208055e-34,4.0207366e-34,4.6684372e-34,1.0979489e-19
570550868,4.4100184,-3.500834,0.09341808,0.09040362,1.0976956e-19,4.0208055e-34,4.0207366e-34,4.6684372e-34,1.0979489e-19
570754068,4.4006405,-3.5158608,0.09289419,0.08987895,1.0976956e-19,4.0208055e-34,4.0207366e-34,4.6684372e-34,1.0979489e-19
570961271,4.4094477,-3.5365572,0.09228926,0.089355856,1.0976956e-19,4.0208055e-34,4.0207366e-34,4.6684372e-34,1.0979489e-19
571161276,4.4078703,-3.5433226,0.09206737,0.088994645,1.0976956e-19,4.0208055e-34,4.0207366e-34,4.6684372e-34,1.0979489e-19
571360474,4.4070654,-3.542292,0.09187453,0.08873147,1.0976956e-19,4.0208055e-34,4.0207366e-34,4.6684372e-34,1.0979489e-19
571568476,4.389736,-3.5534174,0.09144593,0.08825044,1.0976956e-19,4.0208055e-34,4.0207366e-34,4.6684372e-34,1.0979489e-19
571767685,4.4119554,-3.5974836,0.090924576,0.08761537,-0.07700496,0.091007315,-0.111224785,0.1429915,0.030786961
571974868,4.416024,-3.6344638,0.09043818,0.08698504,1.0976956e-19,4.0208055e-34,4.0207366e-34,4.6684372e-34,1.0979489e-19
572174868,4.4314685,-3.6688797,0.089973025,0.08638408,1.0976956e-19,4.0208055e-34,4.0207366e-34,4.6684372e-34,1.0979489e-19
572374068,4.427021,-3.6934793,0.089646034,0.08585115,1.0976956e-19,4.0208055e-34,4.0207366e-34,4.6684372e-34,1.0979489e-19
572582068,4.426091,-3.7149146,0.089204445,0.08531949,1.0976956e-19,4.0208055e-34,4.0207366e-34,4.6684372e-34,1.0979489e-19
572785276,4.4566317,-3.7382057,0.08872053,0.08484211,1.0976956e-19,4.0208055e-34,4.0207366e-34,4.6684372e-34,1.0979489e-19
572985281,4.440812,-3.7402835,0.08821618,0.084424645,1.0976956e-19,4.0208055e-34,4.0207366e-34,4.6684372e-34,1.0979489e-19
573184470,4.4458165,-3.7825494,0.08772519,0.083716154,1.0976956e-19,4.0208055e-34,4.0207366e-34,4.6684372e-34,1.0979489e-19
573391674,4.451657,-3.8068354,0.08732157,0.08313355,1.0976956e-19,4.0208055e-34,4.0207366e-34,4.6684372e-34,1.0979489e-19
573591668,4.4443717,-3.8143475,0.08704322,0.08275712,1.0976956e-19,4.0208055e-34,4.0207366e-34,4.6684372e-34,1.0979489e-19
573794901,4.4560003,-3.8201766,0.086700685,0.08244849,1.0976956e-19,4.0208055e-34,4.0207366e-34,4.6684372e-34,1.0979489e-19
573994880,4.470715,-3.84138,0.08633814,0.08201169,1.0976956e-19,4.0208055e-34,4.0207366e-34,4.6684372e-34,1.0979489e-19
574202068,4.477357,-3.8783345,0.08598355,0.081471905,1.0976956e-19,4.0208055e-34,4.0207366e-34,4.6684372e-34,1.0979489e-19
574402068,4.4853354,-3.9119375,0.08562268,0.080937475,1.0976956e-19,4.0208055e-34,4.0207366e-34,4.6684372e-34,1.0979489e-19
574609310,4.513309,-3.9354084,0.08516604,0.08054024,1.0976956e-19,4.0208055e-34,4.0207366e-34,4.6684372e-34,1.0979489e-19
574809272,4.524117,-3.961493,0.08476275,0.08007308,1.0976956e-19,4.0208055e-34,4.0207366e-34,4.6684372e-34,1.0979489e-19
575008470,4.545489,-3.9873621,0.08434833,0.07964176,1.0976956e-19,4.0208055e-34,4.0207366e-34,4.6684372e-34,1.0979489e-19
575215694,4.546493,-4.001497,0.08405231,0.07926599,1.0976956e-19,4.0208055e-34,4.0207366e-34,4.6684372e-34,1.0979489e-19
575415671,4.5450206,-4.020907,0.08377945,0.07883585,1.0976956e-19,4.0208055e-34,4.0207366e-34,4.6684372e-34,1.0979489e-19
575614868,4.537497,-4.0282907,0.08354828,0.07844584,1.0976956e-19,4.0208055e-34,4.0207366e-34,4.6684372e-34,1.0979489e-19
575822868,4.5680947,-4.07162,0.08302123,0.077896394,1.0976956e-19,4.0208055e-34,4.0207366e-34,4.6684372e-34,1.0979489e-19
576026068,4.58125,-4.0954075,0.08248336,0.07733777,1.0976956e-19,4.0208055e-34,4.0207366e-34,4.6684372e-34,1.0979489e-19
576225282,4.5914097,-4.1169424,0.08223916,0.07702035,1.0976956e-19,4.0208055e-34,4.0207366e-34,4.6684372e-34,1.0979489e-19
576425268,4.596202,-4.154314,0.0818583,0.07647192,1.0976956e-19,4.0208055e-34,4.0207366e-34,4.6684372e-34,1.0979489e-19
576632474,4.6061225,-4.184778,0.08142168,0.07594745,1.0976956e-19,4.0208055e-34,4.0207366e-34,4.6684372e-34,1.0979489e-19
576832468,4.6199265,-4.212121,0.08108814,0.07553713,1.0976956e-19,4.0208055e-34,4.0207366e-34,4.6684372e-34,1.0979489e-19
577039668,4.620657,-4.2397137,0.08081911,0.07508139,1.0976956e-19,4.0208055e-34,4.0207366e-34,4.6684372e-34,1.0979489e-19
577238868,4.626029,-4.2616653,0.080509275,0.074672185,1.0976956e-19,4.0208055e-34,4.0207366e-34,4.6684372e-34,1.0979489e-19
577446868,4.63223,-4.276912,0.08003319,0.07430041,1.0976956e-19,4.0208055e-34,4.0207366e-34,4.6684372e-34,1.0979489e-19
577650068,4.6309123,-4.2986403,0.07957698,0.0738266,1.0976956e-19,4.0208055e-34,4.0207366e-34,4.6684372e-34,1.0979489e-19
577850068,4.619224,-4.344455,0.07927797,0.07328145,1.0976956e-19,4.0208055e-34,4.0207366e-34,4.6684372e-34,1.0979489e-19
578049276,4.6306047,-4.3638954,0.07897071,0.0728143,1.0976956e-19,4.0208055e-34,4.0207366e-34,4.6684372e-34,1.0979489e-19
578248468,4.6212964,-4.363963,0.07873923,0.07252134,1.0976956e-19,4.0208055e-34,4.0207366e-34,4.6684372e-34,1.0979489e-19
578456493,4.62056,-4.36536,0.078459635,0.07220661,1.0976956e-19,4.0208055e-34,4.0207366e-34,4.6684372e-34,1.0979489e-19
578655668,4.62416,-4.3793807,0.078233734,0.07181092,1.0976956e-19,4.0208055e-34,4.0207366e-34,4.6684372e-34,1.0979489e-19
578863668,4.6172056,-4.379521,0.078035034,0.0715234,1.0976956e-19,4.0208055e-34,4.0207366e-34,4.6684372e-34,1.0979489e-19
579066868,4.638385,-4.412315,0.077575,0.07100417,1.0976956e-19,4.0208055e-34,4.0207366e-34,4.6684372e-34,1.0979489e-19
579266087,4.640363,-4.4180837,0.07720529,0.070750244,1.0976956e-19,4.0208055e-34,4.0207366e-34,4.6684372e-34,1.0979489e-19
579474068,4.620008,-4.4038835,0.07689982,0.07044152,1.0976956e-19,4.0208055e-34,4.0207366e-34,4.6684372e-34,1.0979489e-19
579672516,4.6180797,-4.4064555,0.076694496,0.070136085,1.0976956e-19,4.0208055e-34,4.0207366e-34,4.6684372e-34,1.0979489e-19
579873271,4.615122,-4.4199257,0.07638233,0.06980212,1.0976956e-19,4.0208055e-34,4.0207366e-34,4.6684372e-34,1.0979489e-19
580080515,4.619736,-4.422047,0.0760636,0.06958041,1.0976956e-19,4.0208055e-34,4.0207366e-34,4.6684372e-34,1.0979489e-19
580280477,4.6069837,-4.426446,0.07580702,0.069303565,1.0976956e-19,4.0208055e-34,4.0207366e-34,4.6684372e-34,1.0979489e-19
580487668,4.6196527,-4.438462,0.075514175,0.069022335,1.0976956e-19,4.0208055e-34,4.0207366e-34,4.6684372e-34,1.0979489e-19
580686868,4.617957,-4.4417715,0.075320736,0.068800874,1.0976956e-19,4.0208055e-34,4.0207366e-34,4.6684372e-34,1.0979489e-19
580894868,4.6273785,-4.472531,0.07502622,0.06841193,1.0976956e-19,4.0208055e-34,4.0207366e-34,4.6684372e-34,1.0979489e-19
581094068,4.617252,-4.47987,0.07480526,0.06813891,1.0976956e-19,4.0208055e-34,4.0207366e-34,4.6684372e-34,1.0979489e-19
581294078,4.626121,-4.481734,0.07457042,0.067965314,1.0976956e-19,4.0208055e-34,4.0207366e-34,4.6684372e-34,1.0979489e-19
581501306,4.6179223,-4.5135026,0.07421891,0.06750989,1.0976956e-19,4.0208055e-34,4.0207366e-34,4.6684372e-34,1.0979489e-19
581701280,4.617278,-4.516178,0.07407585,0.0673527,1.0976956e-19,4.0208055e-34,4.0207366e-34,4.6684372e-34,1.0979489e-19
581908468,4.64702,-4.529436,0.07367176,0.06705289,1.0976956e-19,4.0208055e-34,4.0207366e-34,4.6684372e-34,1.0979489e-19
582111677,4.665129,-4.5501113,0.073357984,0.066765286,1.0976956e-19,4.0208055e-34,4.0207366e-34,4.6684372e-34,1.0979489e-19
582311668,4.681379,-4.559558,0.07308712,0.066439405,1.0976956e-19,4.0208055e-34,4.0207366e-34,4.6684372e-34,1.0979489e-19
582510908,4.680221,-4.5494423,0.07295452,0.06627418,1.0976956e-19,4.0208055e-34,4.0207366e-34,4.6684372e-34,1.0979489e-19
582710868,4.685599,-4.531469,0.07278833,0.06608826,1.0976956e-19,4.0208055e-34,4.0207366e-34,4.6684372e-34,1.0979489e-19
582918083,4.682383,-4.526513,0.07263169,0.06583568,1.0976956e-19,4.0208055e-34,4.0207366e-34,4.6684372e-34,1.0979489e-19
583121277,4.689689,-4.5204725,0.07232923,0.065561615,1.0976956e-19,4.0208055e-34,4.0207366e-34,4.6684372e-34,1.0979489e-19
583321278,4.6919723,-4.5224495,0.0720246,0.06525341,1.0976956e-19,4.0208055e-34,4.0207366e-34,4.6684372e-34,1.0979489e-19
583521270,4.704437,-4.52769,0.07171904,0.064902924,1.0976956e-19,4.0208055e-34,4.0207366e-34,4.6684372e-34,1.0979489e-19
583728468,4.7021246,-4.5317683,0.07153823,0.064625785,-0.112843685,0.14490378,0.042758953,0.00020697963,0.0
583927668,4.685897,-4.536436,0.07123896,0.06424614,1.0976956e-19,4.0208055e-34,4.0207366e-34,4.6684372e-34,1.0979489e-19
584130883,4.6795325,-4.535018,0.07099394,0.06392066,1.0976956e-19,4.0208055e-34,4.0207366e-34,4.6684372e-34,1.0979489e-19
584330874,4.683163,-4.528265,0.07070567,0.0635912,1.0976956e-19,4.0208055e-34,4.0207366e-34,4.6684372e-34,1.0979489e-19
584534074,4.6669044,-4.5414023,0.070515044,0.06320287,1.0976956e-19,4.0208055e-34,4.0207366e-34,4.6684372e-34,1.0979489e-19
584734068,4.65806,-4.5416164,0.07030767,0.06288376,0.042830814,8.967023e-07,0.0,11969.0,-2.4e-44
584941288,4.6596894,-4.537992,0.07009161,0.062604,1.0976956e-19,4.0208055e-34,4.0207366e-34,4.6684372e-34,1.0979489e-19
585141273,4.6534615,-4.540918,0.06976481,0.062242176,1.0976956e-19,4.0208055e-34,4.0207366e-34,4.6684372e-34,1.0979489e-19
585340468,4.65837,-4.5522566,0.069588825,0.061871458,1.0976956e-19,4.0208055e-34,4.0207366e-34,4.6684372e-34,1.0979489e-19
585540472,4.6613894,-4.551181,0.06927538,0.06151319,1.0976956e-19,4.0208055e-34,4.0207366e-34,4.6684372e-34,1.0979489e-19
585747713,4.6583943,-4.575969,0.069083035,0.06109351,1.0976956e-19,4.0208055e-34,4.0207366e-34,4.6684372e-34,1.0979489e-19
585946868,4.671489,-4.5994296,0.06881516,0.060599145,1.0976956e-19,4.0208055e-34,4.0207366e-34,4.6684372e-34,1.0979489e-19
586154868,4.677283,-4.597549,0.068577416,0.060279105,1.0976956e-19,4.0208055e-34,4.0207366e-34,4.6684372e-34,1.0979489e-19
586354068,4.67635,-4.613159,0.068372026,0.059869032,1.0976956e-19,4.0208055e-34,4.0207366e-34,4.6684372e-34,1.0979489e-19
586554103,4.6748195,-4.645536,0.06816823,0.059372704,1.0976956e-19,4.0208055e-34,4.0207366e-34,4.6684372e-34,1.0979489e-19
586761272,4.6839433,-4.6632886,0.067939505,0.05896691,1.0976956e-19,4.0208055e-34,4.0207366e-34,4.6684372e-34,1.0979489e-19
586961309,4.672741,-4.6632295,0.067678645,0.05863135,1.0976956e-19,4.0208055e-34,4.0207366e-34,4.6684372e-34,1.0979489e-19
587160468,4.676543,-4.674505,0.06744235,0.058250137,1.0976956e-19,4.0208055e-34,4.0207366e-34,4.6684372e-34,1.0979489e-19
587367697,4.7007236,-4.6816225,0.067173764,0.05794082,1.0976956e-19,4.0208055e-34,4.0207366e-34,4.6684372e-34,1.0979489e-19
587567668,4.6982718,-4.687161,0.06698413,0.05760058,1.0976956e-19,4.0208055e-34,4.0207366e-34,4.6684372e-34,1.0979489e-19
587774868,4.7030115,-4.6987543,0.06676777,0.05723951,1.0976956e-19,4.0208055e-34,4.0207366e-34,4.6684372e-34,1.0979489e-19
587974087,4.7055497,-4.703656,0.06653248,0.056899037,1.0976956e-19,4.0208055e-34,4.0207366e-34,4.6684372e-34,1.0979489e-19
588182097,4.6978855,-4.701533,0.06636146,0.056632813,1.0976956e-19,4.0208055e-34,4.0207366e-34,4.6684372e-34,1.0979489e-19
588381275,4.7002234,-4.7201467,0.06619745,0.056273583,1.0976956e-19,4.0208055e-34,4.0207366e-34,4.6684372e-34,1.0979489e-19
588581271,4.7050157,-4.7089753,0.066024035,0.05606715,1.0976956e-19,4.0208055e-34,4.0207366e-34,4.6684372e-34,1.0979489e-19
588788483,4.7150683,-4.7113976,0.06581754,0.05573417,1.0976956e-19,4.0208055e-34,4.0207366e-34,4.6684372e-34,1.0979489e-19
588988468,4.715057,-4.7152557,0.06564576,0.055409543,1.0976956e-19,4.0208055e-34,4.0207366e-34,4.6684372e-34,1.0979489e-19
589191666,4.7181478,-4.7248044,0.06543019,0.05512468,1.0976956e-19,4.0208055e-34,4.0207366e-34,4.6684372e-34,1.0979489e-19
589390868,4.7251673,-4.7329273,0.065222695,0.054855637,1.0976956e-19,4.0208055e-34,4.0207366e-34,4.6684372e-34,1.0979489e-19
589598868,4.7275987,-4.7342825,0.06503162,0.05458721,1.0976956e-19,4.0208055e-34,4.0207366e-34,4.6684372e-34,1.0979489e-19
589802068,4.7120132,-4.738262,0.06484485,0.05432256,1.0976956e-19,4.0208055e-34,4.0207366e-34,4.6684372e-34,1.0979489e-19
590002068,4.7069054,-4.7286,0.06459775,0.05412797,1.0976956e-19,4.0208055e-34,4.0207366e-34,4.6684372e-34,1.0979489e-19
590201317,4.716726,-4.7383533,0.064373046,0.05389335,1.0976956e-19,4.0208055e-34,4.0207366e-34,4.6684372e-34,1.0979489e-19
590408468,4.7248473,-4.735164,0.06415211,0.053685702,1.0976956e-19,4.0208055e-34,4.0207366e-34,4.6684372e-34,1.0979489e-19
590608468,4.727255,-4.746603,0.06398403,0.053393412,1.0976956e-19,4.0208055e-34,4.0207366e-34,4.6684372e-34,1.0979489e-19
590807668,4.731382,-4.7445607,0.06385962,0.053183384,1.0976956e-19,4.0208055e-34,4.0207366e-34,4.6684372e-34,1.0979489e-19
591015707,4.7253494,-4.746541,0.06377215,0.052968215,1.0976956e-19,4.0208055e-34,4.0207366e-34,4.6684372e-34,1.0979489e-19
591214868,4.7212048,-4.7504354,0.06361475,0.052746046,1.0976956e-19,4.0208055e-34,4.0207366e-34,4.6684372e-34,1.0979489e-19
591422868,4.711878,-4.738922,0.06343364,0.05258127,1.0976956e-19,4.0208055e-34,4.0207366e-34,4.6684372e-34,1.0979489e-19
591622074,4.703195,-4.743742,0.06321512,0.052337416,1.0976956e-19,4.0208055e-34,4.0207366e-34,4.6684372e-34,1.0979489e-19
591829271,4.692059,-4.7389874,0.06295004,0.0521135,1.0976956e-19,4.0208055e-34,4.0207366e-34,4.6684372e-34,1.0979489e-19
592029288,4.6854506,-4.7380986,0.06283715,0.051943872,1.0976956e-19,4.0208055e-34,4.0207366e-34,4.6684372e-34,1.0979489e-19
592232521,4.688309,-4.7443957,0.0626949,0.051744454,1.0976956e-19,4.0208055e-34,4.0207366e-34,4.6684372e-34,1.0979489e-19
592432468,4.697885,-4.7405276,0.062507465,0.051577184,1.0976956e-19,4.0208055e-34,4.0207366e-34,4.6684372e-34,1.0979489e-19
592639668,4.692682,-4.7503576,0.062353708,0.051302828,1.0976956e-19,4.0208055e-34,4.0207366e-34,4.6684372e-34,1.0979489e-19
592838892,4.701081,-4.7519937,0.062078886,0.05104544,1.0976956e-19,4.0208055e-34,4.0207366e-34,4.6684372e-34,1.0979489e-19
593046868,4.7128005,-4.758855,0.061829742,0.050795697,1.0976956e-19,4.0208055e-34,4.0207366e-34,4.6684372e-34,1.0979489e-19
593250095,4.7352276,-4.7728066,0.061578576,0.050524097,1.0976956e-19,4.0208055e-34,4.0207366e-34,4.6684372e-34,1.0979489e-19
593450074,4.7402806,-4.7691035,0.06138496,0.0503023,1.0976956e-19,4.0208055e-34,4.0207366e-34,4.6684372e-34,1.0979489e-19
593649274,4.7370906,-4.77046,0.061291806,0.050064206,1.0976956e-19,4.0208055e-34,4.0207366e-34,4.6684372e-34,1.0979489e-19
593856505,4.72691,-4.758087,0.061101634,0.049845155,1.0976956e-19,4.0208055e-34,4.0207366e-34,4.6684372e-34,1.0979489e-19
594056477,4.7364626,-4.7594414,0.06090726,0.04959494,1.0976956e-19,4.0208055e-34,4.0207366e-34,4.6684372e-34,1.0979489e-19
594255668,4.7340446,-4.7663083,0.060785066,0.049315505,1.0976956e-19,4.0208055e-34,4.0207366e-34,4.6684372e-34,1.0979489e-19
594463668,4.741119,-4.758633,0.060572635,0.049096078,1.0976956e-19,4.0208055e-34,4.0207366e-34,4.6684372e-34,1.0979489e-19
594662912,4.7410817,-4.751359,0.06039995,0.048853274,1.0976956e-19,4.0208055e-34,4.0207366e-34,4.6684372e-34,1.0979489e-19
594870068,4.741545,-4.7538843,0.060232237,0.04853908,1.0976956e-19,4.0208055e-34,4.0207366e-34,4.6684372e-34,1.0979489e-19
595070068,4.7336445,-4.755339,0.060135443,0.048209727,1.0976956e-19,4.0208055e-34,4.0207366e-34,4.6684372e-34,1.0979489e-19
595269275,4.727905,-4.746197,0.05993354,0.047967672,1.0976956e-19,4.0208055e-34,4.0207366e-34,4.6684372e-34,1.0979489e-19
595477297,4.7364297,-4.742923,0.059745997,0.04769314,1.0976956e-19,4.0208055e-34,4.0207366e-34,4.6684372e-34,1.0979489e-19
595676468,4.7250032,-4.7318563,0.059613146,0.047429066,1.0976956e-19,4.0208055e-34,4.0207366e-34,4.6684372e-34,1.0979489e-19
595883668,4.7294054,-4.715944,0.05950794,0.04723782,1.0976956e-19,4.0208055e-34,4.0207366e-34,4.6684372e-34,1.0979489e-19
596083668,4.7249527,-4.7008204,0.05942471,0.04698181,1.0976956e-19,4.0208055e-34,4.0207366e-34,4.6684372e-34,1.0979489e-19
596286869,4.730161,-4.698503,0.05934353,0.046738368,1.0976956e-19,4.0208055e-34,4.0207366e-34,4.6684372e-34,1.0979489e-19
596486891,4.738863,-4.6999464,0.059189603,0.04648021,1.0976956e-19,4.0208055e-34,4.0207366e-34,4.6684372e-34,1.0979489e-19
596694081,4.729682,-4.6951303,0.05908409,0.046300698,1.0976956e-19,4.0208055e-34,4.0207366e-34,4.6684372e-34,1.0979489e-19
596894068,4.734701,-4.6893115,0.058951963,0.046188608,1.0976956e-19,4.0208055e-34,4.0207366e-34,4.6684372e-34,1.0979489e-19
597097286,4.742366,-4.6849847,0.058824766,0.046097428,1.0976956e-19,4.0208055e-34,4.0207366e-34,4.6684372e-34,1.0979489e-19
597296468,4.765529,-4.686135,0.058620527,0.045971785,1.0976956e-19,4.0208055e-34,4.0207366e-34,4.6684372e-34,1.0979489e-19
597504468,4.7703357,-4.686147,0.058531217,0.04583109,1.0976956e-19,4.0208055e-34,4.0207366e-34,4.6684372e-34,1.0979489e-19
597703674,4.7797565,-4.680266,0.05836811,0.045706104,1.0976956e-19,4.0208055e-34,4.0207366e-34,4.6684372e-34,1.0979489e-19
597903678,4.797919,-4.68217,0.058171805,0.045575015,1.0976956e-19,4.0208055e-34,4.0207366e-34,4.6684372e-34,1.0979489e-19
598110874,4.8082585,-4.6917825,0.058044523,0.04540228,1.0976956e-19,4.0208055e-34,4.0207366e-34,4.6684372e-34,1.0979489e-19
598310072,4.8159966,-4.6881943,0.057937033,0.045283485,1.0976956e-19,4.0208055e-34,4.0207366e-34,4.6684372e-34,1.0979489e-19
598510068,4.817228,-4.6917963,0.05780021,0.045123596,1.0976956e-19,4.0208055e-34,4.0207366e-34,4.6684372e-34,1.0979489e-19
598717296,4.813713,-4.690422,0.057697326,0.044966646,1.0976956e-19,4.0208055e-34,4.0207366e-34,4.6684372e-34,1.0979489e-19
598917290,4.8212852,-4.688132,0.057512198,0.044852745,1.0976956e-19,4.0208055e-34,4.0207366e-34,4.6684372e-34,1.0979489e-19
599120468,4.827733,-4.6994934,0.05737924,0.04465893,1.0976956e-19,4.0208055e-34,4.0207366e-34,4.6684372e-34,1.0979489e-19
599323668,4.831472,-4.7052445,0.057300042,0.04449247,1.0976956e-19,4.0208055e-34,4.0207366e-34,4.6684372e-34,1.0979489e-19
599523668,4.837378,-4.709174,0.057206083,0.044349793,1.0976956e-19,4.0208055e-34,4.0207366e-34,4.6684372e-34,1.0979489e-19
599722868,4.8346267,-4.708182,0.057122026,0.044194154,1.0976956e-19,4.0208055e-34,4.0207366e-34,4.6684372e-34,1.0979489e-19
599930868,4.8333707,-4.709167,0.057024535,0.044025626,1.0976956e-19,4.0208055e-34,4.0207366e-34,4.6684372e-34,1.0979489e-19
600130074,4.8327966,-4.7105865,0.056931604,0.043864127,1.0976956e-19,4.0208055e-34,4.0207366e-34,4.6684372e-34,1.0979489e-19
600329280,4.8294787,-4.7040334,0.05679475,0.043712635,1.0976956e-19,4.0208055e-34,4.0207366e-34,4.6684372e-34,1.0979489e-19
600537319,4.8339114,-4.71439,0.056688346,0.043506,1.0976956e-19,4.0208055e-34,4.0207366e-34,4.6684372e-34,1.0979489e-19
600736467,4.840466,-4.7137685,0.056541093,0.043348514,1.0976956e-19,4.0208055e-34,4.0207366e-34,4.6684372e-34,1.0979489e-19
600936468,4.840935,-4.7147923,0.056430615,0.043188687,1.0976956e-19,4.0208055e-34,4.0207366e-34,4.6684372e-34,1.0979489e-19
601139668,4.837822,-4.7166953,0.056376874,0.043000188,1.0976956e-19,4.0208055e-34,4.0207366e-34,4.6684372e-34,1.0979489e-19
601347683,4.831515,-4.720915,0.05624998,0.042797253,1.0976956e-19,4.0208055e-34,4.0207366e-34,4.6684372e-34,1.0979489e-19
601546918,4.8300385,-4.7167206,0.056127854,0.042656578,1.0976956e-19,4.0208055e-34,4.0207366e-34,4.6684372e-34,1.0979489e-19
601754074,4.8227787,-4.7143326,0.055996265,0.042464368,1.0976956e-19,4.0208055e-34,4.0207366e-34,4.6684372e-34,1.0979489e-19
601954068,4.832633,-4.7164326,0.055888712,0.04229607,1.0976956e-19,4.0208055e-34,4.0207366e-34,4.6684372e-34,1.0979489e-19
602153272,4.8229084,-4.7201133,0.055724826,0.04212387,1.0976956e-19,4.0208055e-34,4.0207366e-34,4.6684372e-34,1.0979489e-19
602352513,4.8208013,-4.7174816,0.05564992,0.041988697,1.0976956e-19,4.0208055e-34,4.0207366e-34,4.6684372e-34,1.0979489e-19
602560468,4.8212266,-4.716488,0.055588644,0.041887224,1.0976956e-19,4.0208055e-34,4.0207366e-34,4.6684372e-34,1.0979489e-19
602759674,4.816182,-4.716061,0.05553244,0.04179154,1.0976956e-19,4.0208055e-34,4.0207366e-34,4.6684372e-34,1.0979489e-19
602959668,4.8098626,-4.7178125,0.055451203,0.041683625,1.0976956e-19,4.0208055e-34,4.0207366e-34,4.6684372e-34,1.0979489e-19
603166868,4.815594,-4.719697,0.05532369,0.04158417,1.0976956e-19,4.0208055e-34,4.0207366e-34,4.6684372e-34,1.0979489e-19
603366868,4.818408,-4.7136207,0.055192906,0.04146443,1.0976956e-19,4.0208055e-34,4.0207366e-34,4.6684372e-34,1.0979489e-19
603574068,4.81032,-4.716852,0.055121217,0.041358635,1.0976956e-19,4.0208055e-34,4.0207366e-34,4.6684372e-34,1.0979489e-19
603774112,4.815366,-4.720867,0.05496878,0.041248534,1.0976956e-19,4.0208055e-34,4.0207366e-34,4.6684372e-34,1.0979489e-19
603977276,4.8181567,-4.7282977,0.054834124,0.041143015,1.0976956e-19,4.0208055e-34,4.0207366e-34,4.6684372e-34,1.0979489e-19
604176468,4.826085,-4.7435975,0.054656986,0.041012507,1.0976956e-19,4.0208055e-34,4.0207366e-34,4.6684372e-34,1.0979489e-19
604376468,4.8198104,-4.7520556,0.054574523,0.040888593,1.0976956e-19,4.0208055e-34,4.0207366e-34,4.6684372e-34,1.0979489e-19
604583668,4.8183393,-4.757759,0.054403488,0.040789675,1.0976956e-19,4.0208055e-34,4.0207366e-34,4.6684372e-34,1.0979489e-19
604782874,4.8184805,-4.7615786,0.05427487,0.040638205,1.0976956e-19,4.0208055e-34,4.0207366e-34,4.6684372e-34,1.0979489e-19
604990868,4.8179584,-4.7662487,0.05421899,0.040489264,1.0976956e-19,4.0208055e-34,4.0207366e-34,4.6684372e-34,1.0979489e-19
605194092,4.8112874,-4.774279,0.054141983,0.04034638,1.0976956e-19,4.0208055e-34,4.0207366e-34,4.6684372e-34,1.0979489e-19
605394073,4.8056636,-4.7755303,0.054084204,0.040217794,1.0976956e-19,4.0208055e-34,4.0207366e-34,4.6684372e-34,1.0979489e-19
605593277,4.8094745,-4.780248,0.053987034,0.04008603,1.0976956e-19,4.0208055e-34,4.0207366e-34,4.6684372e-34,1.0979489e-19
605801270,4.8041487,-4.7781677,0.053892054,0.03995609,1.0976956e-19,4.0208055e-34,4.0207366e-34,4.6684372e-34,1.0979489e-19
606000468,4.804886,-4.790429,0.053812284,0.039784938,1.0976956e-19,4.0208055e-34,4.0207366e-34,4.6684372e-34,1.0979489e-19
606199676,4.8086567,-4.7921968,0.053739354,0.03963007,1.0976956e-19,4.0208055e-34,4.0207366e-34,4.6684372e-34,1.0979489e-19
606399668,4.810442,-4.7927256,0.05366892,0.039488964,1.0976956e-19,4.0208055e-34,4.0207366e-34,4.6684372e-34,1.0979489e-19
606606874,4.8131757,-4.7999463,0.0535887,0.039317682,1.0976956e-19,4.0208055e-34,4.0207366e-34,4.6684372e-34,1.0979489e-19
606806868,4.816723,-4.8142776,0.05346019,0.03913809,1.0976956e-19,4.0208055e-34,4.0207366e-34,4.6684372e-34,1.0979489e-19
607014068,4.8225803,-4.817582,0.053327125,0.03900052,1.0976956e-19,4.0208055e-34,4.0207366e-34,4.6684372e-34,1.0979489e-19
607213303,4.835441,-4.8247676,0.05320222,0.038853467,1.0976956e-19,4.0208055e-34,4.0207366e-34,4.6684372e-34,1.0979489e-19
607421267,4.8432097,-4.8348413,0.053095553,0.038670152,1.0976956e-19,4.0208055e-34,4.0207366e-34,4.6684372e-34,1.0979489e-19
607624468,4.8496637,-4.8397,0.053018175,0.038545642,1.0976956e-19,4.0208055e-34,4.0207366e-34,4.6684372e-34,1.0979489e-19
607824475,4.8570952,-4.8539963,0.05288352,0.038352773,1.0976956e-19,4.0208055e-34,4.0207366e-34,4.6684372e-34,1.0979489e-19
608023669,4.869203,-4.8573627,0.05272965,0.038219023,1.0976956e-19,4.0208055e-34,4.0207366e-34,4.6684372e-34,1.0979489e-19
608223668,4.8750668,-4.8666277,0.05264667,0.038062718,1.0976956e-19,4.0208055e-34,4.0207366e-34,4.6684372e-34,1.0979489e-19
608430901,4.880156,-4.8708763,0.052553136,0.03790509,1.0976956e-19,4.0208055e-34,4.0207366e-34,4.6684372e-34,1.0979489e-19
608630068,4.879649,-4.8723435,0.05250593,0.037814803,1.0976956e-19,4.0208055e-34,4.0207366e-34,4.6684372e-34,1.0979489e-19
608838068,4.882006,-4.8728075,0.052457124,0.037736654,1.0976956e-19,4.0208055e-34,4.0207366e-34,4.6684372e-34,1.0979489e-19
609041268,4.8833675,-4.8715386,0.0523665,0.037656404,1.0976956e-19,4.0208055e-34,4.0207366e-34,4.6684372e-34,1.0979489e-19
609241270,4.88803,-4.870494,0.052273437,0.037559446,1.0976956e-19,4.0208055e-34,4.0207366e-34,4.6684372e-34,1.0979489e-19
609448501,4.8988,-4.871203,0.05217151,0.037479065,1.0976956e-19,4.0208055e-34,4.0207366e-34,4.6684372e-34,1.0979489e-19
609647668,4.904433,-4.8733454,0.05209722,0.037404947,1.0976956e-19,4.0208055e-34,4.0207366e-34,4.6684372e-34,1.0979489e-19
609855674,4.9121275,-4.884749,0.05199397,0.037299454,1.0976956e-19,4.0208055e-34,4.0207366e-34,4.6684372e-34,1.0979489e-19
610054868,4.920734,-4.898663,0.05188725,0.03719161,1.0976956e-19,4.0208055e-34,4.0207366e-34,4.6684372e-34,1.0979489e-19
610262868,4.920858,-4.907149,0.05183317,0.03710055,1.0976956e-19,4.0208055e-34,4.0207366e-34,4.6684372e-34,1.0979489e-19
610462068,4.923688,-4.918226,0.051761992,0.03700675,1.0976956e-19,4.0208055e-34,4.0207366e-34,4.6684372e-34,1.0979489e-19
610665272,4.931152,-4.9348288,0.051638614,0.03688599,1.0976956e-19,4.0208055e-34,4.0207366e-34,4.6684372e-34,1.0979489e-19
610865283,4.943145,-4.9491343,0.051506195,0.036793742,1.0976956e-19,4.0208055e-34,4.0207366e-34,4.6684372e-34,1.0979489e-19
611064479,4.952531,-4.948272,0.05139824,0.0367513,1.0976956e-19,4.0208055e-34,4.0207366e-34,4.6684372e-34,1.0979489e-19
611264483,4.958009,-4.9545946,0.05131964,0.036700446,1.0976956e-19,4.0208055e-34,4.0207366e-34,4.6684372e-34,1.0979489e-19
611471670,4.949986,-4.9618053,0.051240433,0.03660482,1.0976956e-19,4.0208055e-34,4.0207366e-34,4.6684372e-34,1.0979489e-19
611670868,4.969637,-4.974272,0.05107523,0.03651147,1.0976956e-19,4.0208055e-34,4.0207366e-34,4.6684372e-34,1.0979489e-19
611878868,4.980226,-4.975693,0.050972816,0.03646728,1.0976956e-19,4.0208055e-34,4.0207366e-34,4.6684372e-34,1.0979489e-19
612078074,4.9884186,-4.9864907,0.050868385,0.036368087,1.0976956e-19,4.0208055e-34,4.0207366e-34,4.6684372e-34,1.0979489e-19
612275668,4.9884763,-4.9924774,0.05082524,0.036286067,1.0976956e-19,4.0208055e-34,4.0207366e-34,4.6684372e-34,1.0979489e-19
612481268,4.9919214,-4.9907265,0.050755285,0.036252566,1.0976956e-19,4.0208055e-34,4.0207366e-34,4.6684372e-34,1.0979489e-19
612680468,5.0035,-5.0053854,0.050633464,0.036148027,1.0976956e-19,4.0208055e-34,4.0207366e-34,4.6684372e-34,1.0979489e-19
612888468,5.0069027,-5.0029864,0.05055688,0.03609845,1.0976956e-19,4.0208055e-34,4.0207366e-34,4.6684372e-34,1.0979489e-19
613087717,5.0134397,-5.011522,0.05046831,0.036013525,1.0976956e-19,4.0208055e-34,4.0207366e-34,4.6684372e-34,1.0979489e-19
613287668,5.0304465,-5.016775,0.050321303,0.03595588,1.0976956e-19,4.0208055e-34,4.0207366e-34,4.6684372e-34,1.0979489e-19
613494896,5.0400453,-5.0357437,0.050213628,0.035840288,1.0976956e-19,4.0208055e-34,4.0207366e-34,4.6684372e-34,1.0979489e-19
613698068,5.0446734,-5.0354214,0.050142042,0.035781283,1.0976956e-19,4.0208055e-34,4.0207366e-34,4.6684372e-34,1.0979489e-19
613898068,5.044283,-5.045155,0.050094556,0.035690732,1.0976956e-19,4.0208055e-34,4.0207366e-34,4.6684372e-34,1.0979489e-19
614105275,5.0437436,-5.042816,0.05000679,0.035635028,1.0976956e-19,4.0208055e-34,4.0207366e-34,4.6684372e-34,1.0979489e-19
614305276,5.0445695,-5.0561748,0.04993421,0.035548553,1.0976956e-19,4.0208055e-34,4.0207366e-34,4.6684372e-34,1.0979489e-19
614512468,5.051128,-5.0645666,0.049834315,0.035458036,1.0976956e-19,4.0208055e-34,4.0207366e-34,4.6684372e-34,1.0979489e-19
614711668,5.061773,-5.0625787,0.0497406,0.03542119,1.0976956e-19,4.0208055e-34,4.0207366e-34,4.6684372e-34,1.0979489e-19
614911718,5.0614777,-5.067532,0.04967577,0.03535696,1.0976956e-19,4.0208055e-34,4.0207366e-34,4.6684372e-34,1.0979489e-19
615118868,5.0845118,-5.065755,0.04950945,0.035316173,1.0976956e-19,4.0208055e-34,4.0207366e-34,4.6684372e-34,1.0979489e-19
615318868,5.086377,-5.0626903,0.049437698,0.03528049,1.0976956e-19,4.0208055e-34,4.0207366e-34,4.6684372e-34,1.0979489e-19
615522074,5.09436,-5.066508,0.049315605,0.035240386,1.0976956e-19,4.0208055e-34,4.0207366e-34,4.6684372e-34,1.0979489e-19
615721271,5.0956364,-5.0762625,0.049260005,0.035162926,1.0976956e-19,4.0208055e-34,4.0207366e-34,4.6684372e-34,1.0979489e-19
615929273,5.1028695,-5.071253,0.049178086,0.035138216,1.0976956e-19,4.0208055e-34,4.0207366e-34,4.6684372e-34,1.0979489e-19
616128479,5.10779,-5.0859222,0.0490951,0.035053205,1.0976956e-19,4.0208055e-34,4.0207366e-34,4.6684372e-34,1.0979489e-19
616328468,5.120564,-5.092757,0.048983634,0.034986563,1.0976956e-19,4.0208055e-34,4.0207366e-34,4.6684372e-34,1.0979489e-19
616535668,5.133873,-5.1037126,0.048874956,0.034925044,1.0976956e-19,4.0208055e-34,4.0207366e-34,4.6684372e-34,1.0979489e-19
616734868,5.144416,-5.1058187,0.048767284,0.03489269,1.0976956e-19,4.0208055e-34,4.0207366e-34,4.6684372e-34,1.0979489e-19
616934918,5.1373057,-5.106687,0.04870992,0.0348589,1.0976956e-19,4.0208055e-34,4.0207366e-34,4.6684372e-34,1.0979489e-19
617138068,5.140507,-5.1241436,0.048640925,0.03475507,1.0976956e-19,4.0208055e-34,4.0207366e-34,4.6684372e-34,1.0979489e-19
617346070,5.1479073,-5.121821,0.048551135,0.03467248,1.0976956e-19,4.0208055e-34,4.0207366e-34,4.6684372e-34,1.0979489e-19
617545271,5.148807,-5.10826,0.048480444,0.03462885,1.0976956e-19,4.0208055e-34,4.0207366e-34,4.6684372e-34,1.0979489e-19
617752468,5.1576385,-5.1219835,0.048409384,0.03452804,1.0976956e-19,4.0208055e-34,4.0207366e-34,4.6684372e-34,1.0979489e-19
617952475,5.1616535,-5.1344433,0.048360664,0.034437682,1.0976956e-19,4.0208055e-34,4.0207366e-34,4.6684372e-34,1.0979489e-19
618159668,5.172782,-5.1457515,0.048271075,0.03435796,1.0976956e-19,4.0208055e-34,4.0207366e-34,4.6684372e-34,1.0979489e-19
618359668,5.1841,-5.151497,0.04817248,0.03429585,1.0976956e-19,4.0208055e-34,4.0207366e-34,4.6684372e-34,1.0979489e-19
618558883,5.1849856,-5.15952,0.048096728,0.03422627,1.0976956e-19,4.0208055e-34,4.0207366e-34,4.6684372e-34,1.0979489e-19
618762074,5.1954174,-5.165349,0.04801125,0.03416724,1.0976956e-19,4.0208055e-34,4.0207366e-34,4.6684372e-34,1.0979489e-19
618970068,5.211759,-5.1625085,0.04789004,0.0341375,-0.0769372,0.090929925,-0.111135416,0.14288588,0.025190227
619169282,5.2185273,-5.168915,0.047823925,0.034057345,1.0976956e-19,4.0208055e-34,4.0207366e-34,4.6684372e-34,1.0979489e-19
619377272,5.2265635,-5.1715784,0.047746785,0.033986658,1.0976956e-19,4.0208055e-34,4.0207366e-34,4.6684372e-34,1.0979489e-19
619576468,5.231624,-5.1745334,0.047659934,0.03390908,1.0976956e-19,4.0208055e-34,4.0207366e-34,4.6684372e-34,1.0979489e-19
619783707,5.239011,-5.177947,0.047584593,0.03380696,1.0976956e-19,4.0208055e-34,4.0207366e-34,4.6684372e-34,1.0979489e-19
619983668,5.2392044,-5.1675863,0.047525384,0.03377611,1.0976956e-19,4.0208055e-34,4.0207366e-34,4.6684372e-34,1.0979489e-19
620182868,5.239854,-5.167314,0.047461342,0.03371441,1.0976956e-19,4.0208055e-34,4.0207366e-34,4.6684372e-34,1.0979489e-19
620390868,5.247551,-5.171076,0.04735206,0.03361588,1.0976956e-19,4.0208055e-34,4.0207366e-34,4.6684372e-34,1.0979489e-19
620594068,5.249871,-5.172467,0.047283854,0.03354508,1.0976956e-19,4.0208055e-34,4.0207366e-34,4.6684372e-34,1.0979489e-19
620793304,5.2587366,-5.167859,0.047197714,0.033508677,1.0976956e-19,4.0208055e-34,4.0207366e-34,4.6684372e-34,1.0979489e-19
621001271,5.2657104,-5.1691794,0.047127564,0.033441227,1.0976956e-19,4.0208055e-34,4.0207366e-34,4.6684372e-34,1.0979489e-19
621200468,5.2800508,-5.165842,0.047014903,0.03339216,1.0976956e-19,4.0208055e-34,4.0207366e-34,4.6684372e-34,1.0979489e-19
621400468,5.281578,-5.162994,0.046968326,0.03332385,1.0976956e-19,4.0208055e-34,4.0207366e-34,4.6684372e-34,1.0979489e-19
621607673,5.282356,-5.160231,0.046918545,0.0332856,1.0976956e-19,4.0208055e-34,4.0207366e-34,4.6684372e-34,1.0979489e-19
621807668,5.2846026,-5.1576986,0.04683479,0.033242006,1.0976956e-19,4.0208055e-34,4.0207366e-34,4.6684372e-34,1.0979489e-19
622014868,5.285948,-5.159194,0.046752453,0.033178017,-0.07693512,0.09092755,-0.111132674,0.14288265,0.019464985
622214068,5.292519,-5.1598606,0.046681095,0.03309717,-0.07693281,0.09092491,-0.11112963,0.14287904,0.019693078
622422068,5.2898126,-5.154795,0.046625037,0.033043172,1.0976956e-19,4.0208055e-34,4.0207366e-34,4.6684372e-34,1.0979489e-19
622625271,5.298737,-5.156659,0.04654607,0.032986667,1.0976956e-19,4.0208055e-34,4.0207366e-34,4.6684372e-34,1.0979489e-19
622825320,5.2983446,-5.1557016,0.04650595,0.032928657,1.0976956e-19,4.0208055e-34,4.0207366e-34,4.6684372e-34,1.0979489e-19
623024468,5.311758,-5.153051,0.046402678,0.03288103,1.0976956e-19,4.0208055e-34,4.0207366e-34,4.6684372e-34,1.0979489e-19
623223668,5.318307,-5.1605887,0.046345614,0.032803606,1.0976956e-19,4.0208055e-34,4.0207366e-34,4.6684372e-34,1.0979489e-19
623431668,5.330334,-5.1624618,0.046241246,0.032751057,1.0976956e-19,4.0208055e-34,4.0207366e-34,4.6684372e-34,1.0979489e-19
623630868,5.333628,-5.16538,0.04619404,0.032706037,1.0976956e-19,4.0208055e-34,4.0207366e-34,4.6684372e-34,1.0979489e-19
623838874,5.3453345,-5.1700773,0.046114262,0.032656882,1.0976956e-19,4.0208055e-34,4.0207366e-34,4.6684372e-34,1.0979489e-19
624038080,5.3372355,-5.16896,0.046028487,0.032645926,1.0976956e-19,4.0208055e-34,4.0207366e-34,4.6684372e-34,1.0979489e-19
624245273,5.337078,-5.172318,0.045955095,0.032615002,1.0976956e-19,4.0208055e-34,4.0207366e-34,4.6684372e-34,1.0979489e-19
624445271,5.3567214,-5.1732464,0.045807973,0.032595385,-0.076929785,0.09092146,-0.11112565,0.14287433,0.020825936
624652474,5.357085,-5.178044,0.045775425,0.03256616,1.0976956e-19,4.0208055e-34,4.0207366e-34,4.6684372e-34,1.0979489e-19
624852511,5.3609447,-5.1786103,0.04569799,0.032546796,1.0976956e-19,4.0208055e-34,4.0207366e-34,4.6684372e-34,1.0979489e-19
625055670,5.3702116,-5.17792,0.04561613,0.03252448,1.0976956e-19,4.0208055e-34,4.0207366e-34,4.6684372e-34,1.0979489e-19
625258868,5.3834243,-5.1805553,0.04551581,0.03250585,1.0976956e-19,4.0208055e-34,4.0207366e-34,4.6684372e-34,1.0979489e-19
625458868,5.4058933,-5.17997,0.04537016,0.032481104,1.0976956e-19,4.0208055e-34,4.0207366e-34,4.6684372e-34,1.0979489e-19
625666068,5.412568,-5.1919346,0.04531459,0.032427017,1.0976956e-19,4.0208055e-34,4.0207366e-34,4.6684372e-34,1.0979489e-19
625865268,5.4268074,-5.192453,0.045194883,0.032390393,1.0976956e-19,4.0208055e-34,4.0207366e-34,4.6684372e-34,1.0979489e-19
