timestamp,baro_alt_meter,baro_temp_celcius,baro_pressure_pa,rho
519050012,-18.448675,28.349998,101546.805,1.206544
519061646,-18.617783,28.349998,101548.805,1.2065678
519085611,-18.115744,28.349998,101542.8,1.2064964
519098463,-18.448675,28.349998,101546.805,1.206544
519111833,-18.369406,28.349998,101545.805,1.2065321
519140669,-18.448675,28.349998,101546.805,1.206544
519153120,-18.617783,28.349998,101548.805,1.2065678
519164893,-18.53323,28.349998,101547.805,1.206556
519188641,-18.53323,28.349998,101547.805,1.206556
519200922,-18.448675,28.349998,101546.805,1.206544
519212931,-18.115744,28.349998,101542.8,1.2064964
519236398,-18.786892,28.359999,101550.83,1.2065918
519249081,-18.53323,28.359999,101547.83,1.2065562
519261069,-18.53323,28.359999,101547.83,1.2065562
519284546,-18.786892,28.359999,101550.83,1.2065918
519297103,-18.53323,28.359999,101547.83,1.2065562
519308298,-18.45396,28.359999,101546.83,1.2065443
519332489,-18.538513,28.369999,101547.85,1.2065564
519345098,-18.702337,28.369999,101549.84,1.2065802
519357091,-18.786892,28.369999,101550.85,1.2065921
519380546,-18.290136,28.369999,101544.85,1.2065208
519393089,-18.702337,28.369999,101549.84,1.2065802
519404693,-18.45396,28.369999,101546.85,1.2065446
519428495,-18.623068,28.369999,101548.85,1.2065684
519441070,-18.538513,28.369999,101547.85,1.2065564
519452312,-18.45396,28.369999,101546.85,1.2065446
519476009,-18.369406,28.369999,101545.85,1.2065327
519487088,-18.538513,28.369999,101547.85,1.2065564
519499775,-18.369406,28.369999,101545.85,1.2065327
519524042,-18.950716,28.369999,101552.85,1.2066159
519535030,-18.786892,28.369999,101550.85,1.2065921
519547688,-18.205582,28.369999,101543.84,1.2065089
519571918,-18.45396,28.38,101546.875,1.2065449
519584012,-18.290136,28.38,101544.875,1.2065212
519595717,-18.871447,28.38,101551.875,1.2066042
519620048,-18.702337,28.369999,101549.84,1.2065802
519632005,-18.702337,28.369999,101549.84,1.2065802
519644008,-18.290136,28.369999,101544.85,1.2065208
519668017,-18.290136,28.38,101544.875,1.2065212
519679243,-18.871447,28.38,101551.875,1.2066042
519691910,-18.786892,28.38,101550.875,1.2065924
519716001,-18.623068,28.38,101548.875,1.2065686
519728011,-18.623068,28.38,101548.875,1.2065686
519739818,-18.45396,28.38,101546.875,1.2065449
519763742,-18.956001,28.39,101552.9,1.2066164
519775915,-18.792177,28.39,101550.9,1.2065927
519787687,-18.871447,28.39,101551.9,1.2066046
519811945,-18.956001,28.38,101552.875,1.2066162
519823520,-18.786892,28.38,101550.875,1.2065924
519836026,-18.290136,28.38,101544.875,1.2065212
519859937,-18.956001,28.39,101552.9,1.2066164
519873907,-18.459244,28.39,101546.9,1.2065451
519886532,-18.459244,28.39,101546.9,1.2065451
519913446,-18.786892,28.38,101550.875,1.2065924
519926330,-18.956001,28.38,101552.875,1.2066162
519939101,-18.538513,28.38,101547.875,1.2065568
519963590,-18.538513,28.38,101547.875,1.2065568
519977155,-18.707623,28.38,101549.87,1.2065804
519989406,-18.786892,28.38,101550.875,1.2065924
520017982,-18.623068,28.39,101548.9,1.206569
520030196,-19.040554,28.39,101553.9,1.2066283
520044557,-18.623068,28.39,101548.9,1.206569
520070298,-18.707623,28.38,101549.87,1.2065804
520083598,-18.786892,28.38,101550.875,1.2065924
520097912,-18.374691,28.38,101545.875,1.206533
520124815,-18.45396,28.38,101546.875,1.2065449
520138009,-18.45396,28.38,101546.875,1.2065449
520150361,-18.538513,28.38,101547.875,1.2065568
520177552,-18.45396,28.38,101546.875,1.2065449
520190437,-18.45396,28.38,101546.875,1.2065449
520204742,-18.707623,28.38,101549.87,1.2065804
520230098,-18.374691,28.38,101545.875,1.206533
520243057,-18.707623,28.38,101549.87,1.2065804
520256162,-18.538513,28.38,101547.875,1.2065568
520281935,-18.786892,28.38,101550.875,1.2065924
520294085,-18.374691,28.38,101545.875,1.206533
520306766,-18.871447,28.38,101551.875,1.2066042
520333604,-18.538513,28.38,101547.875,1.2065568
520346408,-18.538513,28.38,101547.875,1.2065568
520362407,-18.374691,28.38,101545.875,1.206533
520388696,-18.45396,28.38,101546.875,1.2065449
520402361,-18.45396,28.38,101546.875,1.2065449
520416814,-18.623068,28.38,101548.875,1.2065686
520442453,-18.538513,28.38,101547.875,1.2065568
520456242,-18.786892,28.38,101550.875,1.2065924
520468714,-18.707623,28.38,101549.87,1.2065804
520494084,-18.707623,28.38,101549.87,1.2065804
520506224,-18.041758,28.38,101541.875,1.2064854
520520370,-18.786892,28.38,101550.875,1.2065924
520546459,-18.290136,28.38,101544.875,1.2065212
520560507,-18.290136,28.38,101544.875,1.2065212
520573531,-18.786892,28.38,101550.875,1.2065924
520600656,-18.538513,28.38,101547.875,1.2065568
520613470,-18.538513,28.38,101547.875,1.2065568
520626817,-18.786892,28.38,101550.875,1.2065924
520653073,-18.623068,28.38,101548.875,1.2065686
520667502,-18.290136,28.38,101544.875,1.2065212
520683127,-18.538513,28.38,101547.875,1.2065568
520709200,-18.707623,28.38,101549.87,1.2065804
520721531,-18.786892,28.38,101550.875,1.2065924
520735617,-18.290136,28.38,101544.875,1.2065212
520761209,-18.374691,28.38,101545.875,1.206533
520773214,-18.538513,28.38,101547.875,1.2065568
520785348,-18.205582,28.38,101543.87,1.2065091
520811949,-18.538513,28.38,101547.875,1.2065568
520825422,-18.623068,28.38,101548.875,1.2065686
520839512,-18.786892,28.38,101550.875,1.2065924
520867240,-18.374691,28.38,101545.875,1.206533
520881369,-18.786892,28.38,101550.875,1.2065924
520894485,-18.538513,28.38,101547.875,1.2065568
520917120,-18.538513,28.38,101547.875,1.2065568
520929543,-18.786892,28.38,101550.875,1.2065924
520943723,-18.290136,28.38,101544.875,1.2065212
520970914,-18.543798,28.39,101547.9,1.206557
520984275,-18.623068,28.39,101548.9,1.206569
520997116,-18.543798,28.39,101547.9,1.206557
521020072,-18.374691,28.39,101545.9,1.2065333
521032577,-18.623068,28.39,101548.9,1.206569
521045095,-18.792177,28.39,101550.9,1.2065927
521069034,-18.459244,28.39,101546.9,1.2065451
521080630,-18.543798,28.39,101547.9,1.206557
521093067,-18.707623,28.39,101549.89,1.2065806
521118911,-18.956001,28.39,101552.9,1.2066164
521131338,-18.871447,28.39,101551.9,1.2066046
521145030,-18.623068,28.39,101548.9,1.206569
521169095,-18.374691,28.39,101545.9,1.2065333
521180027,-18.623068,28.39,101548.9,1.206569
521192498,-18.543798,28.39,101547.9,1.206557
521216410,-18.707623,28.4,101549.914,1.206581
521229030,-18.29542,28.4,101544.92,1.2065216
521240371,-18.210867,28.4,101543.914,1.2065097
521266698,-18.628353,28.4,101548.92,1.2065692
521279615,-18.628353,28.4,101548.92,1.2065692
521292088,-18.707623,28.4,101549.914,1.206581
521318462,-18.628353,28.4,101548.92,1.2065692
521332128,-18.543798,28.4,101547.92,1.2065573
521343990,-18.956001,28.4,101552.92,1.2066168
521367278,-18.792177,28.4,101550.92,1.2065929
521380044,-19.040554,28.4,101553.92,1.2066286
521392000,-18.87673,28.4,101551.92,1.2066048
521418933,-18.628353,28.41,101548.945,1.2065694
521431144,-18.379974,28.41,101545.945,1.2065338
521443240,-18.628353,28.41,101548.945,1.2065694
521467788,-18.628353,28.41,101548.945,1.2065694
521480051,-18.628353,28.41,101548.945,1.2065694
521491712,-18.29542,28.41,101544.945,1.206522
521516004,-18.126312,28.4,101542.914,1.2064978
521527130,-18.459244,28.4,101546.92,1.2065455
521539689,-18.29542,28.4,101544.92,1.2065216
521565449,-18.464529,28.41,101546.945,1.2065457
521579128,-18.047043,28.41,101541.945,1.2064863
521591095,-18.628353,28.41,101548.945,1.2065694
521615137,-18.047043,28.41,101541.945,1.2064863
521627730,-17.962488,28.41,101540.945,1.2064744
521640002,-18.543798,28.41,101547.945,1.2065576
521664008,-18.210867,28.41,101543.94,1.20651
521676833,-18.464529,28.41,101546.945,1.2065457
521690159,-18.126312,28.41,101542.94,1.206498
521715077,-18.707623,28.41,101549.94,1.2065812
521727438,-18.464529,28.41,101546.945,1.2065457
521741492,-18.29542,28.41,101544.945,1.206522
521767067,-18.210867,28.41,101543.94,1.20651
521778332,-18.792177,28.41,101550.945,1.2065933
521791199,-18.464529,28.41,101546.945,1.2065457
521818304,-18.29542,28.41,101544.945,1.206522
521831175,-18.29542,28.41,101544.945,1.206522
521843305,-18.792177,28.41,101550.945,1.2065933
521870815,-18.707623,28.41,101549.94,1.2065812
521883326,-18.707623,28.41,101549.94,1.2065812
521896862,-18.792177,28.41,101550.945,1.2065933
521922157,-18.543798,28.41,101547.945,1.2065576
521934638,-18.628353,28.41,101548.945,1.2065694
521947067,-18.29542,28.41,101544.945,1.206522
521971101,-18.543798,28.41,101547.945,1.2065576
521982673,-18.464529,28.41,101546.945,1.2065457
521995106,-18.464529,28.41,101546.945,1.2065457
522021041,-18.543798,28.41,101547.945,1.2065576
522033503,-18.210867,28.41,101543.94,1.20651
522046531,-18.464529,28.41,101546.945,1.2065457
522072513,-18.792177,28.41,101550.945,1.2065933
522086154,-18.87673,28.41,101551.945,1.2066051
522098012,-18.379974,28.41,101545.945,1.2065338
522122269,-18.79746,28.42,101550.97,1.2065935
522135748,-18.87673,28.42,101551.97,1.2066054
522149506,-18.628353,28.42,101548.97,1.2065698
522173982,-18.628353,28.41,101548.945,1.2065694
522186015,-18.792177,28.41,101550.945,1.2065933
522198303,-18.628353,28.41,101548.945,1.2065694
522226185,-18.79746,28.42,101550.97,1.2065935
522238136,-18.464529,28.42,101546.97,1.206546
522250140,-18.87673,28.42,101551.97,1.2066054
522273538,-18.961285,28.42,101552.97,1.2066172
522286822,-18.549084,28.42,101547.97,1.2065579
522300269,-18.79746,28.42,101550.97,1.2065935
522327856,-18.712908,28.42,101549.96,1.2065815
522341030,-18.87673,28.42,101551.97,1.2066054
522353495,-18.712908,28.42,101549.96,1.2065815
522381559,-18.464529,28.42,101546.97,1.206546
522393993,-18.79746,28.42,101550.97,1.2065935
522407918,-18.379974,28.42,101545.97,1.2065341
522434099,-18.792177,28.41,101550.945,1.2065933
522447819,-18.792177,28.41,101550.945,1.2065933
522461030,-18.210867,28.41,101543.94,1.20651
522487047,-18.87673,28.42,101551.97,1.2066054
522500537,-18.464529,28.42,101546.97,1.206546
522513211,-18.87673,28.42,101551.97,1.2066054
522540533,-18.549084,28.42,101547.97,1.2065579
522553118,-18.464529,28.42,101546.97,1.206546
522567777,-19.04584,28.42,101553.97,1.2066292
522593295,-19.294218,28.42,101556.97,1.2066648
522607074,-18.712908,28.42,101549.96,1.2065815
522620863,-18.628353,28.42,101548.97,1.2065698
522646930,-18.29542,28.42,101544.97,1.2065222
522660285,-18.29542,28.42,101544.97,1.2065222
522673057,-18.464529,28.42,101546.97,1.206546
522699487,-18.464529,28.42,101546.97,1.206546
522712558,-18.712908,28.42,101549.96,1.2065815
522727258,-18.379974,28.42,101545.97,1.2065341
522754396,-19.294218,28.42,101556.97,1.2066648
522767549,-18.21615,28.42,101543.96,1.2065102
522780595,-18.628353,28.42,101548.97,1.2065698
522805123,-18.379974,28.42,101545.97,1.2065341
522817132,-18.628353,28.42,101548.97,1.2065698
522829107,-18.628353,28.42,101548.97,1.2065698
522852818,-18.961285,28.42,101552.97,1.2066172
522864369,-18.464529,28.42,101546.97,1.206546
522876565,-18.464529,28.42,101546.97,1.206546
522900454,-18.549084,28.42,101547.97,1.2065579
522913114,-18.628353,28.42,101548.97,1.2065698
522924878,-18.79746,28.42,101550.97,1.2065935
522949103,-18.464529,28.43,101546.99,1.2065463
522960054,-18.882015,28.43,101551.99,1.2066057
522974147,-18.464529,28.43,101546.99,1.2065463
523001030,-18.38526,28.43,101545.99,1.2065344
523013095,-18.96657,28.43,101552.99,1.2066176
523024122,-18.549084,28.43,101547.99,1.2065581
523049099,-18.712908,28.43,101549.984,1.2065818
523062637,-18.549084,28.43,101547.99,1.2065581
523076548,-18.38526,28.43,101545.99,1.2065344
523101006,-18.38526,28.43,101545.99,1.2065344
523113009,-18.549084,28.43,101547.99,1.2065581
523125071,-18.633636,28.43,101548.99,1.20657
523148262,-19.130394,28.43,101554.99,1.2066413
523160006,-18.633636,28.43,101548.99,1.20657
523173637,-18.464529,28.43,101546.99,1.2065463
523200037,-18.464529,28.43,101546.99,1.2065463
523211759,-18.633636,28.43,101548.99,1.20657
523224056,-18.38526,28.43,101545.99,1.2065344
523247548,-19.04584,28.43,101553.99,1.2066294
523260005,-18.464529,28.43,101546.99,1.2065463
523272045,-18.464529,28.43,101546.99,1.2065463
523296046,-18.549084,28.439999,101548.016,1.2065585
523309185,-18.718191,28.439999,101550.01,1.2065821
523322018,-18.718191,28.439999,101550.01,1.2065821
523347451,-18.718191,28.439999,101550.01,1.2065821
523360011,-18.469814,28.439999,101547.016,1.2065465
523373435,-18.13688,28.439999,101543.01,1.2064989
523400038,-18.633636,28.439999,101549.016,1.2065703
523411738,-18.469814,28.439999,101547.016,1.2065465
523424031,-18.718191,28.439999,101550.01,1.2065821
523448132,-18.549084,28.439999,101548.016,1.2065585
523460021,-18.549084,28.439999,101548.016,1.2065585
523471203,-18.21615,28.439999,101544.01,1.2065108
523496024,-18.549084,28.439999,101548.016,1.2065585
523508866,-18.718191,28.439999,101550.01,1.2065821
523521303,-18.300705,28.439999,101545.016,1.2065228
523547430,-18.38526,28.439999,101546.016,1.2065346
523561547,-18.718191,28.439999,101550.01,1.2065821
523574317,-18.469814,28.439999,101547.016,1.2065465
523602185,-18.633636,28.439999,101549.016,1.2065703
523614339,-18.38526,28.439999,101546.016,1.2065346
523628521,-18.79746,28.439999,101551.016,1.2065941
523653367,-18.718191,28.439999,101550.01,1.2065821
523669207,-18.21615,28.439999,101544.01,1.2065108
523682307,-18.882015,28.439999,101552.016,1.2066059
523708997,-18.300705,28.439999,101545.016,1.2065228
523721949,-18.469814,28.439999,101547.016,1.2065465
523734471,-18.21615,28.439999,101544.01,1.2065108
523761847,-18.38526,28.439999,101546.016,1.2065346
523773324,-18.633636,28.439999,101549.016,1.2065703
523788867,-18.79746,28.439999,101551.016,1.2065941
523814291,-18.549084,28.439999,101548.016,1.2065585
523828594,-18.79746,28.439999,101551.016,1.2065941
523842157,-18.633636,28.439999,101549.016,1.2065703
523868716,-18.38526,28.439999,101546.016,1.2065346
523881930,-18.79746,28.439999,101551.016,1.2065941
523894091,-17.967773,28.439999,101541.016,1.2064753
523920284,-18.633636,28.439999,101549.016,1.2065703
523933381,-18.79746,28.439999,101551.016,1.2065941
523948329,-18.21615,28.439999,101544.01,1.2065108
523977243,-18.300705,28.439999,101545.016,1.2065228
523990116,-18.549084,28.439999,101548.016,1.2065585
524002249,-18.469814,28.439999,101547.016,1.2065465
524027961,-18.38526,28.439999,101546.016,1.2065346
524041354,-18.549084,28.439999,101548.016,1.2065585
524054077,-18.469814,28.439999,101547.016,1.2065465
524081334,-18.38526,28.439999,101546.016,1.2065346
524094092,-18.38526,28.439999,101546.016,1.2065346
524106692,-18.633636,28.439999,101549.016,1.2065703
524132599,-18.718191,28.439999,101550.01,1.2065821
524146722,-18.718191,28.439999,101550.01,1.2065821
524160383,-18.79746,28.439999,101551.016,1.2065941
524186711,-18.469814,28.439999,101547.016,1.2065465
524200347,-18.549084,28.439999,101548.016,1.2065585
524213544,-18.79746,28.439999,101551.016,1.2065941
524240513,-18.469814,28.439999,101547.016,1.2065465
524253004,-18.633636,28.439999,101549.016,1.2065703
524267460,-18.469814,28.439999,101547.016,1.2065465
524295810,-18.38526,28.439999,101546.016,1.2065346
524309059,-18.79746,28.439999,101551.016,1.2065941
524321683,-18.718191,28.439999,101550.01,1.2065821
524345719,-17.967773,28.439999,101541.016,1.2064753
524358460,-18.549084,28.439999,101548.016,1.2065585
524371749,-18.718191,28.439999,101550.01,1.2065821
524398470,-18.79746,28.439999,101551.016,1.2065941
524409918,-18.633636,28.439999,101549.016,1.2065703
524423727,-18.718191,28.439999,101550.01,1.2065821
524449683,-18.802746,28.449999,101551.04,1.2065943
524463947,-18.633636,28.449999,101549.04,1.2065706
524476702,-18.633636,28.449999,101549.04,1.2065706
524502025,-18.549084,28.439999,101548.016,1.2065585
524513319,-18.469814,28.439999,101547.016,1.2065465
524528207,-18.718191,28.439999,101550.01,1.2065821
524553637,-18.802746,28.449999,101551.04,1.2065943
524568760,-18.633636,28.449999,101549.04,1.2065706
524581089,-18.96657,28.449999,101553.04,1.2066181
524608057,-18.469814,28.449999,101547.04,1.2065468
524620048,-18.469814,28.449999,101547.04,1.2065468
524632896,-18.718191,28.449999,101550.03,1.2065823
524656122,-18.469814,28.449999,101547.04,1.2065468
524668798,-18.554367,28.449999,101548.04,1.2065587
524681120,-18.221436,28.449999,101544.03,1.206511
524704793,-18.971855,28.46,101553.06,1.2066184
524717107,-18.718191,28.46,101550.055,1.2065827
524729636,-18.469814,28.46,101547.06,1.2065471
524755826,-18.8873,28.46,101552.06,1.2066065
524770173,-18.802746,28.46,101551.06,1.2065946
524783209,-18.8873,28.46,101552.06,1.2066065
524809614,-18.8873,28.46,101552.06,1.2066065
524823064,-18.554367,28.46,101548.06,1.206559
524835454,-18.13688,28.46,101543.055,1.2064995
524863414,-18.802746,28.46,101551.06,1.2065946
524876026,-18.971855,28.46,101553.06,1.2066184
524890455,-18.638922,28.46,101549.06,1.2065709
524915608,-18.38526,28.449999,101546.04,1.206535
524929621,-18.802746,28.449999,101551.04,1.2065943
524943296,-18.802746,28.449999,101551.04,1.2065943
524971262,-18.802746,28.46,101551.06,1.2065946
524984043,-18.638922,28.46,101549.06,1.2065709
524996229,-18.221436,28.46,101544.055,1.2065114
525021660,-18.802746,28.46,101551.06,1.2065946
525034742,-18.469814,28.46,101547.06,1.2065471
525047618,-18.469814,28.46,101547.06,1.2065471
525071231,-18.718191,28.46,101550.055,1.2065827
525084036,-18.469814,28.46,101547.06,1.2065471
525095099,-18.221436,28.46,101544.055,1.2065114
525120109,-18.475098,28.47,101547.086,1.2065474
525132210,-19.056408,28.47,101554.086,1.2066306
525144264,-18.221436,28.47,101544.08,1.2065116
525168052,-18.971855,28.46,101553.06,1.2066184
525180042,-18.13688,28.46,101543.055,1.2064995
525192030,-18.221436,28.46,101544.055,1.2065114
525215242,-18.475098,28.47,101547.086,1.2065474
525229698,-18.723476,28.47,101550.08,1.2065829
525242910,-18.8873,28.47,101552.086,1.2066067
525270163,-18.808031,28.47,101551.086,1.206595
525282612,-18.8873,28.47,101552.086,1.2066067
525295206,-18.390545,28.47,101546.086,1.2065355
525320026,-18.723476,28.47,101550.08,1.2065829
525332144,-18.723476,28.47,101550.08,1.2065829
525344073,-18.554367,28.47,101548.086,1.2065593
525367231,-18.554367,28.47,101548.086,1.2065593
525380514,-19.140963,28.47,101555.086,1.2066424
525394114,-18.638922,28.47,101549.086,1.2065711
525419067,-18.638922,28.47,101549.086,1.2065711
525431204,-18.638922,28.47,101549.086,1.2065711
525443178,-18.638922,28.47,101549.086,1.2065711
525469527,-18.644207,28.48,101549.11,1.2065715
525482808,-18.559652,28.48,101548.11,1.2065595
525495119,-18.475098,28.48,101547.11,1.2065476
525521492,-18.892584,28.48,101552.11,1.2066071
525534291,-18.390545,28.48,101546.11,1.2065358
525547498,-18.644207,28.48,101549.11,1.2065715
525574200,-18.638922,28.47,101549.086,1.2065711
525587214,-18.475098,28.47,101547.086,1.2065474
525599159,-18.723476,28.47,101550.08,1.2065829
525622291,-18.971855,28.48,101553.11,1.2066189
525634973,-18.892584,28.48,101552.11,1.2066071
525647501,-18.475098,28.48,101547.11,1.2065476
525673932,-18.311274,28.48,101545.11,1.2065239
525685437,-18.723476,28.48,101550.1,1.2065831
525699288,-18.559652,28.48,101548.11,1.2065595
525726470,-19.140963,28.48,101555.11,1.2066427
525739605,-18.723476,28.48,101550.1,1.2065831
525753208,-18.390545,28.48,101546.11,1.2065358
525778160,-18.723476,28.47,101550.08,1.2065829
525790208,-18.30599,28.47,101545.086,1.2065237
525802210,-18.723476,28.47,101550.08,1.2065829
525826153,-18.311274,28.48,101545.11,1.2065239
525838084,-18.22672,28.48,101544.1,1.2065119
525850650,-18.644207,28.48,101549.11,1.2065715
525878172,-19.056408,28.48,101554.11,1.2066308
525890722,-18.723476,28.48,101550.1,1.2065831
525904354,-18.390545,28.48,101546.11,1.2065358
525930657,-18.311274,28.48,101545.11,1.2065239
525944530,-18.644207,28.48,101549.11,1.2065715
525957642,-18.142166,28.48,101543.1,1.2065
525986363,-17.893787,28.48,101540.11,1.2064645
526000074,-18.892584,28.48,101552.11,1.2066071
526012518,-17.729963,28.48,101538.11,1.2064407
526038119,-18.559652,28.48,101548.11,1.2065595
526051745,-18.559652,28.48,101548.11,1.2065595
526064626,-18.475098,28.48,101547.11,1.2065476
526092524,-18.808031,28.48,101551.11,1.2065952
526105075,-18.644207,28.48,101549.11,1.2065715
526117473,-18.311274,28.48,101545.11,1.2065239
526142461,-18.723476,28.48,101550.1,1.2065831
526157338,-18.892584,28.48,101552.11,1.2066071
526170498,-18.057611,28.48,101542.11,1.2064883
526199021,-18.554367,28.47,101548.086,1.2065593
526212778,-18.30599,28.47,101545.086,1.2065237
526225174,-18.475098,28.47,101547.086,1.2065474
526249578,-18.311274,28.48,101545.11,1.2065239
526262008,-18.142166,28.48,101543.1,1.2065
526276293,-18.057611,28.48,101542.11,1.2064883
526302009,-18.142166,28.48,101543.1,1.2065
526316244,-17.809235,28.48,101539.11,1.2064526
526329036,-18.22672,28.48,101544.1,1.2065119
526355615,-17.397032,28.48,101534.11,1.2063931
526369034,-18.311274,28.48,101545.11,1.2065239
526381518,-18.311274,28.48,101545.11,1.2065239
526408922,-17.978342,28.48,101541.11,1.2064763
526421118,-17.560856,28.48,101536.11,1.206417
526433030,-18.808031,28.48,101551.11,1.2065952
526457086,-18.142166,28.48,101543.1,1.2065
526470989,-18.142166,28.48,101543.1,1.2065
526483771,-18.142166,28.48,101543.1,1.2065
526510453,-18.644207,28.48,101549.11,1.2065715
526523933,-18.057611,28.48,101542.11,1.2064883
526535922,-18.475098,28.48,101547.11,1.2065476
526561129,-17.0641,28.49,101530.14,1.206346
526574469,-17.814518,28.49,101539.14,1.206453
526588062,-19.389341,28.49,101558.14,1.2066787
526612887,-18.062897,28.49,101542.14,1.2064886
526625102,-17.481586,28.49,101535.14,1.2064054
526637188,-17.566141,28.49,101536.14,1.2064173
526661124,-19.140963,28.48,101555.11,1.2066427
526673030,-19.225517,28.48,101556.1,1.2066544
526684325,-17.893787,28.48,101540.11,1.2064645
526710718,-18.232004,28.5,101544.16,1.2065126
526723451,-18.395828,28.5,101546.164,1.2065364
526736070,-18.813314,28.5,101551.164,1.2065958
526761603,-19.225517,28.49,101556.13,1.2066549
526774617,-17.814518,28.49,101539.14,1.206453
526790151,-17.893787,28.49,101540.14,1.2064649
526815110,-18.147451,28.49,101543.13,1.2065004
526827683,-18.480383,28.49,101547.14,1.206548
526839992,-17.566141,28.49,101536.14,1.2064173
526864037,-18.977139,28.5,101553.164,1.2066196
526875448,-18.813314,28.5,101551.164,1.2065958
526888012,-18.395828,28.5,101546.164,1.2065364
526912065,-18.480383,28.5,101547.164,1.2065483
526924012,-17.899073,28.5,101540.164,1.2064651
526935106,-18.977139,28.5,101553.164,1.2066196
526960123,-18.977139,28.5,101553.164,1.2066196
526972048,-17.650694,28.5,101537.16,1.2064294
526984029,-17.650694,28.5,101537.16,1.2064294
527008925,-19.225517,28.5,101556.16,1.2066551
527020000,-18.89787,28.5,101552.164,1.2066077
527032081,-18.062897,28.5,101542.164,1.2064888
527055262,-17.650694,28.51,101537.18,1.2064297
527068038,-18.982424,28.51,101553.19,1.2066199
527080049,-18.728762,28.51,101550.18,1.2065841
527104106,-18.147451,28.51,101543.18,1.206501
527117321,-17.148653,28.51,101531.18,1.2063583
527131536,-17.983627,28.51,101541.19,1.2064773
527157532,-18.316559,28.51,101545.19,1.2065248
527170967,-18.147451,28.51,101543.18,1.206501
527183095,-18.728762,28.51,101550.18,1.2065841
527210787,-17.650694,28.51,101537.18,1.2064297
527223059,-17.899073,28.51,101540.19,1.2064654
527237156,-17.402317,28.51,101534.19,1.2063941
527262967,-17.735249,28.51,101538.19,1.2064416
527276570,-18.401114,28.51,101546.19,1.2065367
527290942,-18.147451,28.51,101543.18,1.206501
527315052,-17.566141,28.5,101536.164,1.2064176
527326292,-17.729963,28.5,101538.164,1.2064414
527339066,-18.395828,28.5,101546.164,1.2065364
527364721,-17.814518,28.5,101539.164,1.2064532
527377950,-17.729963,28.5,101538.164,1.2064414
527391131,-18.062897,28.5,101542.164,1.2064888
527415067,-17.983627,28.5,101541.164,1.206477
527426653,-17.402317,28.5,101534.164,1.2063938
527439066,-17.983627,28.5,101541.164,1.206477
527466152,-17.650694,28.51,101537.18,1.2064297
527478440,-17.650694,28.51,101537.18,1.2064297
527492566,-17.402317,28.51,101534.19,1.2063941
527518383,-18.147451,28.51,101543.18,1.206501
527532390,-17.069384,28.51,101530.19,1.2063466
527546285,-17.48687,28.51,101535.19,1.206406
527572394,-16.572628,28.51,101524.19,1.2062753
527587032,-18.232004,28.51,101544.18,1.2065128
527599847,-17.814518,28.51,101539.19,1.2064536
527626037,-16.98483,28.51,101529.19,1.2063347
527638331,-17.814518,28.51,101539.19,1.2064536
527652642,-16.821007,28.51,101527.19,1.206311
527679647,-17.317762,28.5,101533.164,1.2063819
527693650,-17.317762,28.5,101533.164,1.2063819
527706108,-16.651897,28.5,101525.16,1.2062868
527733877,-17.148653,28.51,101531.18,1.2063583
527746140,-16.90556,28.51,101528.19,1.2063228
527759755,-17.735249,28.51,101538.19,1.2064416
527788915,-17.233208,28.5,101532.164,1.2063701
527801420,-16.48279,28.5,101523.164,1.2062632
527814432,-17.317762,28.5,101533.164,1.2063819
527842157,-16.48279,28.5,101523.164,1.2062632
527854405,-17.069384,28.5,101530.164,1.2063463
527871236,-16.40352,28.5,101522.164,1.2062513
527897467,-16.567343,28.5,101524.164,1.206275
527911432,-16.900276,28.5,101528.164,1.2063226
527925318,-16.98483,28.5,101529.164,1.2063345
527952818,-16.48279,28.5,101523.164,1.2062632
527965225,-17.317762,28.5,101533.164,1.2063819
527979338,-16.318966,28.5,101521.164,1.2062393
528005132,-16.567343,28.5,101524.164,1.206275
528016877,-16.318966,28.5,101521.164,1.2062393
528029601,-16.567343,28.5,101524.164,1.206275
528054466,-16.318966,28.51,101521.19,1.2062397
528072032,-16.318966,28.51,101521.19,1.2062397
528085293,-16.572628,28.51,101524.19,1.2062753
528112878,-16.155142,28.51,101519.18,1.2062157
528125126,-16.736452,28.51,101526.19,1.2062991
528136826,-16.736452,28.51,101526.19,1.2062991
528163825,-16.572628,28.51,101524.19,1.2062753
528176916,-16.651897,28.51,101525.18,1.206287
528189980,-16.40352,28.51,101522.19,1.2062515
528215747,-16.318966,28.51,101521.19,1.2062397
528229628,-15.822209,28.51,101515.19,1.2061684
528243853,-15.986033,28.51,101517.19,1.2061921
528271304,-16.239697,28.51,101520.19,1.2062278
528284735,-16.239697,28.51,101520.19,1.2062278
528296923,-16.651897,28.51,101525.18,1.206287
528321054,-16.070587,28.519999,101518.2,1.2062042
528332865,-16.070587,28.519999,101518.2,1.2062042
528345030,-16.40352,28.519999,101522.21,1.2062519
528372703,-15.489277,28.519999,101511.21,1.2061211
528385033,-15.822209,28.519999,101515.21,1.2061687
528397979,-16.070587,28.519999,101518.2,1.2062042
528424037,-16.155142,28.519999,101519.2,1.2062161
528436282,-16.488073,28.519999,101523.21,1.2062637
528449036,-15.489277,28.519999,101511.21,1.2061211
528472130,-16.155142,28.519999,101519.2,1.2062161
528484314,-16.736452,28.519999,101526.21,1.2062993
528496931,-15.16163,28.519999,101507.21,1.2060736
528521095,-15.906764,28.519999,101516.21,1.2061806
528533630,-16.239697,28.519999,101520.21,1.206228
528547047,-15.573832,28.519999,101512.2,1.2061329
528574432,-15.822209,28.519999,101515.21,1.2061687
528587431,-15.489277,28.519999,101511.21,1.2061211
528600067,-14.907967,28.519999,101504.21,1.206038
528626639,-15.489277,28.519999,101511.21,1.2061211
528639225,-15.573832,28.519999,101512.2,1.2061329
528653482,-15.16163,28.519999,101507.21,1.2060736
528682011,-15.410007,28.519999,101510.21,1.2061093
528694310,-15.077075,28.519999,101506.2,1.2060616
528707791,-16.070587,28.519999,101518.2,1.2062042
528733208,-15.74294,28.529999,101514.234,1.2061571
528746254,-15.573832,28.529999,101512.23,1.2061331
528758291,-15.573832,28.529999,101512.23,1.2061331
528786327,-15.906764,28.519999,101516.21,1.2061806
528799240,-15.573832,28.519999,101512.2,1.2061329
528813524,-14.907967,28.519999,101504.21,1.206038
528839036,-15.240899,28.519999,101508.21,1.2060854
528851742,-15.077075,28.519999,101506.2,1.2060616
528863988,-15.410007,28.519999,101510.21,1.2061093
528892054,-14.913252,28.529999,101504.234,1.2060382
528904077,-14.828697,28.529999,101503.234,1.2060263
528917812,-14.7441435,28.529999,101502.234,1.2060144
528945064,-14.7441435,28.529999,101502.234,1.2060144
528957450,-15.573832,28.529999,101512.23,1.2061331
528972845,-14.997806,28.529999,101505.234,1.2060502
528999231,-14.997806,28.529999,101505.234,1.2060502
529011414,-14.997806,28.529999,101505.234,1.2060502
529025898,-14.411211,28.529999,101498.234,1.205967
529051459,-15.410007,28.529999,101510.234,1.2061095
529066723,-14.580319,28.529999,101500.23,1.2059906
529079289,-14.828697,28.529999,101503.234,1.2060263
529106728,-14.659589,28.519999,101501.21,1.2060022
529119187,-14.7441435,28.519999,101502.21,1.2060142
529131442,-15.16163,28.519999,101507.21,1.2060736
529158333,-15.325454,28.529999,101509.234,1.2060976
529172716,-14.331942,28.529999,101497.234,1.205955
529186015,-14.411211,28.529999,101498.234,1.205967
529212035,-15.077075,28.529999,101506.23,1.2060618
529225417,-15.077075,28.529999,101506.23,1.2060618
529238306,-14.913252,28.529999,101504.234,1.2060382
529266538,-14.495765,28.529999,101499.234,1.2059788
529279069,-14.997806,28.529999,101505.234,1.2060502
529291266,-14.411211,28.529999,101498.234,1.205967
529318153,-14.659589,28.529999,101501.234,1.2060026
529331272,-14.659589,28.529999,101501.234,1.2060026
529345318,-14.411211,28.529999,101498.234,1.205967
529372517,-14.331942,28.529999,101497.234,1.205955
529385918,-14.331942,28.529999,101497.234,1.205955
529398015,-13.914454,28.529999,101492.234,1.2058957
529425916,-14.997806,28.529999,101505.234,1.2060502
529438143,-15.573832,28.529999,101512.23,1.2061331
529451463,-14.331942,28.529999,101497.234,1.205955
529478153,-13.581522,28.529999,101488.234,1.2058481
529490281,-13.496968,28.529999,101487.23,1.2058362
529504782,-14.828697,28.529999,101503.234,1.2060263
529531549,-15.494562,28.539999,101511.26,1.2061217
529545026,-14.247387,28.539999,101496.26,1.2059435
529557562,-13.999009,28.539999,101493.25,1.2059077
529586015,-13.750631,28.529999,101490.234,1.2058718
529598089,-13.750631,28.529999,101490.234,1.2058718
529610421,-14.247387,28.529999,101496.234,1.2059431
529638092,-14.411211,28.529999,101498.234,1.205967
529650535,-13.666077,28.529999,101489.234,1.20586
529664916,-12.915658,28.529999,101480.234,1.2057531
529691761,-14.078279,28.529999,101494.23,1.2059193
529705208,-14.331942,28.529999,101497.234,1.205955
529717065,-13.666077,28.529999,101489.234,1.20586
529742055,-13.581522,28.539999,101488.26,1.2058483
529755465,-13.333144,28.539999,101485.26,1.2058127
529769487,-13.829901,28.539999,101491.26,1.205884
529796693,-13.333144,28.539999,101485.26,1.2058127
529809623,-13.829901,28.539999,101491.26,1.205884
529822420,-13.496968,28.539999,101487.25,1.2058364
529849581,-13.496968,28.539999,101487.25,1.2058364
529864338,-12.751834,28.539999,101478.26,1.2057296
529877307,-12.836389,28.539999,101479.26,1.2057414
529902431,-13.496968,28.539999,101487.25,1.2058364
529915164,-13.417699,28.539999,101486.26,1.2058246
529928894,-13.999009,28.539999,101493.25,1.2059077
529955825,-13.24859,28.539999,101484.26,1.2058009
529969324,-12.751834,28.539999,101478.26,1.2057296
529983538,-12.418901,28.539999,101474.26,1.205682
530009479,-13.084766,28.539999,101482.26,1.205777
530023434,-12.751834,28.539999,101478.26,1.2057296
530035814,-12.170524,28.539999,101471.26,1.2056464
530060122,-14.331942,28.539999,101497.26,1.2059553
530072612,-13.666077,28.539999,101489.26,1.2058603
530085010,-12.66728,28.539999,101477.26,1.2057177
530109009,-12.836389,28.55,101479.28,1.2057418
530120007,-13.000212,28.55,101481.27,1.2057654
530132484,-13.000212,28.55,101481.27,1.2057654
530158126,-13.586807,28.55,101488.28,1.2058487
530169111,-13.417699,28.55,101486.28,1.2058249
530181598,-13.835185,28.55,101491.28,1.2058843
530208057,-12.841673,28.56,101479.305,1.205742
530221009,-11.758322,28.56,101466.305,1.2055875
530233008,-12.170524,28.56,101471.305,1.205647
530259710,-13.750631,28.55,101490.28,1.2058724
530272115,-13.253875,28.55,101484.28,1.2058011
530284489,-12.751834,28.55,101478.28,1.2057298
530308489,-12.836389,28.55,101479.28,1.2057418
530321097,-13.502253,28.55,101487.27,1.2058367
530332871,-12.751834,28.55,101478.28,1.2057298
530357997,-13.090051,28.56,101482.305,1.2057776
530371273,-13.253875,28.56,101484.305,1.2058014
530384107,-12.58801,28.56,101476.305,1.2057064
530412369,-12.255078,28.56,101472.305,1.2056588
530426912,-12.424187,28.56,101474.305,1.2056826
530439236,-12.170524,28.56,101471.305,1.205647
530468406,-12.503456,28.56,101475.3,1.2056944
530482123,-12.6725645,28.56,101477.305,1.2057183
530494305,-12.503456,28.56,101475.3,1.2056944
530520070,-12.091254,28.55,101470.28,1.2056348
530532335,-12.418901,28.55,101474.28,1.2056823
530547142,-12.58801,28.55,101476.28,1.2057061
530572408,-11.425389,28.55,101462.27,1.2055397
530586179,-11.922146,28.55,101468.27,1.205611
530599442,-11.425389,28.55,101462.27,1.2055397
530624060,-12.751834,28.55,101478.28,1.2057298
530636406,-11.673768,28.55,101465.28,1.2055753
530650443,-11.589213,28.55,101464.28,1.2055635
530676208,-12.255078,28.56,101472.305,1.2056588
530688036,-12.757119,28.56,101478.305,1.2057301
530699812,-12.424187,28.56,101474.305,1.2056826
530725896,-11.922146,28.56,101468.3,1.2056112
530740058,-12.339632,28.56,101473.305,1.2056707
530752236,-11.922146,28.56,101468.3,1.2056112
530779784,-11.758322,28.56,101466.305,1.2055875
530792278,-11.589213,28.56,101464.305,1.2055638
530805665,-11.842876,28.56,101467.305,1.2055994
530835430,-11.922146,28.56,101468.3,1.2056112
530849345,-11.092458,28.56,101458.305,1.2054925
530862317,-11.261566,28.56,101460.305,1.2055162
530891318,-12.0067,28.55,101469.27,1.2056228
530905390,-11.589213,28.55,101464.28,1.2055635
530918630,-11.589213,28.55,101464.28,1.2055635
530943196,-10.923349,28.56,101456.3,1.2054687
530956831,-10.590417,28.56,101452.305,1.2054212
530973541,-12.170524,28.56,101471.305,1.205647
531003423,-11.842876,28.56,101467.305,1.2055994
531017924,-12.170524,28.56,101471.305,1.205647
531030192,-11.007903,28.56,101457.305,1.2054806
531055078,-11.092458,28.56,101458.305,1.2054925
531067100,-11.509944,28.56,101463.305,1.2055519
531079030,-11.673768,28.56,101465.305,1.2055757
531107532,-10.590417,28.56,101452.305,1.2054212
531121430,-10.923349,28.56,101456.3,1.2054687
531135200,-11.589213,28.56,101464.305,1.2055638
531160510,-11.509944,28.56,101463.305,1.2055519
531176106,-11.1770115,28.56,101459.305,1.2055044
531192245,-10.923349,28.56,101456.3,1.2054687
531218198,-10.923349,28.56,101456.3,1.2054687
531230220,-11.1770115,28.56,101459.305,1.2055044
531244119,-10.342039,28.56,101449.305,1.2053856
531271912,-11.50466,28.55,101463.28,1.2055516
531285122,-11.425389,28.55,101462.27,1.2055397
531296571,-11.673768,28.55,101465.28,1.2055753
531326088,-11.1770115,28.56,101459.305,1.2055044
531337881,-10.923349,28.56,101456.3,1.2054687
531350184,-10.342039,28.56,101449.305,1.2053856
531376073,-12.091254,28.57,101470.33,1.2056353
531389323,-12.091254,28.57,101470.33,1.2056353
531401497,-11.013187,28.57,101457.33,1.2054809
531429709,-10.09366,28.56,101446.305,1.2053499
531442093,-10.09366,28.56,101446.305,1.2053499
531456708,-10.923349,28.56,101456.3,1.2054687
531485124,-11.013187,28.57,101457.33,1.2054809
531497467,-11.425389,28.57,101462.32,1.2055402
531512847,-11.013187,28.57,101457.33,1.2054809
531536691,-10.178215,28.56,101447.305,1.2053618
531550382,-9.929837,28.56,101444.3,1.2053261
531564370,-10.09366,28.56,101446.305,1.2053499
531589349,-10.590417,28.56,101452.305,1.2054212
531603296,-11.1770115,28.56,101459.305,1.2055044
531616586,-10.5111475,28.56,101451.305,1.2054093
531645209,-11.34612,28.57,101461.33,1.2055284
531657163,-11.092458,28.57,101458.33,1.2054927
531671189,-10.178215,28.57,101447.33,1.2053621
531697155,-9.845283,28.57,101443.32,1.2053145
531709392,-9.433081,28.57,101438.33,1.2052552
531722008,-11.092458,28.57,101458.33,1.2054927
531749387,-10.178215,28.57,101447.33,1.2053621
531762009,-9.929837,28.57,101444.32,1.2053263
531775826,-9.51235,28.57,101439.33,1.2052671
531802009,-10.178215,28.57,101447.33,1.2053621
531815412,-11.013187,28.57,101457.33,1.2054809
531831004,-10.347323,28.57,101449.33,1.2053858
531856115,-9.100148,28.57,101434.33,1.2052076
531871944,-9.263972,28.57,101436.33,1.2052314
531884336,-9.179418,28.57,101435.33,1.2052195
531909089,-10.5111475,28.57,101451.33,1.2054096
531920059,-8.767217,28.57,101430.33,1.2051601
531932703,-8.682662,28.57,101429.33,1.2051482
531958227,-11.097742,28.58,101458.35,1.2054931
531975915,-10.098946,28.58,101446.35,1.2053505
531987931,-10.431877,28.58,101450.34,1.205398
532012706,-8.85177,28.58,101431.34,1.2051722
532025072,-9.100148,28.58,101434.35,1.205208
532037129,-10.098946,28.58,101446.35,1.2053505
532060339,-9.766013,28.58,101442.35,1.205303
532072493,-8.85177,28.58,101431.34,1.2051722
532085106,-9.596905,28.58,101440.35,1.2052792
532109137,-8.603393,28.58,101428.35,1.2051367
532121148,-9.100148,28.58,101434.35,1.205208
532132570,-9.596905,28.58,101440.35,1.2052792
532158432,-9.269257,28.59,101436.375,1.2052319
532174941,-8.518838,28.59,101427.375,1.205125
532187113,-8.185905,28.59,101423.375,1.2050775
532214486,-10.098946,28.59,101446.375,1.2053508
532227589,-10.019675,28.59,101445.375,1.2053388
532240057,-9.269257,28.59,101436.375,1.2052319
532264077,-9.100148,28.59,101434.375,1.2052082
532277691,-9.433081,28.59,101438.375,1.2052557
532292328,-9.850567,28.59,101443.37,1.205315
532319448,-8.85177,28.58,101431.34,1.2051722
532332053,-8.682662,28.58,101429.35,1.2051485
532343280,-8.936325,28.58,101432.35,1.2051841
532374005,-9.353811,28.59,101437.37,1.2052437
532386754,-8.767217,28.59,101430.375,1.2051606
532399356,-9.100148,28.59,101434.375,1.2052082
532423988,-9.184703,28.59,101435.375,1.2052201
532436301,-8.185905,28.59,101423.375,1.2050775
532450473,-8.518838,28.59,101427.375,1.205125
532478320,-9.100148,28.59,101434.375,1.2052082
532491613,-8.936325,28.59,101432.375,1.2051845
532504015,-9.269257,28.59,101436.375,1.2052319
532530968,-8.185905,28.59,101423.375,1.2050775
532543247,-7.9375277,28.59,101420.375,1.2050419
532557832,-7.5200415,28.59,101415.375,1.2049824
532586744,-7.8529735,28.59,101419.37,1.2050298
532599100,-8.85177,28.59,101431.37,1.2051724
532610892,-9.269257,28.59,101436.375,1.2052319
532637866,-8.106636,28.59,101422.375,1.2050656
532650817,-8.434284,28.59,101426.375,1.2051132
532663106,-8.106636,28.59,101422.375,1.2050656
532689685,-9.020879,28.59,101433.375,1.2051963
532702361,-8.603393,28.59,101428.375,1.2051369
532717636,-8.27046,28.59,101424.375,1.2050893
532745335,-8.603393,28.59,101428.375,1.2051369
532757446,-8.434284,28.59,101426.375,1.2051132
532771608,-8.355015,28.59,101425.37,1.2051011
532798419,-8.518838,28.59,101427.375,1.205125
532813083,-7.271663,28.59,101412.37,1.2049466
532825849,-7.9375277,28.59,101420.375,1.2050419
532851206,-8.185905,28.59,101423.375,1.2050775
532863080,-8.355015,28.59,101425.37,1.2051011
532880005,-7.9375277,28.59,101420.375,1.2050419
532906188,-7.271663,28.59,101412.37,1.2049466
532918621,-7.3562174,28.59,101413.375,1.2049587
532930470,-8.355015,28.59,101425.37,1.2051011
532960712,-7.68915,28.59,101417.375,1.2050062
532976854,-8.106636,28.59,101422.375,1.2050656
532991724,-7.6045957,28.59,101416.375,1.2049943
533020226,-8.106636,28.59,101422.375,1.2050656
533032596,-7.187109,28.59,101411.375,1.2049348
533045935,-7.5200415,28.59,101415.375,1.2049824
533070206,-7.68915,28.59,101417.375,1.2050062
533082034,-7.8529735,28.59,101419.37,1.2050298
533094631,-6.690353,28.59,101405.375,1.2048635
533121655,-7.6045957,28.59,101416.375,1.2049943
533134705,-8.106636,28.59,101422.375,1.2050656
533149140,-7.271663,28.59,101412.37,1.2049466
533176277,-7.187109,28.59,101411.375,1.2049348
533192694,-7.187109,28.59,101411.375,1.2049348
533206290,-7.3562174,28.59,101413.375,1.2049587
533232516,-6.690353,28.59,101405.375,1.2048635
533245998,-7.271663,28.59,101412.37,1.2049466
533258151,-7.440772,28.59,101414.375,1.2049706
533284121,-7.440772,28.599998,101414.4,1.2049708
533296263,-7.271663,28.599998,101412.39,1.204947
533310155,-6.6057987,28.599998,101404.4,1.204852
533334219,-7.440772,28.599998,101414.4,1.2049708
533348595,-7.1078396,28.599998,101410.4,1.2049233
533361034,-7.0232854,28.599998,101409.4,1.2049114
533386418,-7.68915,28.599998,101417.4,1.2050065
533400922,-7.271663,28.599998,101412.39,1.204947
533416567,-7.3562174,28.599998,101413.4,1.2049589
533441292,-6.774907,28.599998,101406.39,1.2048757
533453327,-6.8594613,28.599998,101407.4,1.2048876
533466431,-6.5265293,28.599998,101403.4,1.2048401
533492615,-7.0232854,28.599998,101409.4,1.2049114
533505055,-6.5265293,28.599998,101403.4,1.2048401
533519765,-6.357421,28.599998,101401.4,1.2048163
533549288,-7.192394,28.599998,101411.4,1.2049352
533563468,-6.441975,28.599998,101402.4,1.2048283
533577467,-6.0244884,28.599998,101397.4,1.2047688
533603298,-7.0232854,28.599998,101409.4,1.2049114
533617410,-7.440772,28.599998,101414.4,1.2049708
533630402,-7.271663,28.599998,101412.39,1.204947
533657420,-6.8594613,28.599998,101407.4,1.2048876
533670939,-6.1090426,28.599998,101398.4,1.2047807
533685667,-6.357421,28.599998,101401.4,1.2048163
533712027,-6.1090426,28.599998,101398.4,1.2047807
533723517,-6.193597,28.599998,101399.4,1.2047926
533736296,-7.3562174,28.599998,101413.4,1.2049589
533763529,-7.192394,28.599998,101411.4,1.2049352
533776081,-6.5265293,28.599998,101403.4,1.2048401
533790162,-6.0244884,28.599998,101397.4,1.2047688
533815619,-6.690353,28.599998,101405.4,1.2048639
533828310,-6.193597,28.599998,101399.4,1.2047926
533841088,-6.938731,28.599998,101408.4,1.2048995
533868530,-5.696841,28.609999,101393.414,1.2047215
533880242,-5.696841,28.609999,101393.414,1.2047215
533892565,-6.5265293,28.609999,101403.42,1.2048404
533920624,-6.029773,28.609999,101397.42,1.2047691
533933051,-5.443178,28.609999,101390.42,1.2046859
533945102,-6.8594613,28.609999,101407.42,1.2048879
533974693,-6.6956377,28.609999,101405.42,1.2048641
533987612,-6.278151,28.609999,101400.414,1.2048047
534002669,-6.362705,28.609999,101401.42,1.2048166
534028016,-5.945219,28.609999,101396.42,1.2047572
534039236,-6.278151,28.609999,101400.414,1.2048047
534051975,-6.6110835,28.609999,101404.42,1.2048522
534079692,-6.362705,28.609999,101401.42,1.2048166
534093763,-6.029773,28.609999,101397.42,1.2047691
534106955,-6.193597,28.609999,101399.42,1.2047929
534131953,-5.7761106,28.609999,101394.414,1.2047334
534143196,-6.193597,28.609999,101399.42,1.2047929
534156042,-6.193597,28.609999,101399.42,1.2047929
534181523,-6.193597,28.619999,101399.445,1.2047931
534196077,-6.1143274,28.619999,101398.445,1.2047813
534207278,-5.945219,28.619999,101396.445,1.2047575
534232004,-5.696841,28.619999,101393.44,1.2047218
534245805,-5.781395,28.619999,101394.44,1.2047336
534261245,-6.362705,28.619999,101401.445,1.2048169
534292301,-6.029773,28.619999,101397.445,1.2047694
534306832,-5.363909,28.619999,101389.445,1.2046744
534318639,-5.860665,28.619999,101395.445,1.2047457
534344050,-5.1948004,28.609999,101387.414,1.2046502
534357835,-6.362705,28.609999,101401.42,1.2048166
534371332,-6.362705,28.609999,101401.42,1.2048166
534394889,-6.6110835,28.619999,101404.445,1.2048526
534407162,-6.1143274,28.619999,101398.445,1.2047813
534419610,-5.1155305,28.619999,101386.445,1.2046387
534450014,-6.278151,28.619999,101400.44,1.2048049
534462324,-5.860665,28.619999,101395.445,1.2047457
534477988,-5.945219,28.619999,101396.445,1.2047575
534503196,-5.5277324,28.609999,101391.42,1.2046978
534516496,-5.363909,28.609999,101389.42,1.204674
534531447,-6.278151,28.609999,101400.414,1.2048047
534559008,-5.6122866,28.619999,101392.445,1.20471
534572511,-6.1143274,28.619999,101398.445,1.2047813
534585808,-5.860665,28.619999,101395.445,1.2047457
534612831,-6.362705,28.619999,101401.445,1.2048169
534625877,-6.029773,28.619999,101397.445,1.2047694
534639003,-5.860665,28.619999,101395.445,1.2047457
534666113,-6.6110835,28.619999,101404.445,1.2048526
534680898,-6.029773,28.619999,101397.445,1.2047694
534693328,-5.781395,28.619999,101394.44,1.2047336
534722003,-6.193597,28.619999,101399.445,1.2047931
534733609,-5.533017,28.619999,101391.445,1.2046981
534747843,-6.1143274,28.619999,101398.445,1.2047813
534773630,-6.1143274,28.619999,101398.445,1.2047813
534786084,-6.1143274,28.619999,101398.445,1.2047813
534798337,-5.860665,28.619999,101395.445,1.2047457
534825322,-6.1143274,28.619999,101398.445,1.2047813
534838399,-6.1143274,28.619999,101398.445,1.2047813
534851746,-5.696841,28.619999,101393.44,1.2047218
534880288,-6.1988816,28.63,101399.47,1.2047935
534893609,-5.950504,28.63,101396.47,1.2047578
534908886,-5.865949,28.63,101395.47,1.2047459
534937140,-6.5265293,28.619999,101403.445,1.2048407
534949630,-5.781395,28.619999,101394.44,1.2047336
534962268,-4.7825985,28.619999,101382.445,1.2045912
534992860,-5.1948004,28.619999,101387.44,1.2046505
535005605,-4.8671527,28.619999,101383.445,1.2046031
535019747,-5.1948004,28.619999,101387.44,1.2046505
535049321,-5.1948004,28.619999,101387.44,1.2046505
535062001,-5.533017,28.619999,101391.445,1.2046981
535080169,-6.6956377,28.619999,101405.445,1.2048644
535105037,-5.0309763,28.619999,101385.445,1.2046268
535120005,-6.780192,28.619999,101406.44,1.2048762
535133987,-6.278151,28.619999,101400.44,1.2048049
535159831,-7.6098804,28.619999,101416.445,1.2049952
535173279,-6.944016,28.619999,101408.445,1.2049
535186434,-6.944016,28.619999,101408.445,1.2049
535212332,-6.6956377,28.63,101405.47,1.2048647
535225066,-6.278151,28.63,101400.46,1.2048053
535241519,-6.278151,28.63,101400.46,1.2048053
535267595,-6.029773,28.619999,101397.445,1.2047694
535282407,-5.781395,28.619999,101394.44,1.2047336
535296058,-5.448463,28.619999,101390.445,1.2046862
535324828,-5.448463,28.63,101390.47,1.2046865
535337298,-6.278151,28.63,101400.46,1.2048053
535349332,-5.781395,28.63,101394.46,1.204734
535375227,-7.361502,28.63,101413.47,1.2049598
535389217,-6.6956377,28.63,101405.47,1.2048647
535402471,-7.02857,28.63,101409.47,1.2049122
535429202,-7.361502,28.63,101413.47,1.2049598
535441329,-6.780192,28.63,101406.46,1.2048765
535453335,-6.1143274,28.63,101398.47,1.2047815
535481096,-6.780192,28.63,101406.46,1.2048765
535493295,-5.533017,28.63,101391.47,1.2046983
535508545,-5.2000847,28.63,101387.46,1.2046508
535534459,-5.950504,28.63,101396.47,1.2047578
535547575,-5.950504,28.63,101396.47,1.2047578
535560572,-6.278151,28.63,101400.46,1.2048053
535585143,-6.780192,28.64,101406.484,1.2048768
535598406,-6.531814,28.64,101403.49,1.2048413
535613127,-6.44726,28.64,101402.49,1.2048293
535639295,-6.1988816,28.64,101399.49,1.2047937
535652342,-6.283436,28.64,101400.484,1.2048055
535665193,-5.865949,28.64,101395.49,1.2047461
535692030,-6.7009225,28.64,101405.49,1.204865
535704124,-6.7009225,28.64,101405.49,1.204865
535719003,-7.1131244,28.64,101410.49,1.2049245
535743609,-6.6163683,28.64,101404.49,1.204853
535758404,-6.780192,28.64,101406.484,1.2048768
535771780,-6.780192,28.64,101406.484,1.2048768
535796585,-6.119612,28.64,101398.49,1.2047818
535810165,-6.035058,28.64,101397.49,1.20477
535821636,-5.7021255,28.64,101393.484,1.2047223
535849502,-6.035058,28.65,101397.516,1.2047702
535862428,-5.950504,28.65,101396.516,1.2047583
535875996,-6.36799,28.65,101401.516,1.2048178
535901365,-7.1131244,28.64,101410.49,1.2049245
535915441,-7.5306106,28.64,101415.49,1.2049838
535928074,-7.699719,28.64,101417.49,1.2050076
535954752,-6.870031,28.65,101407.516,1.204889
535967093,-7.2822328,28.65,101412.51,1.2049483
535980417,-6.119612,28.65,101398.516,1.2047821
536007252,-5.369193,28.65,101389.516,1.2046752
536021199,-5.369193,28.65,101389.516,1.2046752
536034293,-5.7866797,28.65,101394.51,1.2047344
536060017,-5.7866797,28.65,101394.51,1.2047344
536072004,-5.6175714,28.65,101392.516,1.2047108
536083977,-6.035058,28.65,101397.516,1.2047702
536107986,-7.202963,28.65,101411.516,1.2049366
536120075,-6.6163683,28.65,101404.516,1.2048534
536131979,-5.284639,28.65,101388.516,1.2046633
536156132,-5.2053695,28.65,101387.51,1.2046514
536169076,-5.538302,28.65,101391.516,1.2046989
536181360,-5.871234,28.65,101395.516,1.2047465
536209877,-6.6216526,28.66,101404.54,1.2048537
536222460,-6.870031,28.66,101407.54,1.2048893
536235206,-7.699719,28.66,101417.54,1.2050081
536260516,-6.6163683,28.65,101404.516,1.2048534
536273878,-6.283436,28.65,101400.51,1.2048057
536286342,-6.2041664,28.65,101399.516,1.2047939
536314293,-6.119612,28.66,101398.54,1.2047824
536327260,-5.871234,28.66,101395.54,1.2047467
536340838,-5.7866797,28.66,101394.53,1.2047348
536367221,-6.2887206,28.66,101400.53,1.2048061
536380720,-5.871234,28.66,101395.54,1.2047467
536394456,-5.7021255,28.66,101393.53,1.2047229
536420852,-5.284639,28.65,101388.516,1.2046633
536434714,-5.950504,28.65,101396.516,1.2047583
536447131,-5.950504,28.65,101396.516,1.2047583
536475258,-6.119612,28.65,101398.516,1.2047821
536487082,-6.36799,28.65,101401.516,1.2048178
536500435,-5.2053695,28.65,101387.51,1.2046514
536526270,-5.538302,28.66,101391.54,1.2046992
536539241,-5.1208153,28.66,101386.54,1.2046398
536553406,-6.2041664,28.66,101399.54,1.2047943
536579979,-5.7021255,28.66,101393.53,1.2047229
536593835,-5.1208153,28.66,101386.54,1.2046398
536606091,-5.041546,28.66,101385.54,1.2046279
536633106,-5.538302,28.66,101391.54,1.2046992
536644560,-5.1208153,28.66,101386.54,1.2046398
536659813,-5.2053695,28.66,101387.53,1.2046516
536685538,-5.2053695,28.66,101387.53,1.2046516
536698526,-4.787883,28.66,101382.54,1.2045922
536713020,-5.1208153,28.66,101386.54,1.2046398
536738655,-5.369193,28.66,101389.54,1.2046754
536752825,-4.624059,28.66,101380.54,1.2045685
536765687,-5.041546,28.66,101385.54,1.2046279
536792354,-4.624059,28.66,101380.54,1.2045685
536805631,-3.8736405,28.66,101371.54,1.2044616
536818668,-5.369193,28.66,101389.54,1.2046754
536845633,-4.787883,28.66,101382.54,1.2045922
536858708,-4.9569917,28.66,101384.54,1.2046161
536873082,-3.9581947,28.66,101372.54,1.2044735
536898769,-4.9569917,28.66,101384.54,1.2046161
536912172,-4.872437,28.66,101383.54,1.2046041
536924442,-4.9569917,28.66,101384.54,1.2046161
536953311,-4.3703966,28.66,101377.54,1.2045329
536968301,-4.1220183,28.66,101374.54,1.2044972
536981296,-4.2911267,28.66,101376.54,1.204521
537008517,-4.037464,28.66,101373.54,1.2044853
537021586,-3.4561539,28.66,101366.54,1.2044022
537033933,-3.4561539,28.66,101366.54,1.2044022
537059570,-4.037464,28.66,101373.54,1.2044853
537075110,-4.1220183,28.66,101374.54,1.2044972
537088333,-3.789086,28.66,101370.54,1.2044497
537113480,-4.3703966,28.66,101377.54,1.2045329
537126446,-5.2053695,28.66,101387.53,1.2046516
537140510,-4.7033286,28.66,101381.53,1.2045803
537170947,-4.872437,28.66,101383.54,1.2046041
537185641,-4.2911267,28.66,101376.54,1.204521
537200126,-4.454951,28.66,101378.54,1.2045448
537225217,-3.8736405,28.66,101371.54,1.2044616
537240130,-4.3703966,28.66,101377.54,1.2045329
537252743,-4.872437,28.66,101383.54,1.2046041
537282121,-3.9581947,28.67,101372.56,1.2044737
537294491,-3.9581947,28.67,101372.56,1.2044737
537309172,-3.8736405,28.67,101371.56,1.2044618
537334533,-3.540708,28.66,101367.54,1.204414
537347608,-3.9581947,28.66,101372.54,1.2044735
537360050,-3.789086,28.66,101370.54,1.2044497
537385217,-3.2077758,28.66,101363.54,1.2043666
537398970,-4.1220183,28.66,101374.54,1.2044972
537412657,-4.1220183,28.66,101374.54,1.2044972
537438192,-3.6252625,28.67,101368.555,1.2044262
537452497,-2.9593978,28.67,101360.56,1.2043312
537465612,-3.043952,28.67,101361.56,1.2043431
537492596,-4.2911267,28.67,101376.56,1.2045213
537505057,-4.042749,28.67,101373.56,1.2044857
537518358,-3.794371,28.67,101370.56,1.20445
537545064,-2.9593978,28.67,101360.56,1.2043312
537559484,-3.4614387,28.67,101366.56,1.2044024
537572599,-3.794371,28.67,101370.56,1.20445
537596541,-3.6252625,28.67,101368.555,1.2044262
537610337,-4.2065725,28.67,101375.555,1.2045093
537623196,-3.8736405,28.67,101371.56,1.2044618
537650809,-3.2077758,28.67,101363.56,1.2043668
537662156,-3.2077758,28.67,101363.56,1.2043668
537674207,-3.8736405,28.67,101371.56,1.2044618
537699499,-4.127303,28.68,101374.586,1.2044978
537712055,-3.9581947,28.68,101372.586,1.204474
537723725,-3.4614387,28.68,101366.586,1.2044027
537748288,-3.7098167,28.67,101369.555,1.204438
537762326,-3.7098167,28.67,101369.555,1.204438
537775107,-3.8736405,28.67,101371.56,1.2044618
537804024,-4.042749,28.68,101373.586,1.2044859
537816040,-3.794371,28.68,101370.586,1.2044502
537829683,-3.9581947,28.68,101372.586,1.204474
537855013,-3.7098167,28.68,101369.58,1.2044383
537867497,-3.794371,28.68,101370.586,1.2044502
537880352,-3.794371,28.68,101370.586,1.2044502
537909375,-3.7098167,28.68,101369.58,1.2044383
537923261,-3.2976148,28.68,101364.586,1.204379
537936034,-3.5459929,28.68,101367.586,1.2044146
537960335,-4.7931676,28.68,101382.586,1.2045928
537972439,-3.3768845,28.68,101365.586,1.2043909
537986333,-3.043952,28.68,101361.586,1.2043433
538011071,-4.54479,28.68,101379.586,1.2045572
538023066,-4.2118573,28.68,101375.58,1.2045096
538036518,-3.5459929,28.68,101367.586,1.2044146
538066303,-4.2964115,28.689999,101376.61,1.2045218
538079132,-3.794371,28.689999,101370.61,1.2044505
538091067,-5.2106543,28.689999,101387.6,1.2046524
538116527,-3.794371,28.68,101370.586,1.2044502
538130739,-4.127303,28.68,101374.586,1.2044978
538143129,-4.7086134,28.68,101381.58,1.2045809
538170018,-3.7151012,28.689999,101369.6,1.2044386
538182943,-4.0480337,28.689999,101373.61,1.2044861
538195601,-3.794371,28.689999,101370.61,1.2044505
538222967,-4.0480337,28.689999,101373.61,1.2044861
538235587,-3.382169,28.689999,101365.61,1.2043911
538250894,-4.0480337,28.689999,101373.61,1.2044861
538277537,-4.375681,28.68,101377.586,1.2045335
538290923,-4.042749,28.68,101373.586,1.2044859
538303192,-3.794371,28.68,101370.586,1.2044502
538330202,-4.0480337,28.689999,101373.61,1.2044861
538342716,-4.0480337,28.689999,101373.61,1.2044861
538356344,-3.7151012,28.689999,101369.6,1.2044386
538382809,-3.630547,28.689999,101368.6,1.2044266
538397662,-3.794371,28.689999,101370.61,1.2044505
538410147,-4.2964115,28.689999,101376.61,1.2045218
538440560,-3.9634793,28.689999,101372.61,1.2044743
538454087,-3.9634793,28.689999,101372.61,1.2044743
538466142,-3.9634793,28.689999,101372.61,1.2044743
538494173,-3.5459929,28.689999,101367.61,1.2044148
538506139,-4.629344,28.689999,101380.61,1.2045693
538518009,-3.878925,28.689999,101371.61,1.2044624
538542814,-3.5459929,28.689999,101367.61,1.2044148
538556262,-4.2118573,28.689999,101375.6,1.2045099
538569690,-3.794371,28.689999,101370.61,1.2044505
538598281,-3.7151012,28.689999,101369.6,1.2044386
538612105,-3.4614387,28.689999,101366.61,1.204403
538623738,-4.127303,28.689999,101374.61,1.204498
538649491,-4.2118573,28.689999,101375.6,1.2045099
538662692,-3.4614387,28.689999,101366.61,1.204403
538677974,-3.878925,28.689999,101371.61,1.2044624
538704696,-3.794371,28.689999,101370.61,1.2044505
538716830,-3.7151012,28.689999,101369.6,1.2044386
538729355,-4.0480337,28.689999,101373.61,1.2044861
538755770,-3.4614387,28.689999,101366.61,1.204403
538770959,-3.9634793,28.689999,101372.61,1.2044743
538787078,-3.9634793,28.689999,101372.61,1.2044743
538816509,-4.0480337,28.689999,101373.61,1.2044861
538829102,-3.630547,28.689999,101368.6,1.2044266
538841580,-4.2118573,28.689999,101375.6,1.2045099
538867889,-4.0480337,28.699999,101373.63,1.2044865
538883760,-3.8842096,28.699999,101371.63,1.2044626
538897469,-3.4667232,28.699999,101366.63,1.2044033
538925110,-3.630547,28.689999,101368.6,1.2044266
538939454,-3.7151012,28.689999,101369.6,1.2044386
538953130,-3.9634793,28.689999,101372.61,1.2044743
538977408,-3.1285064,28.689999,101362.6,1.2043554
538990501,-3.630547,28.689999,101368.6,1.2044266
539004064,-3.5459929,28.689999,101367.61,1.2044148
539033319,-4.2964115,28.699999,101376.63,1.2045221
539047503,-4.217142,28.699999,101375.625,1.2045101
539061030,-3.7996554,28.699999,101370.63,1.2044508
539088670,-3.2976148,28.689999,101364.61,1.2043792
539101603,-3.9634793,28.689999,101372.61,1.2044743
539114478,-3.878925,28.689999,101371.61,1.2044624
539139577,-4.3809657,28.699999,101377.63,1.2045339
539152484,-3.7151012,28.699999,101369.625,1.2044388
539165074,-3.630547,28.699999,101368.625,1.204427
539189030,-3.8842096,28.699999,101371.63,1.2044626
539202672,-4.3809657,28.699999,101377.63,1.2045339
539217990,-3.8842096,28.699999,101371.63,1.2044626
539245106,-3.7996554,28.699999,101370.63,1.2044508
539257086,-3.7996554,28.699999,101370.63,1.2044508
539269103,-3.382169,28.699999,101365.63,1.2043914
539295797,-3.7996554,28.699999,101370.63,1.2044508
539308036,-3.7151012,28.699999,101369.625,1.2044388
539321074,-4.132588,28.699999,101374.63,1.2044983
539344579,-4.46552,28.699999,101378.63,1.2045459
539357094,-3.8842096,28.699999,101371.63,1.2044626
539370193,-3.4667232,28.699999,101366.63,1.2044033
539396025,-4.053318,28.71,101373.66,1.2044867
539409058,-3.133791,28.71,101362.65,1.204356
539421622,-4.3016963,28.71,101376.66,1.2045224
539447693,-3.8842096,28.71,101371.66,1.204463
539460052,-4.6346283,28.71,101380.66,1.2045699
539474370,-3.2183452,28.71,101363.66,1.2043679
539500280,-2.3833723,28.71,101353.66,1.2042491
539513844,-3.2183452,28.71,101363.66,1.2043679
539529346,-3.2183452,28.71,101363.66,1.2043679
539555136,-3.382169,28.71,101365.66,1.2043917
539568332,-3.4667232,28.71,101366.66,1.2044035
539584318,-3.4667232,28.71,101366.66,1.2044035
539609737,-3.382169,28.699999,101365.63,1.2043914
539623490,-3.2183452,28.699999,101363.63,1.2043676
539636044,-3.5512774,28.699999,101367.63,1.2044152
539660050,-3.5512774,28.71,101367.66,1.2044154
539673217,-3.5512774,28.71,101367.66,1.2044154
539686380,-3.6358316,28.71,101368.65,1.2044272
539714105,-4.550074,28.71,101379.66,1.204558
539726612,-4.3862505,28.71,101377.66,1.2045343
539739293,-4.967561,28.71,101384.66,1.2046174
539767892,-3.9687638,28.72,101372.68,1.2044752
539780005,-4.3016963,28.72,101376.68,1.2045226
539793541,-3.5512774,28.72,101367.68,1.2044157
539819295,-3.6358316,28.72,101368.67,1.2044275
539832828,-3.6358316,28.72,101368.67,1.2044275
539846309,-3.133791,28.72,101362.67,1.2043562
539872890,-3.2183452,28.72,101363.68,1.2043682
539886295,-4.137872,28.72,101374.68,1.2044989
539899151,-4.7191825,28.72,101381.67,1.204582
539925906,-3.8842096,28.72,101371.68,1.2044632
539938346,-3.3874536,28.72,101365.68,1.204392
539952894,-3.5512774,28.72,101367.68,1.2044157
539978304,-4.6346283,28.71,101380.66,1.2045699
539991608,-3.382169,28.71,101365.66,1.2043917
540005810,-3.7996554,28.71,101370.66,1.2044511
540033504,-3.4667232,28.71,101366.66,1.2044035
540046744,-3.382169,28.71,101365.66,1.2043917
540059145,-3.7996554,28.71,101370.66,1.2044511
540085810,-3.2183452,28.72,101363.68,1.2043682
540098404,-3.6358316,28.72,101368.67,1.2044275
540112912,-3.2183452,28.72,101363.68,1.2043682
540139129,-3.2183452,28.72,101363.68,1.2043682
540151538,-3.133791,28.72,101362.67,1.2043562
540165380,-3.3028994,28.72,101364.68,1.20438
540192520,-4.46552,28.72,101378.68,1.2045465
540208314,-3.5512774,28.72,101367.68,1.2044157
540222632,-3.720386,28.72,101369.67,1.2044394
540248706,-2.5524807,28.71,101355.66,1.2042729
540264099,-3.5512774,28.71,101367.66,1.2044154
540280286,-3.382169,28.71,101365.66,1.2043917
540310332,-3.2183452,28.72,101363.68,1.2043682
540324813,-3.2183452,28.72,101363.68,1.2043682
540337536,-3.133791,28.72,101362.67,1.2043562
540365401,-2.8008587,28.71,101358.66,1.2043085
540378083,-2.637035,28.71,101356.65,1.2042847
540392031,-2.3041027,28.71,101352.66,1.2042372
540418089,-3.382169,28.71,101365.66,1.2043917
540430130,-3.6358316,28.71,101368.65,1.2044272
540442236,-2.8008587,28.71,101358.66,1.2043085
540466151,-3.133791,28.72,101362.67,1.2043562
540478153,-3.9687638,28.72,101372.68,1.2044752
540489602,-2.637035,28.72,101356.67,1.2042849
540517132,-2.885413,28.72,101359.68,1.2043207
540529598,-3.2183452,28.72,101363.68,1.2043682
540544875,-3.2183452,28.72,101363.68,1.2043682
540573131,-2.637035,28.73,101356.695,1.2042853
540584932,-2.3886569,28.73,101353.7,1.2042496
540598477,-2.473211,28.73,101354.7,1.2042615
540626010,-3.6358316,28.73,101368.695,1.2044278
540639934,-3.1390755,28.73,101362.695,1.2043566
540653406,-2.473211,28.73,101354.7,1.2042615
540679291,-2.473211,28.73,101354.7,1.2042615
540693329,-2.9699671,28.73,101360.7,1.2043328
540706003,-2.9699671,28.73,101360.7,1.2043328
540730041,-2.5577652,28.73,101355.7,1.2042735
540741289,-2.721589,28.73,101357.7,1.2042972
