timestamp,roll_body,pitch_body,yaw_body,yaw_sp_move_rate,q_d[0],q_d[1],q_d[2],q_d[3],thrust_body[0],thrust_body[1],thrust_body[2],q_d_valid,roll_reset_integral,pitch_reset_integral,yaw_reset_integral,fw_control_yaw,apply_flaps
12220725,0.0,-0.0,0.41820768,0.0,0.97821736,0.0,0.0,0.20758334,0.0,0.0,-0.083551444,1,0,0,0,0,0
521805506,0.0,0.0,0.41609836,0.0,0.9784357,0.0,0.0,0.20655154,0.0,0.0,-0.0,1,0,0,0,0,0
521903277,0.0,0.0,0.41719493,0.0,0.9783223,0.0,0.0,0.20708798,0.0,0.0,-0.0,1,0,0,0,0,0
522003417,0.0,0.0,0.41680583,0.0,0.9783626,0.0,0.0,0.20689763,0.0,0.0,-0.0,1,0,0,0,0,0
522103610,0.0,0.0,0.41616887,0.0,0.9784285,0.0,0.0,0.20658603,0.0,0.0,-0.0,1,0,0,0,0,0
522203731,0.0,0.0,0.4172094,0.0,0.97832084,0.0,0.0,0.20709504,0.0,0.0,-0.0,1,0,0,0,0,0
522303789,0.0,0.0,0.4163558,0.0,0.9784092,0.0,0.0,0.20667748,0.0,0.0,-0.0,1,0,0,0,0,0
522403864,0.0,0.0,0.41654804,0.0,0.97838926,0.0,0.0,0.20677152,0.0,0.0,-0.0,1,0,0,0,0,0
522503875,0.0,0.0,0.4167315,0.0,0.9783703,0.0,0.0,0.2068613,0.0,0.0,-0.0,1,0,0,0,0,0
522604253,0.0,0.0,0.4162675,0.0,0.97841823,0.0,0.0,0.2066343,0.0,0.0,-0.0,1,0,0,0,0,0
522704039,0.0,0.0,0.41653532,0.0,0.9783906,0.0,0.0,0.20676534,0.0,0.0,-0.0,1,0,0,0,0,0
522804248,0.0,0.0,0.4163619,0.0,0.9784085,0.0,0.0,0.20668048,0.0,0.0,-0.0,1,0,0,0,0,0
522924487,0.0,0.0,0.416366,0.0,0.9784081,0.0,0.0,0.20668249,0.0,0.0,-0.0,1,0,0,0,0,0
523024403,0.0,0.0,0.41648462,0.0,0.9783958,0.0,0.0,0.2067405,0.0,0.0,-0.0,1,0,0,0,0,0
523124638,0.0,0.0,0.41639063,0.0,0.97840554,0.0,0.0,0.20669456,0.0,0.0,-0.0,1,0,0,0,0,0
523225139,0.0,0.0,0.41646624,0.0,0.9783977,0.0,0.0,0.2067315,0.0,0.0,-0.0,1,0,0,0,0,0
523325129,0.0,0.0,0.41633964,0.0,0.9784108,0.0,0.0,0.20666958,0.0,0.0,-0.0,1,0,0,0,0,0
523425189,0.0,0.0,0.41641247,0.0,0.9784033,0.0,0.0,0.2067052,0.0,0.0,-0.0,1,0,0,0,0,0
523525063,0.0,0.0,0.41621873,0.0,0.9784233,0.0,0.0,0.20661043,0.0,0.0,-0.0,1,0,0,0,0,0
523625686,0.0,0.0,0.41633618,0.0,0.97841114,0.0,0.0,0.2066679,0.0,0.0,-0.0,1,0,0,0,0,0
523725167,0.0,0.0,0.41624707,0.0,0.9784204,0.0,0.0,0.20662433,0.0,0.0,-0.0,1,0,0,0,0,0
523825504,0.0,0.0,0.4161169,0.0,0.9784338,0.0,0.0,0.20656064,0.0,0.0,-0.0,1,0,0,0,0,0
523925455,0.0,0.0,0.41621873,0.0,0.9784233,0.0,0.0,0.20661043,0.0,0.0,-0.0,1,0,0,0,0,0
524025470,0.0,0.0,0.4163166,0.0,0.97841316,0.0,0.0,0.20665832,0.0,0.0,-0.0,1,0,0,0,0,0
524125580,0.0,0.0,0.4162288,0.0,0.9784222,0.0,0.0,0.20661536,0.0,0.0,-0.0,1,0,0,0,0,0
524225730,0.0,0.0,0.41615912,0.0,0.97842944,0.0,0.0,0.20658126,0.0,0.0,-0.0,1,0,0,0,0,0
524345689,0.0,0.0,0.41631472,0.0,0.9784134,0.0,0.0,0.20665738,0.0,0.0,-0.0,1,0,0,0,0,0
524445946,0.0,0.0,0.416169,0.0,0.9784284,0.0,0.0,0.2065861,0.0,0.0,-0.0,1,0,0,0,0,0
524545972,0.0,0.0,0.41637853,0.0,0.9784068,0.0,0.0,0.20668861,0.0,0.0,-0.0,1,0,0,0,0,0
524646224,0.0,0.0,0.41630372,0.0,0.9784145,0.0,0.0,0.20665202,0.0,0.0,-0.0,1,0,0,0,0,0
524746241,0.0,0.0,0.41615236,0.0,0.97843015,0.0,0.0,0.206578,0.0,0.0,-0.0,1,0,0,0,0,0
524846303,0.0,0.0,0.41641605,0.0,0.9784029,0.0,0.0,0.20670697,0.0,0.0,-0.0,1,0,0,0,0,0
524946624,0.0,0.0,0.4160247,0.0,0.9784433,0.0,0.0,0.2065155,0.0,0.0,-0.0,1,0,0,0,0,0
525046512,0.0,0.0,0.41605055,0.0,0.97844064,0.0,0.0,0.20652816,0.0,0.0,-0.0,1,0,0,0,0,0
525146532,0.0,0.0,0.4162322,0.0,0.9784219,0.0,0.0,0.20661701,0.0,0.0,-0.0,1,0,0,0,0,0
525246672,0.0,0.0,0.41574717,0.0,0.978472,0.0,0.0,0.20637971,0.0,0.0,-0.0,1,0,0,0,0,0
525347179,0.0,0.0,0.4163469,0.0,0.97841007,0.0,0.0,0.20667316,0.0,0.0,-0.0,1,0,0,0,0,0
525467138,0.0,0.0,0.41589236,0.0,0.978457,0.0,0.0,0.20645078,0.0,0.0,-0.0,1,0,0,0,0,0
525567096,0.0,0.0,0.41584933,0.0,0.97846144,0.0,0.0,0.20642972,0.0,0.0,-0.0,1,0,0,0,0,0
525667097,0.0,0.0,0.41598585,0.0,0.9784473,0.0,0.0,0.20649649,0.0,0.0,-0.0,1,0,0,0,0,0
525767615,-0.0018260782,0.010294124,0.41590878,0.0,0.978441,-0.0019560067,0.0048476425,0.20646058,0.0,0.0,-0.120006554,1,0,0,0,0,0
525867730,-0.0063917697,-0.009200963,0.41590878,0.0,0.978443,-0.00217719,-0.005161137,0.20644118,0.0,0.0,-0.12000753,1,0,0,0,0,0
525967697,0.024070129,0.031075224,0.41590878,0.0,0.9783049,0.008566552,0.01768553,0.20623596,0.0,0.0,-0.1413914,1,0,0,0,0,0
526068098,0.028483149,0.019227238,0.41590878,0.0,0.97833914,0.011949046,0.012345461,0.2062944,0.0,0.0,-0.19286948,1,0,0,0,0,0
526167756,0.017071372,0.004882461,0.41590878,0.0,0.97842103,0.007847666,0.0041507864,0.20643032,0.0,0.0,-0.24025406,1,0,0,0,0,0
526268861,-0.033600245,-0.022974402,0.41590878,0.0,0.9782925,-0.0140650645,-0.01470602,0.20622724,0.0,0.0,-0.29765233,1,0,0,0,0,0
526367867,0.0011155334,0.008570092,0.41590878,0.0,0.97844666,-0.0003389377,0.0043078666,0.20645455,0.0,0.0,-0.34246317,1,0,0,0,0,0
526468522,-0.004502126,0.013776348,0.41590878,0.0,0.97842646,-0.0036246195,0.006274959,0.20646857,0.0,0.0,-0.38366076,1,0,0,0,0,0
526567968,-0.014433788,0.014974156,0.41590878,0.0,0.97839123,-0.008606867,0.005835575,0.20650055,0.0,0.0,-0.4129874,1,0,0,0,0,0
526668827,-0.018596975,0.016995436,0.41590878,0.0,0.97836137,-0.010852028,0.00639452,0.20651975,0.0,0.0,-0.4235329,1,0,0,0,0,0
526788106,-0.018301846,0.028202735,0.41590878,0.0,0.97829044,-0.011863887,0.011907448,0.2065559,0.0,0.0,-0.42573634,1,0,0,0,0,0
526888347,-0.013648937,0.032050036,0.41590878,0.0,0.9782843,-0.009984815,0.014269947,0.2065345,0.0,0.0,-0.4254645,1,0,0,0,0,0
526988935,-0.013584389,0.031789992,0.41590878,0.0,0.97828686,-0.009926417,0.01414941,0.20653358,0.0,0.0,-0.42811358,1,0,0,0,0,0
527088925,-0.010568363,0.037437096,0.41590878,0.0,0.9782498,-0.009033735,0.017223168,0.20651655,0.0,0.0,-0.40621886,1,0,0,0,0,0
527188790,-0.008889718,0.038106445,0.41590878,0.0,0.97825056,-0.008281722,0.017723905,0.20650215,0.0,0.0,-0.36920673,1,0,0,0,0,0
527288746,-0.0015418292,0.040984765,0.41590878,0.0,0.97824633,-0.004984682,0.019890342,0.20643087,0.0,0.0,-0.35923225,1,0,0,0,0,0
527388868,0.0029525578,0.040957097,0.41590878,0.0,0.97825533,-0.0027835069,0.020340648,0.2063857,0.0,0.0,-0.36047137,1,0,0,0,0,0
527489717,0.015380891,0.054584652,0.41590878,0.0,0.9781053,0.0018880053,0.028287368,0.20617048,0.0,0.0,-0.36262608,1,0,0,0,0,0
527589052,0.017014312,0.055905666,0.41590878,0.0,0.97808677,0.0025503715,0.029101718,0.20613806,0.0,0.0,-0.36079144,1,0,0,0,0,0
527689302,0.016941363,0.052747473,0.41590878,0.0,0.97812605,0.0028409383,0.027549822,0.20616105,0.0,0.0,-0.36203676,1,0,0,0,0,0
527789317,0.026702382,0.04969985,0.41590878,0.0,0.9781345,0.007929621,0.027065407,0.2060521,0.0,0.0,-0.36508906,1,0,0,0,0,0
527889384,0.023292141,0.050041933,0.3646908,0.0,0.98309946,0.0069127125,0.026713058,0.18098101,0.0,0.0,-0.36670136,1,0,0,0,0,0
527989559,0.018361123,0.047142934,0.3646908,0.0,0.9831457,0.00475193,0.024841841,0.1810658,0.0,0.0,-0.3672237,1,0,0,0,0,0
528089641,0.020052724,0.04724096,0.3646908,0.0,0.9831403,0.0055745756,0.02504316,0.18104401,0.0,0.0,-0.36845413,1,0,0,0,0,0
528209679,0.027616967,0.050593063,0.3646908,0.0,0.98307604,0.008988518,0.027375223,0.18091783,0.0,0.0,-0.37031463,1,0,0,0,0,0
528309964,0.025017401,0.04681608,0.3646908,0.0,0.98312783,0.008053614,0.025283664,0.18098481,0.0,0.0,-0.36392674,1,0,0,0,0,0
528410105,0.02889379,0.046505522,0.3646908,0.0,0.9831135,0.00998729,0.02548176,0.18093833,0.0,0.0,-0.36433855,1,0,0,0,0,0
528509948,0.024454266,0.053730533,0.3646908,0.0,0.9830523,0.0071490756,0.028631086,0.18093456,0.0,0.0,-0.3647594,1,0,0,0,0,0
528610268,0.025828438,0.049895454,0.3646908,0.0,0.98309153,0.00817272,0.026870556,0.18094824,0.0,0.0,-0.36692962,1,0,0,0,0,0
528710187,0.025119977,0.04963967,0.3646908,0.0,0.98309714,0.007847702,0.026680741,0.18095988,0.0,0.0,-0.36797208,1,0,0,0,0,0
528810905,0.02350169,0.048748657,0.3646908,0.0,0.983113,0.007133115,0.026096378,0.1809886,0.0,0.0,-0.3649156,1,0,0,0,0,0
528910370,0.0254114,0.048403233,0.3646908,0.0,0.9831095,0.008103202,0.026099408,0.18096648,0.0,0.0,-0.3646663,1,0,0,0,0,0
529010449,0.017914707,0.054619074,0.3646908,0.0,0.9830593,0.0038540442,0.02847603,0.18102117,0.0,0.0,-0.36172456,1,0,0,0,0,0
529110435,0.01836382,0.05511267,0.3646908,0.0,0.9830522,0.0040299995,0.028759269,0.18101129,0.0,0.0,-0.36294052,1,0,0,0,0,0
529210738,0.012528749,-0.052838184,0.3646908,0.0,0.98302865,0.010948424,-0.024842001,0.1814325,0.0,0.0,-0.36769885,1,0,0,0,0,0
529310769,0.010048135,-0.17879829,0.3646908,0.0,0.97940016,0.02111057,-0.086891435,0.18105128,0.0,0.0,-0.37233707,1,0,0,0,0,0
529411439,0.00695082,-0.29727912,0.3646908,0.0,0.97247815,0.030234583,-0.14501345,0.17984214,0.0,0.0,-0.37956217,1,0,0,0,0,0
529511542,0.010699427,-0.39609283,0.3646908,0.0,0.9639933,0.0408364,-0.19253844,0.17882457,0.0,0.0,-0.39002287,1,0,0,0,0,0
529611596,0.014141597,-0.48053816,0.3646908,0.0,0.9548423,0.049904265,-0.2327676,0.1777778,0.0,0.0,-0.39306244,1,0,0,0,0,0
529731240,0.014060649,-0.572439,0.3646908,0.0,0.94303036,0.057827502,-0.27641702,0.1759071,0.0,0.0,-0.39771646,1,0,0,0,0,0
529832184,0.016582483,-0.6106689,0.3646908,0.0,0.93745023,0.062286664,-0.29418424,0.17539431,0.0,0.0,-0.40226635,1,0,0,0,0,0
529931456,0.0068782745,-0.5763192,0.3646908,0.0,0.94269043,0.054776073,-0.27887708,0.17481995,0.0,0.0,-0.4197096,1,0,0,0,0,0
530033043,0.0033046321,0.07272377,0.3646908,0.0,0.9827806,-0.004968431,0.036050547,0.1811574,0.0,0.0,-0.38225132,1,0,0,0,0,0
530131573,0.006351579,0.19743215,0.3646908,0.0,0.97868514,-0.014763757,0.09749446,0.18014506,0.0,0.0,-0.41467637,1,0,0,0,0,0
530231704,-0.012276128,0.31351072,0.3646908,0.0,0.9711713,-0.034270927,0.15242368,0.18005222,0.0,0.0,-0.38786358,1,0,0,0,0,0
530331832,-0.14855006,0.37056762,0.3646908,0.0,0.96144485,-0.10504214,0.16744566,0.19118556,0.0,0.0,-0.36389062,1,0,0,0,0,0
530431826,-0.22647704,0.3511882,0.3646908,0.0,0.9585178,-0.14088993,0.1505213,0.19681711,0.0,0.0,-0.36710155,1,0,0,0,0,0
530531953,-0.33686537,0.34852576,0.3646908,0.0,0.94955033,-0.19335693,0.13815643,0.20464636,0.0,0.0,-0.3676851,1,0,0,0,0,0
530632021,-0.2846536,0.38165703,0.3646908,0.0,0.95092744,-0.17100969,0.15938674,0.20270298,0.0,0.0,-0.3705826,1,0,0,0,0,0
530732138,0.017154751,-0.0651757,0.3646908,0.0,0.9828121,0.014338698,-0.03048618,0.18150848,0.0,0.0,-0.33659318,1,0,0,0,0,0
530852270,0.07572912,-0.03502312,0.3646908,0.0,0.9824453,0.040395252,-0.010344478,0.18183073,0.0,0.0,-0.3380758,1,0,0,0,0,0
530952569,0.16643184,0.004076593,0.3646908,0.0,0.9800467,0.08137337,0.017070217,0.18054211,0.0,0.0,-0.372885,1,0,0,0,0,0
531052602,0.2729589,-0.0009965347,0.3646908,0.0,0.97426397,0.13388997,0.024186503,0.179717,0.0,0.0,-0.3684947,1,0,0,0,0,0
531152566,0.3247017,0.004578782,0.3646908,0.0,0.9705537,0.15854871,0.031532746,0.17858766,0.0,0.0,-0.39417103,1,0,0,0,0,0
531252864,0.39059323,0.010683042,0.3646908,0.0,0.9649006,0.18988733,0.040342305,0.1768675,0.0,0.0,-0.38455254,1,0,0,0,0,0
531352901,0.47804916,0.030447252,0.3646908,0.0,0.9560046,0.2301209,0.057472408,0.1726163,0.0,0.0,-0.3779666,1,0,0,0,0,0
531454243,0.49955508,0.114167206,0.3646908,0.0,0.95390826,0.23266968,0.09911689,0.16155413,0.0,0.0,-0.3904283,1,0,0,0,0,0
531552847,-0.05618593,0.043999344,0.3646908,0.0,0.9826831,-0.031604346,0.016532278,0.18182883,0.0,0.0,-0.33284575,1,0,0,0,0,0
531653541,-0.089455396,0.10510688,0.3646908,0.0,0.9806553,-0.053426735,0.04350984,0.18321489,0.0,0.0,-0.35774946,1,0,0,0,0,0
531753179,-0.088701986,0.16254677,0.3646908,0.0,0.9785584,-0.058164623,0.0717462,0.18410002,0.0,0.0,-0.37033054,1,0,0,0,0,0
531853838,-0.07974077,0.21762852,0.3646908,0.0,0.9760428,-0.058644596,0.09952902,0.18437782,0.0,0.0,-0.3757178,1,0,0,0,0,0
531974193,-0.054220438,0.27332267,0.3646908,0.0,0.9732244,-0.051104505,0.12905882,0.1832116,0.0,0.0,-0.39473522,1,0,0,0,0,0
532074016,-0.050464764,0.3583095,0.3646908,0.0,0.9665578,-0.056717824,0.17068596,0.1827988,0.0,0.0,-0.37903702,1,0,0,0,0,0
532174006,-0.046755966,0.4359814,0.3646908,0.0,0.9589683,-0.0616509,0.20848611,0.18196833,0.0,0.0,-0.36509034,1,0,0,0,0,0
532274997,-0.028737003,0.49116933,0.3646908,0.0,0.953182,-0.057788473,0.23654081,0.17931277,0.0,0.0,-0.37554854,1,0,0,0,0,0
532373952,-0.02676213,0.55777764,0.3646908,0.0,0.944671,-0.06256564,0.26836672,0.17793694,0.0,0.0,-0.38941142,1,0,0,0,0,0
532475908,-0.012628129,0.6064145,0.3646908,0.0,0.93820053,-0.060068984,0.2925339,0.17491522,0.0,0.0,-0.4019955,1,0,0,0,0,0
532574113,0.027826117,0.026162554,0.3646908,0.0,0.98327476,0.011308967,0.015385442,0.18112454,0.0,0.0,-0.30280915,1,0,0,0,0,0
532674229,-0.009239615,-0.036200132,0.3646908,0.0,0.9832647,-0.0012604655,-0.018636422,0.18122272,0.0,0.0,-0.31313518,1,0,0,0,0,0
532774254,-0.0026243282,-0.052373555,0.3646908,0.0,0.9830893,0.0034581067,-0.025987526,0.18124047,0.0,0.0,-0.35662144,1,0,0,0,0,0
532877158,0.001668576,-0.09515988,0.3646908,0.0,0.9823006,0.009444254,-0.046622336,0.18117034,0.0,0.0,-0.363588,1,0,0,0,0,0
532974606,0.00022839701,-0.17464039,0.3646908,0.0,0.9796725,0.015926108,-0.0857428,0.18065552,0.0,0.0,-0.37894002,1,0,0,0,0,0
533074527,0.0091070775,-0.2462915,0.3646908,0.0,0.97586226,0.026718318,-0.11997754,0.18051153,0.0,0.0,-0.3818348,1,0,0,0,0,0
533174677,0.007007148,-0.31529748,0.3646908,0.0,0.9711201,0.031871792,-0.1537653,0.1796277,0.0,0.0,-0.39413714,1,0,0,0,0,0
533274732,0.016512433,-0.42157978,0.3646908,0.0,0.961308,0.04587973,-0.20429252,0.17901565,0.0,0.0,-0.35169414,1,0,0,0,0,0
533395006,0.010632174,-0.47566128,0.3646908,0.0,0.9554985,0.04780213,-0.23074885,0.1774614,0.0,0.0,-0.3739747,1,0,0,0,0,0
533495110,0.02026582,-0.5258808,0.3646908,0.0,0.9490944,0.056753032,-0.25382444,0.1776851,0.0,0.0,-0.36915442,1,0,0,0,0,0
533595944,0.014319297,0.096926704,0.3646908,0.0,0.98230416,-0.0017518919,0.048936784,0.18077795,0.0,0.0,-0.30358854,1,0,0,0,0,0
533695193,0.020733204,0.15980919,0.3646908,0.0,0.98038065,-0.004311412,0.080365874,0.17993456,0.0,0.0,-0.3003807,1,0,0,0,0,0
533796619,0.024146736,0.2017803,0.3646908,0.0,0.9785695,-0.0064501823,0.10122021,0.1792055,0.0,0.0,-0.31767812,1,0,0,0,0,0
533895297,0.013013436,0.23206402,0.3646908,0.0,0.9769243,-0.014637453,0.115022,0.17937265,0.0,0.0,-0.3047863,1,0,0,0,0,0
533998006,0.016691983,0.26835722,0.3646908,0.0,0.9747502,-0.016123945,0.1330537,0.17860241,0.0,0.0,-0.27270323,1,0,0,0,0,0
534095601,0.032308627,0.26131135,0.3646908,0.0,0.97529346,-0.007871817,0.13101184,0.17769787,0.0,0.0,-0.26110658,1,0,0,0,0,0
534195675,0.028040497,0.25765416,0.3646908,0.0,0.9755025,-0.009621104,0.12884994,0.17804495,0.0,0.0,-0.24942842,1,0,0,0,0,0
534316046,0.026356285,0.24877849,0.3646908,0.0,0.9760346,-0.009637083,0.124372356,0.17831203,0.0,0.0,-0.2491884,1,0,0,0,0,0
534416132,0.043642204,0.24309805,0.3646908,0.0,0.9764128,-0.0006825025,0.12313883,0.1773541,0.0,0.0,-0.24741676,1,0,0,0,0,0
534516397,0.02070237,0.21657567,0.3646908,0.0,0.9778113,-0.009477375,0.108144864,0.17916459,0.0,0.0,-0.24602039,1,0,0,0,0,0
534616347,0.038099468,0.21997605,0.3646908,0.0,0.9776805,-0.0012814719,0.11136035,0.1781519,0.0,0.0,-0.24520624,1,0,0,0,0,0
534716036,0.034745157,0.20521311,0.3646908,0.0,0.9784239,-0.0015770408,0.10384685,0.17860582,0.0,0.0,-0.24695648,1,0,0,0,0,0
534816850,0.022082206,0.15164535,0.3646908,0.0,0.98068744,-0.0029087802,0.076486014,0.17998208,0.0,0.0,-0.28821084,1,0,0,0,0,0
534916331,0.018277986,0.104501925,0.3646908,0.0,0.9821245,-0.0004952164,0.053014122,0.18061215,0.0,0.0,-0.39128953,1,0,0,0,0,0
535016810,0.0115335155,0.06410591,0.3646908,0.0,0.98293316,-0.00014307481,0.03256081,0.18105868,0.0,0.0,-0.44631314,1,0,0,0,0,0
535116923,0.0050650695,0.05267376,0.35648206,0.07842229,0.9838245,-0.0021773952,0.026365403,0.17717105,0.0,0.0,-0.45840946,1,0,0,0,0,0
535238988,-0.0016993436,0.044995304,0.36238772,0.12005987,0.98337656,-0.0048893737,0.021974398,0.18017715,0.0,0.0,-0.45245904,1,0,0,0,0,0
535336778,0.002461861,0.04029102,0.3701999,0.12404609,0.9827223,-0.0024977638,0.020026524,0.18398292,0.0,0.0,-0.45148745,1,0,0,0,0,0
535438805,0.0023996779,0.03583983,0.38050768,0.07734612,0.9818019,-0.0022106185,0.017822482,0.18905658,0.0,0.0,-0.46302313,1,0,0,0,0,0
535536926,0.0027128444,0.0301768,0.3908393,0.060002185,0.9808577,-0.001599272,0.015063994,0.19413586,0.0,0.0,-0.4638205,1,0,0,0,0,0
535636937,0.005788934,0.02875982,0.39983618,0.0540305,0.9799857,-1.9062218e-05,0.014667708,0.1985269,0.0,0.0,-0.46205264,1,0,0,0,0,0
535737636,0.012014953,0.013931243,0.40887657,0.05207225,0.9791423,0.0044680904,0.008039968,0.20296763,0.0,0.0,-0.4583807,1,0,0,0,0,0
535837412,0.013137484,0.020846939,0.416893,0.05143379,0.97829354,0.0042692064,0.011556686,0.20685759,0.0,0.0,-0.4611985,1,0,0,0,0,0
535937446,0.015921926,0.0034187685,0.4246822,0.052057464,0.9775107,0.007421828,0.0033486825,0.21072869,0.0,0.0,-0.4648593,1,0,0,0,0,0
536037446,0.01259563,0.0035022486,0.43218118,0.052024335,0.9767247,0.005775842,0.0030606845,0.21439742,0.0,0.0,-0.46703812,1,0,0,0,0,0
536137606,0.012906878,-0.0011502758,0.43948665,0.052574474,0.9759322,0.0064235763,0.00084540877,0.2179782,0.0,0.0,-0.47262654,1,0,0,0,0,0
536257871,0.015929943,-0.0018015789,0.4476163,0.045117352,0.9750264,0.007966152,0.0008894659,0.22194427,0.0,0.0,-0.4735958,1,0,0,0,0,0
536357710,0.023927256,-0.0036172392,0.4529614,0.049184732,0.9743865,0.012063908,0.00092405314,0.22455417,0.0,0.0,-0.40980166,1,0,0,0,0,0
536457929,0.031048005,-0.007846838,0.45815954,0.019184317,0.9737371,0.016008554,-0.0002954083,0.22711164,0.0,0.0,-0.32673773,1,0,0,0,0,0
536557961,0.030636003,-0.008413983,0.46138978,0.0062935012,0.9733702,0.015873307,-0.0005926904,0.22868796,0.0,0.0,-0.2895524,1,0,0,0,0,0
536658162,0.032750275,-0.009011597,0.46363583,0.031697918,0.97309303,0.016971286,-0.0006227317,0.22978587,0.0,0.0,-0.27204826,1,0,0,0,0,0
536758155,0.04426417,-0.007005012,0.46736857,0.27839398,0.9725577,0.022339491,0.0017180613,0.2315805,0.0,0.0,-0.26316094,1,0,0,0,0,0
536858282,0.03913371,0.004712084,0.48220518,0.79773915,0.9708977,0.018437175,0.00695919,0.23868234,0.0,0.0,-0.26345545,1,0,0,0,0,0
536958798,0.043749686,0.0035823933,0.5251179,1.3172449,0.96550655,0.020658651,0.007406607,0.25945228,0.0,0.0,-0.25716192,1,0,0,0,0,0
537058742,0.05759433,0.0067520556,0.6046163,1.487664,0.95427954,0.0264826,0.011793974,0.29750657,0.0,0.0,-0.2483694,1,0,0,0,0,0
537158893,0.051398885,0.020124378,0.7090196,0.88108927,0.93754935,0.020605812,0.018352848,0.346756,0.0,0.0,-0.23518524,1,0,0,0,0,0
537258803,0.032997448,0.015879087,0.8038119,0.2908698,0.92021406,0.012077609,0.013759188,0.39098695,0.0,0.0,-0.24215567,1,0,0,0,0,0
537358958,0.04800783,0.020570658,0.86765,0.0953087,0.907159,0.017455002,0.019418102,0.41997722,0.0,0.0,-0.2998019,1,0,0,0,0,0
537458897,0.029969541,0.005860329,0.9138772,0.02881839,0.8973222,0.012154233,0.0092403,0.44111204,0.0,0.0,-0.33569062,1,0,0,0,0,0
537580653,0.032076485,0.011369049,0.9540684,-0.21104786,0.88827384,0.011637218,0.012412696,0.45899907,0.0,0.0,-0.35283524,1,0,0,0,0,0
537679066,0.028493155,0.0046860296,0.9706893,-0.08726183,0.8844376,0.011507904,0.008718192,0.46643505,0.0,0.0,-0.3541628,1,0,0,0,0,0
537779176,0.021722991,0.0017359611,0.9814232,-0.030365063,0.88194984,0.009170608,0.005883929,0.47121724,0.0,0.0,-0.35360366,1,0,0,0,0,0
537879423,0.029873464,0.003416172,0.9897703,-0.019172052,0.8799359,0.012333032,0.008596623,0.47485444,0.0,0.0,-0.37845615,1,0,0,0,0,0
537979938,0.03530035,0.0061383867,0.9953412,-0.0062310332,0.8785818,0.014043338,0.011121829,0.4772558,0.0,0.0,-0.3533114,1,0,0,0,0,0
538079455,0.03164882,0.00654857,0.9970379,-0.0020553214,0.8782017,0.012332472,0.010441105,0.47801733,0.0,0.0,-0.33439186,1,0,0,0,0,0
538180376,0.030108219,0.008619948,0.99679357,-0.0006653229,0.87827337,0.01116215,0.0109810205,0.47790238,0.0,0.0,-0.3467743,1,0,0,0,0,0
538280129,0.031065824,0.0043424442,0.9945621,-0.00022003197,0.8787909,0.0126153985,0.009317486,0.4769493,0.0,0.0,-0.34993976,1,0,0,0,0,0
538399794,0.023840973,0.010186224,0.99045676,-5.7607507e-05,0.87981516,0.008067748,0.010145687,0.4751393,0.0,0.0,-0.3529274,1,0,0,0,0,0
538502108,0.024512947,0.008400403,0.9851022,-1.8336492e-05,0.8810798,0.008813157,0.009496219,0.47279024,0.0,0.0,-0.35341918,1,0,0,0,0,0
538600089,0.022953633,0.01326069,0.97910863,-6.1535134e-06,0.88250077,0.0070107584,0.01124767,0.47012416,0.0,0.0,-0.3539179,1,0,0,0,0,0
538700071,0.026698902,0.01612744,0.9728085,-2.0164962e-06,0.8839622,0.00803143,0.013367587,0.46729824,0.0,0.0,-0.35285553,1,0,0,0,0,0
538800909,0.024604335,0.021340927,0.9662084,-6.533283e-07,0.8855007,0.005937093,0.015162672,0.46435246,0.0,0.0,-0.35762382,1,0,0,0,0,0
538900414,0.022886796,0.021437883,0.95922804,-2.1555354e-07,0.8871206,0.0052057747,0.0147887375,0.4612713,0.0,0.0,-0.35783523,1,0,0,0,0,0
539000572,0.036173124,0.021965878,0.9547995,-7.0592336e-08,0.8880851,0.011017089,0.018062474,0.4591919,0.0,0.0,-0.35494405,1,0,0,0,0,0
539100656,0.031866066,0.02495948,0.9547995,-2.3080249e-08,0.8881022,0.008416698,0.018402608,0.4592005,0.0,0.0,-0.3535066,1,0,0,0,0,0
539200622,0.03452574,0.031481825,0.9547995,-7.553642e-09,0.8880751,0.008098975,0.02190872,0.45910448,0.0,0.0,-0.3521589,1,0,0,0,0,0
539300707,0.03459107,0.032571517,0.9547995,-2.472577e-09,0.8880715,0.007877577,0.022407439,0.45909137,0.0,0.0,-0.36475775,1,0,0,0,0,0
539400922,0.02366392,0.03192223,0.9547995,-8.085642e-10,0.88810414,0.0031746281,0.019610578,0.45921284,0.0,0.0,-0.418651,1,0,0,0,0,0
539521362,0.02423391,0.032735564,0.9547995,-2.1104095e-10,0.8880996,0.0032408494,0.020102536,0.4591998,0.0,0.0,-0.45359054,1,0,0,0,0,0
539621176,0.021535855,0.024571694,0.9547995,-6.918753e-11,0.8881349,0.0039185635,0.015858378,0.45929235,0.0,0.0,-0.46382907,1,0,0,0,0,0
539721342,0.025277091,0.024074143,0.9547995,-2.2708965e-11,0.88812727,0.0056942394,0.0164966,0.4592661,0.0,0.0,-0.4547644,1,0,0,0,0,0
539821338,0.032789897,0.028674712,0.9547995,-7.4209e-12,0.88809,0.007973234,0.02026408,0.45915347,0.0,0.0,-0.40545106,1,0,0,0,0,0
539921366,0.05033001,0.03585813,0.9547995,-2.4306277e-12,0.887976,0.014110584,0.027478086,0.4588512,0.0,0.0,-0.35686323,1,0,0,0,0,0
540021618,0.052236687,0.04025573,0.9547995,-7.930752e-13,0.8879514,0.013946393,0.029866952,0.45875466,0.0,0.0,-0.34869474,1,0,0,0,0,0
540121704,0.052900843,0.038305365,0.9547995,-2.5976736e-13,0.88795185,0.014689536,0.029153846,0.45877638,0.0,0.0,-0.36249232,1,0,0,0,0,0
540221681,0.06533283,0.039679483,0.9547995,-8.515989e-14,0.8878418,0.019892877,0.03261461,0.45856026,0.0,0.0,-0.36202142,1,0,0,0,0,0
540321800,0.062995456,0.035715744,0.9547995,-2.7897052e-14,0.88786894,0.019766293,0.03032012,0.4586706,0.0,0.0,-0.36875218,1,0,0,0,0,0
540421819,0.058547955,0.041922934,0.9547995,-9.131025e-15,0.887899,0.01636515,0.032054156,0.4586285,0.0,0.0,-0.35572156,1,0,0,0,0,0
540542334,0.05971212,0.031397477,0.9547995,-2.3766597e-15,0.88790274,0.01930112,0.027650991,0.45879358,0.0,0.0,-0.36079028,1,0,0,0,0,0
540642531,0.05636191,0.03390482,0.9547995,-7.8090524e-16,0.8879319,0.017237531,0.027995069,0.4587985,0.0,0.0,-0.36508065,1,0,0,0,0,0
540742686,0.048991453,0.031751607,0.9547995,-2.557364e-16,0.887993,0.014460027,0.025348485,0.4589301,0.0,0.0,-0.3825567,1,0,0,0,0,0
540842268,0.042273562,0.028689403,0.9547995,-8.369952e-17,0.8880422,0.012180928,0.022447595,0.4590521,0.0,0.0,-0.374668,1,0,0,0,0,0
540942422,0.042119633,0.031489298,0.9547995,-2.7334628e-17,0.888038,0.011469166,0.02365507,0.4590179,0.0,0.0,-0.3723248,1,0,0,0,0,0
541044684,0.04485931,0.027056154,0.9547995,-8.7061165e-18,0.88802737,0.013704354,0.022316124,0.4590441,0.0,0.0,-0.37676817,1,0,0,0,0,0
541142624,0.037902027,0.031676624,0.9547995,-2.9272317e-18,0.8880597,0.009553396,0.02277019,0.4590645,0.0,0.0,-0.37203842,1,0,0,0,0,0
541243816,0.042981952,0.024880147,0.9547995,-9.43778e-19,0.88804173,0.013370793,0.020919304,0.45909214,0.0,0.0,-0.36887673,1,0,0,0,0,0
541363469,0.032005914,0.032499585,0.9547995,-2.4858383e-19,0.88808113,0.0067461994,0.021782078,0.45912078,0.0,0.0,-0.37330276,1,0,0,0,0,0
541463062,0.04083871,0.030074066,0.9547995,-8.1947135e-20,0.8880482,0.01122563,0.02273289,0.4590508,0.0,0.0,-0.34996316,1,0,0,0,0,0
541563059,0.03736338,0.025400072,0.9547995,-2.6792579e-20,0.88807505,0.010756511,0.019860314,0.45914325,0.0,0.0,-0.35047057,1,0,0,0,0,0
541663074,0.034963183,0.02208829,0.9547995,-8.7773056e-21,0.8880915,0.010451695,0.017839016,0.45920148,0.0,0.0,-0.38496554,1,0,0,0,0,0
541763442,0.03783709,0.02452972,0.9547995,-2.8690675e-21,0.8880735,0.01116685,0.019582693,0.45914835,0.0,0.0,-0.38817424,1,0,0,0,0,0
541863254,0.03341551,0.02371864,0.9547995,-9.405699e-22,0.8880973,0.009389846,0.018207481,0.4591988,0.0,0.0,-0.35576534,1,0,0,0,0,0
541963640,0.034278374,0.020388475,0.9547995,-3.0689183e-22,0.88809633,0.010538176,0.01692713,0.45922464,0.0,0.0,-0.3611355,1,0,0,0,0,0
542063616,0.032430373,0.020332586,0.9547995,-1.0056607e-22,0.88810575,0.009730411,0.016477985,0.45924062,0.0,0.0,-0.36151642,1,0,0,0,0,0
542163614,0.027485963,0.01566863,0.9547995,-3.2937978e-23,0.888131,0.008606391,0.013271764,0.4593181,0.0,0.0,-0.36470133,1,0,0,0,0,0
542263793,0.026925175,0.01529477,0.9547995,-1.07855556e-23,0.8881335,0.00844326,0.012976972,0.4593247,0.0,0.0,-0.37486765,1,0,0,0,0,0
542365390,0.017187653,0.017472347,0.9547995,-3.4580913e-24,0.88816047,0.0036187675,0.011707437,0.45937008,0.0,0.0,-0.38355026,1,0,0,0,0,0
542485111,0.018725391,0.0112166805,0.9547995,-9.108478e-25,0.8881639,0.005738881,0.0092828,0.4593972,0.0,0.0,-0.37010747,1,0,0,0,0,0
542583960,0.019546874,0.009384002,0.9547995,-3.022994e-25,0.88816154,0.0065247333,0.008657678,0.4594034,0.0,0.0,-0.37106776,1,0,0,0,0,0
542684019,0.020085778,0.011752422,0.9547995,-9.8980196e-26,0.8881597,0.006219918,0.009833175,0.45938763,0.0,0.0,-0.4054253,1,0,0,0,0,0
542784223,0.020075107,0.012141904,0.9547995,-3.2399377e-26,0.8881596,0.0061256974,0.010003675,0.4593854,0.0,0.0,-0.3920532,1,0,0,0,0,0
542884221,0.016212218,0.016798196,0.9547995,-1.0609327e-26,0.88816345,0.0033404822,0.011184036,0.45937937,0.0,0.0,-0.40987808,1,0,0,0,0,0
542984504,0.019616334,0.011625149,0.9547995,-3.4682474e-27,0.8881611,0.006040688,0.009668831,0.45939073,0.0,0.0,-0.40532967,1,0,0,0,0,0
543084863,0.019569004,0.013546197,0.9547995,-1.135167e-27,0.8881602,0.0055783135,0.010511003,0.45937976,0.0,0.0,-0.38788402,1,0,0,0,0,0
543185106,0.010281035,0.01661277,0.9547995,-3.716229e-28,0.8881699,0.0007491418,0.009739316,0.4594114,0.0,0.0,-0.3820004,1,0,0,0,0,0
543285211,0.008795629,0.018815536,0.9547995,-1.207134e-28,0.8881638,-0.00041657122,0.010376278,0.45940965,0.0,0.0,-0.41281673,1,0,0,0,0,0
543385316,0.017757392,0.02082927,0.9547995,-3.9557232e-29,0.888152,0.0031005116,0.013328901,0.459346,0.0,0.0,-0.38964885,1,0,0,0,0,0
543505728,0.013602668,0.023008214,0.9547995,-1.0298743e-29,0.8881493,0.0007548825,0.013342186,0.45936072,0.0,0.0,-0.3772383,1,0,0,0,0,0
543605406,0.024978148,0.03137048,0.9547995,-3.3926328e-30,0.88810414,0.0038849933,0.019667374,0.4592049,0.0,0.0,-0.32345954,1,0,0,0,0,0
543705917,0.021420788,0.024203148,0.9547995,-1.1028176e-30,0.88813627,0.0039521456,0.015668312,0.45929605,0.0,0.0,-0.39608628,1,0,0,0,0,0
543805371,0.020493215,0.019064134,0.9547995,-3.6438012e-31,0.8881505,0.004720975,0.013173465,0.45933953,0.0,0.0,-0.41921067,1,0,0,0,0,0
543905473,0.026944064,0.014703526,0.9547995,-1.189551e-31,0.8881336,0.008587489,0.012718787,0.45932916,0.0,0.0,-0.40676212,1,0,0,0,0,0
544005418,0.019441472,0.020165201,0.9547995,-3.9001774e-32,0.88815063,0.004000944,0.0134208165,0.45933908,0.0,0.0,-0.40347624,1,0,0,0,0,0
544105504,0.020678062,0.016001204,0.9547995,-1.2774091e-32,0.8881548,0.005506784,0.0118558705,0.45935842,0.0,0.0,-0.44757324,1,0,0,0,0,0
544205643,0.015265128,0.010930669,0.9547995,-4.181366e-33,0.88817275,0.0042679417,0.00836096,0.4594139,0.0,0.0,-0.4192792,1,0,0,0,0,0
544305698,0.022003034,0.014412138,0.9547995,-1.3675812e-33,0.88815224,0.0064602643,0.011454582,0.45936102,0.0,0.0,-0.39672604,1,0,0,0,0,0
544405679,0.023584303,0.01735327,0.9547995,-4.48185e-34,0.8881445,0.0064867293,0.013123715,0.4593311,0.0,0.0,-0.40795803,1,0,0,0,0,0
544506015,0.017448038,0.016149797,0.9547995,-1.462448e-34,0.88816226,0.0040382575,0.011179968,0.4593762,0.0,0.0,-0.3802789,1,0,0,0,0,0
544606142,0.016255941,0.016464632,0.9547995,-4.7934998e-35,0.888164,0.003436535,0.011045958,0.45938104,0.0,0.0,-0.42036542,1,0,0,0,0,0
544726187,0.012701216,0.018050004,0.9547995,-1.2549333e-35,0.888165,0.0014937072,0.010933452,0.45939234,0.0,0.0,-0.42632958,1,0,0,0,0,0
544827125,0.016929086,0.018645378,0.9547995,-4.062789e-36,0.8881585,0.0032344367,0.012168926,0.4593647,0.0,0.0,-0.37948224,1,0,0,0,0,0
544926341,0.011029044,0.013909984,0.9547995,-1.34331125e-36,0.88817537,0.0017022707,0.008710918,0.459419,0.0,0.0,-0.42887422,1,0,0,0,0,0
545027174,0.011981568,0.022652172,0.9547995,-4.353682e-37,0.88815093,0.000116792435,0.012811751,0.4593732,0.0,0.0,-0.3932386,1,0,0,0,0,0
545126616,0.0108987875,-0.07913236,0.9547995,-1.4390851e-37,0.8873853,0.023010807,-0.03263084,0.4592962,0.0,0.0,-0.42807832,1,0,0,0,0,0
545226644,0.011429839,-0.18847688,0.9547995,-4.7101503e-38,0.8839901,0.048288483,-0.08096252,0.45790264,0.0,0.0,-0.42342505,1,0,0,0,0,0
545326727,0.0071600475,-0.30968997,0.9547995,-1.5418072e-38,0.8773066,0.07400408,-0.13535713,0.45446134,0.0,0.0,-0.3913106,1,0,0,0,0,0
545426954,0.012029179,-0.4001135,0.9547995,-5.038119e-39,0.86991304,0.09654227,-0.17379443,0.45136067,0.0,0.0,-0.41136086,1,0,0,0,0,0
545527615,0.005120496,-0.4749185,0.9547995,-1.635985e-39,0.86298937,0.11029304,-0.207789,0.44711134,0.0,0.0,-0.43664426,1,0,0,0,0,0
545627562,0.0029731719,-0.48983997,0.9547995,-5.36772e-40,0.8615196,0.11269282,-0.2147049,0.44607872,0.0,0.0,-0.4013003,1,0,0,0,0,0
545727800,0.008802325,-0.48270628,0.9547995,-1.75302e-40,0.86195713,0.113616005,-0.21032728,0.44708365,0.0,0.0,-0.39727625,1,0,0,0,0,0
545827751,0.011035994,-0.35218298,0.9547995,-5.7505e-41,0.87400013,0.08531548,-0.15309763,0.45321754,0.0,0.0,-0.3923408,1,0,0,0,0,0
545927570,0.009769047,-0.22379129,0.9547995,-1.8892e-41,0.88237697,0.05561624,-0.096946195,0.45707673,0.0,0.0,-0.39736703,1,0,0,0,0,0
546028041,0.004970685,-0.043222424,0.9547995,-6.138e-42,0.8879579,0.01213587,-0.018051691,0.45941016,0.0,0.0,-0.3542353,1,0,0,0,0,0
546148256,0.0041328436,-0.006152453,0.9547995,-1.604e-42,0.88818365,0.003248803,-0.0017828154,0.45947376,0.0,0.0,-0.35181168,1,0,0,0,0,0
546247872,0.008313083,-0.00053433364,0.9547995,-5.3e-43,0.8881844,0.0038145534,0.0016725118,0.4594682,0.0,0.0,-0.3914397,1,0,0,0,0,0
546349827,0.010427601,-0.010575097,0.9547995,-1.7e-43,0.8881555,0.007060205,-0.0023007293,0.459483,0.0,0.0,-0.43920878,1,0,0,0,0,0
546447870,0.0076030856,-0.025303945,0.9547995,-5.7e-44,0.8880931,0.009189243,-0.009490452,0.45947382,0.0,0.0,-0.43783528,1,0,0,0,0,0
546548781,0.010563489,0.010459835,0.9547995,-1.8e-44,0.88818085,0.002288169,0.0070718527,0.459434,0.0,0.0,-0.4118568,1,0,0,0,0,0
546648137,0.02072792,0.06978331,0.9547995,-7e-45,0.88777053,-0.0068281707,0.035741515,0.45884573,0.0,0.0,-0.38854986,1,0,0,0,0,0
546748222,0.023216067,0.124377735,0.9547995,-3e-45,0.8867475,-0.018263645,0.060519505,0.4579113,0.0,0.0,-0.39777267,1,0,0,0,0,0
546848291,0.0142059885,0.118697844,0.9547995,-3e-45,0.8868001,-0.020954758,0.055938855,0.45827642,0.0,0.0,-0.39146292,1,0,0,0,0,0
546948544,0.020561552,0.15547596,0.9547995,-3e-45,0.8858303,-0.026576942,0.07368252,0.45735022,0.0,0.0,-0.41478726,1,0,0,0,0,0
547048516,0.014802908,0.18834968,0.9547995,-3e-45,0.88455254,-0.036660787,0.08690518,0.45680445,0.0,0.0,-0.42769197,1,0,0,0,0,0
547169451,0.015084629,0.18088938,0.9547995,-3e-45,0.88485014,-0.03482733,0.08367184,0.45697504,0.0,0.0,-0.44957343,1,0,0,0,0,0
547268915,0.013242713,0.20066015,0.9547995,-3e-45,0.88401145,-0.04016905,0.091988064,0.45656154,0.0,0.0,-0.39602527,1,0,0,0,0,0
547370719,0.014317175,0.18365261,0.9547995,-3e-45,0.8847296,-0.03579983,0.08471807,0.45694065,0.0,0.0,-0.36610237,1,0,0,0,0,0
547468938,0.015689502,0.17739673,0.9547995,-3e-45,0.88499314,-0.03375949,0.082265794,0.45703366,0.0,0.0,-0.36947155,1,0,0,0,0,0
547571516,0.011377948,0.16098513,0.9547995,-3e-45,0.8855127,-0.03190698,0.07402001,0.45756984,0.0,0.0,-0.369843,1,0,0,0,0,0
547669145,0.013837336,0.10617624,0.9547995,-3e-45,0.88708884,-0.018244019,0.05030363,0.4584868,0.0,0.0,-0.3878566,1,0,0,0,0,0
547769353,0.014870877,0.13171454,0.9547995,-3e-45,0.8864676,-0.023647087,0.06185898,0.45802787,0.0,0.0,-0.39039934,1,0,0,0,0,0
547869337,0.015660008,0.10208985,0.9547995,-3e-45,0.88719213,-0.01649735,0.048909597,0.45850384,0.0,0.0,-0.4018505,1,0,0,0,0,0
547969421,0.019708557,0.108781256,0.9547995,-3e-45,0.8870823,-0.016237982,0.05280419,0.45829365,0.0,0.0,-0.39767206,1,0,0,0,0,0
548070004,0.021857107,0.09206909,0.9547995,-3e-45,0.8874298,-0.011446632,0.045886602,0.45851037,0.0,0.0,-0.41728196,1,0,0,0,0,0
548170129,0.022915078,0.1171294,0.9547995,-3e-45,0.88691986,-0.016732812,0.057238862,0.4580577,0.0,0.0,-0.41315556,1,0,0,0,0,0
548270655,0.024038892,0.117945135,0.9547995,-3e-45,0.8869101,-0.01642177,0.05785773,0.45801017,0.0,0.0,-0.42339572,1,0,0,0,0,0
548372856,0.02825987,0.10726106,0.9547995,-3e-45,0.88717514,-0.012095771,0.05408941,0.4580921,0.0,0.0,-0.40341032,1,0,0,0,0,0
548491887,0.029549295,0.102809146,0.9547995,-3e-45,0.8872714,-0.0105010215,0.05241139,0.45814,0.0,0.0,-0.41252217,1,0,0,0,0,0
548590146,0.032151554,0.075513594,0.9547995,-3e-45,0.8877238,-0.0030742001,0.040903784,0.45854545,0.0,0.0,-0.37821382,1,0,0,0,0,0
548691108,0.028304089,0.022980414,0.9547995,-3e-45,0.8881198,0.0072897184,0.016706081,0.45925045,0.0,0.0,-0.3821564,1,0,0,0,0,0
548790232,0.025453135,-0.08087417,0.9547995,-3e-45,0.88715833,0.02986721,-0.030060673,0.4595154,0.0,0.0,-0.43582624,1,0,0,0,0,0
548890299,0.022923447,-0.037772015,0.9547995,-3e-45,0.8878765,0.01885467,-0.011507037,0.45955133,0.0,0.0,-0.41375673,1,0,0,0,0,0
548990423,0.02871285,-0.12664948,0.9547995,-3e-45,0.88590366,0.04179874,-0.049618285,0.4593099,0.0,0.0,-0.39244688,1,0,0,0,0,0
549090466,0.029141482,-0.16927093,0.9547995,-3e-45,0.8843536,0.05173187,-0.06840429,0.4588719,0.0,0.0,-0.36163792,1,0,0,0,0,0
549190628,0.038246132,-0.15309715,0.9547995,-3e-45,0.8847579,0.052065298,-0.05915085,0.45934072,0.0,0.0,-0.31473374,1,0,0,0,0,0
549290779,0.033990357,-0.15404098,0.9547995,-3e-45,0.88483083,0.050398137,-0.06054628,0.4592043,0.0,0.0,-0.29441237,1,0,0,0,0,0
549391282,0.03356719,-0.13789244,0.9547995,-3e-45,0.88542646,0.046520203,-0.05348751,0.45934188,0.0,0.0,-0.34992766,1,0,0,0,0,0
549511055,0.025390705,-0.101463884,0.9547995,-3e-45,0.8866827,0.0345591,-0.039211296,0.45941487,0.0,0.0,-0.4219278,1,0,0,0,0,0
549611315,0.025292542,-0.070744246,0.9547995,-3e-45,0.8873607,0.027472787,-0.025601393,0.45954427,0.0,0.0,-0.43230805,1,0,0,0,0,0
549712796,0.027093612,-0.052529603,0.9547995,-3e-45,0.8876414,0.02409308,-0.017101353,0.4595866,0.0,0.0,-0.42429772,1,0,0,0,0,0
549811335,0.019809145,-0.04653488,0.9547995,-3e-45,0.88780284,0.019483874,-0.016113533,0.459529,0.0,0.0,-0.43395576,1,0,0,0,0,0
549912239,0.018586207,-0.037074797,0.9547995,-3e-45,0.8879226,0.016769072,-0.012194009,0.4595254,0.0,0.0,-0.47795442,1,0,0,0,0,0
550011470,0.015611214,-0.0086397,0.9547995,-3e-45,0.8881419,0.008917527,-0.00025034917,0.45948285,0.0,0.0,-0.4973968,1,0,0,0,0,0
550111880,0.019481698,-0.01626812,0.9547995,-3e-45,0.8880847,0.012388477,-0.0027487695,0.4595046,0.0,0.0,-0.50972503,1,0,0,0,0,0
550211799,0.013582577,-0.0085594645,0.9547995,-3e-45,0.8881507,0.007998234,-0.0006807788,0.45948216,0.0,0.0,-0.5124938,1,0,0,0,0,0
550311820,0.019466404,-0.0036578819,0.9547995,-3e-45,0.8881409,0.0094851125,0.0028476736,0.45946443,0.0,0.0,-0.5218425,1,0,0,0,0,0
550411933,0.015669601,-0.0038313756,0.9547995,-3e-45,0.8881569,0.007838904,0.0018983752,0.45946956,0.0,0.0,-0.520878,1,0,0,0,0,0
550532531,0.019347947,-0.0066621527,0.9547995,-3e-45,0.8881314,0.010122629,0.001486324,0.45947576,0.0,0.0,-0.522268,1,0,0,0,0,0
550632399,0.02786361,-0.012907674,0.9547995,-3e-45,0.8880467,0.015338513,0.00066926825,0.4594969,0.0,0.0,-0.49802095,1,0,0,0,0,0
550732550,0.022735806,-0.013228679,0.9547995,-3e-45,0.8880813,0.013135331,-0.0006513882,0.4594983,0.0,0.0,-0.45846856,1,0,0,0,0,0
550832506,0.02329081,-0.020860828,0.9547995,-3e-45,0.8880283,0.015134629,-0.0039131055,0.4595229,0.0,0.0,-0.44365764,1,0,0,0,0,0
550932391,0.031729486,-0.025358787,0.9547995,-3e-45,0.8879171,0.019914148,-0.0039715255,0.45955512,0.0,0.0,-0.4402335,1,0,0,0,0,0
551033516,0.023834301,-0.004977273,0.9547995,-3e-45,0.88811326,0.0117278155,0.0032652111,0.45946348,0.0,0.0,-0.44280416,1,0,0,0,0,0
551132769,0.024173534,0.0031557924,0.9547995,-3e-45,0.8881355,0.010010159,0.0069547514,0.45942008,0.0,0.0,-0.44561937,1,0,0,0,0,0
551233101,0.016505614,0.004535279,0.9547995,-3e-45,0.88816875,0.006288102,0.0058059045,0.4594378,0.0,0.0,-0.44467384,1,0,0,0,0,0
551332746,0.018277911,0.015236759,0.9547995,-3e-45,0.8881618,0.0046165595,0.010965147,0.45937684,0.0,0.0,-0.45126876,1,0,0,0,0,0
551433017,0.01525898,-0.0046298816,0.9547995,-3e-45,0.88815635,0.00783999,0.0014494356,0.45947227,0.0,0.0,-0.44773525,1,0,0,0,0,0
551532879,0.015954502,-0.013694884,0.9547995,-3e-45,0.8881185,0.010231172,-0.0024164147,0.45949432,0.0,0.0,-0.4504896,1,0,0,0,0,0
551633057,0.015914293,-0.11342095,0.9547995,-3e-45,0.8865295,0.033098083,-0.04669108,0.4591186,0.0,0.0,-0.4515391,1,0,0,0,0,0
551733702,0.013668235,-0.22185649,0.9547995,-3e-45,0.8823654,0.056895338,-0.09520067,0.45730847,0.0,0.0,-0.45784268,1,0,0,0,0,0
551833676,0.0127635,-0.3083239,0.9547995,-3e-45,0.8771911,0.07615226,-0.13348357,0.45488322,0.0,0.0,-0.4616059,1,0,0,0,0,0
551953510,0.015342708,-0.4098446,0.9547995,-3e-45,0.868866,0.10016654,-0.17728297,0.45123085,0.0,0.0,-0.4664412,1,0,0,0,0,0
552053669,0.026555467,-0.47481364,0.9547995,-3e-45,0.861769,0.119512334,-0.20293994,0.4493176,0.0,0.0,-0.47538134,1,0,0,0,0,0
552154997,0.019903356,-0.54145175,0.9547995,-3e-45,0.8545769,0.13138765,-0.23311253,0.44507778,0.0,0.0,-0.48072693,1,0,0,0,0,0
552253679,0.025559684,-0.58985615,0.9547995,-3e-45,0.8480671,0.14440463,-0.25253254,0.442896,0.0,0.0,-0.48310006,1,0,0,0,0,0
552354517,0.014515777,-0.59543777,0.9547995,-3e-45,0.8481188,0.14094058,-0.2573477,0.4411376,0.0,0.0,-0.47303778,1,0,0,0,0,0
552453866,0.018217616,-0.6051037,0.9547995,-3e-45,0.8465681,0.14461985,-0.26063728,0.44099402,0.0,0.0,-0.48201764,1,0,0,0,0,0
552555196,0.016821144,-0.6106631,0.9547995,-3e-45,0.8459197,0.14524108,-0.26330402,0.44044954,0.0,0.0,-0.49115244,1,0,0,0,0,0
552654269,0.011794882,-0.61076593,0.9547995,-3e-45,0.84626824,0.14313716,-0.26445365,0.43977952,0.0,0.0,-0.49418765,1,0,0,0,0,0
552754249,0.010951477,-0.61077964,0.9547995,-3e-45,0.84632665,0.14278327,-0.26464492,0.43966708,0.0,0.0,-0.50908244,1,0,0,0,0,0
552874257,0.0039151576,-0.5273616,0.9547995,-3e-45,0.8572582,0.12143305,-0.23062606,0.44404295,0.0,0.0,-0.49473506,1,0,0,0,0,0
552974989,0.0009009061,-0.43174642,0.9547995,-3e-45,0.8675331,0.09880971,-0.19004908,0.4488924,0.0,0.0,-0.48986244,1,0,0,0,0,0
553074970,-0.0018490659,-0.37771228,0.9547995,-3e-45,0.8724797,0.085452445,-0.16716245,0.4511473,0.0,0.0,-0.51074386,1,0,0,0,0,0
553175042,-0.0051530804,-0.30705762,0.9547995,-3e-45,0.8779235,0.06800348,-0.13699757,0.45371526,0.0,0.0,-0.5154603,1,0,0,0,0,0
553275560,-0.0077545117,-0.20795953,0.9547995,-3e-45,0.8835738,0.044264168,-0.09395891,0.4566287,0.0,0.0,-0.5152842,1,0,0,0,0,0
553375003,3.3285094e-05,-0.108952805,0.9547995,-3e-45,0.8868747,0.025032718,-0.048353978,0.45879036,0.0,0.0,-0.5090005,1,0,0,0,0,0
553478191,0.0015579911,-0.019732222,0.9547995,-3e-45,0.8881456,0.005224983,-0.008404954,0.45945555,0.0,0.0,-0.49750498,1,0,0,0,0,0
553575219,0.0066846074,0.000115652896,0.9547995,-3e-45,0.88818777,0.002942035,0.0015870502,0.45946848,0.0,0.0,-0.48339912,1,0,0,0,0,0
553675234,0.007890375,0.00400421,0.9547995,-3e-45,0.88818765,0.002584169,0.0035909314,0.4594597,0.0,0.0,-0.4715996,1,0,0,0,0,0
553775419,0.0014441228,0.04123572,0.9547995,-3e-45,0.8880105,-0.008831444,0.018643023,0.45936024,0.0,0.0,-0.46287388,1,0,0,0,0,0
553877697,0.013386029,0.11972905,0.9547995,-3e-45,0.8867657,-0.02155499,0.056208003,0.45828217,0.0,0.0,-0.46071556,1,0,0,0,0,0
553997176,0.008550216,0.031592704,0.9547995,-3e-45,0.8881048,-0.0034609658,0.01599353,0.45934966,0.0,0.0,-0.43890744,1,0,0,0,0,0
554095563,0.013820236,0.0060502267,0.9547995,-3e-45,0.88817704,0.004747522,0.0058617755,0.45943955,0.0,0.0,-0.43552527,1,0,0,0,0,0
554196040,0.030624257,0.0142251095,0.9547995,-3e-45,0.8881161,0.010331642,0.013351554,0.45930895,0.0,0.0,-0.43375656,1,0,0,0,0,0
554296135,0.0015845174,0.072710775,0.9547995,-3e-45,0.8876188,-0.015997354,0.032647245,0.45914188,0.0,0.0,-0.40351242,1,0,0,0,0,0
554395896,0.009421338,0.22028965,0.9547995,-3e-45,0.8830386,-0.046346925,0.09978233,0.45622188,0.0,0.0,-0.36701944,1,0,0,0,0,0
554498313,0.014058904,0.16058059,0.9547995,-3e-45,0.8855685,-0.030627202,0.07445429,0.4574789,0.0,0.0,-0.33790618,1,0,0,0,0,0
554596066,0.019816263,0.18691039,0.9547995,-3e-45,0.8846983,-0.034113605,0.087413944,0.45662248,0.0,0.0,-0.325254,1,0,0,0,0,0
554696802,0.010232659,0.06960945,0.9547995,-3e-45,0.88772494,-0.011446813,0.033256028,0.45902875,0.0,0.0,-0.31637287,1,0,0,0,0,0
554796937,0.023435587,0.022686025,0.9547995,-3e-45,0.8881357,0.005195433,0.015457393,0.45929205,0.0,0.0,-0.3180524,1,0,0,0,0,0
554896379,0.016258337,-0.008469216,0.9547995,-3e-45,0.88813955,0.009165733,-2.5968071e-05,0.45948243,0.0,0.0,-0.3152194,1,0,0,0,0,0
554996423,0.021558646,0.10635479,0.9547995,-3e-45,0.88714886,-0.01486015,0.052152462,0.45828617,0.0,0.0,-0.3312033,1,0,0,0,0,0
555096596,0.03819041,0.096964955,0.9547995,-3e-45,0.8874124,-0.0053242533,0.05179992,0.4580257,0.0,0.0,-0.3316643,1,0,0,0,0,0
555216741,0.032908235,0.030645315,0.9547995,-3e-45,0.888084,0.007572959,0.021166062,0.45913115,0.0,0.0,-0.3252027,1,0,0,0,0,0
555316772,0.034963205,0.02713009,0.9547995,-3e-45,0.8880842,0.009293207,0.020077307,0.4591481,0.0,0.0,-0.32090205,1,0,0,0,0,0
555416893,0.02940078,0.00077459804,0.9547995,-3e-45,0.88809925,0.012878374,0.007098121,0.45941642,0.0,0.0,-0.3141684,1,0,0,0,0,0
555517394,0.03809783,-0.062370796,0.9547995,-3e-45,0.8873269,0.031233728,-0.018941486,0.45969194,0.0,0.0,-0.308649,1,0,0,0,0,0
555617448,0.035834085,-0.020617774,0.9547995,-3e-45,0.88791806,0.020647882,-0.000923159,0.459537,0.0,0.0,-0.2970229,1,0,0,0,0,0
555717411,0.030878423,0.004188235,0.9547995,-3e-45,0.88809973,0.012750347,0.008953332,0.45938674,0.0,0.0,-0.29360393,1,0,0,0,0,0
555817484,0.041290443,0.0041520754,0.9547995,-3e-45,0.8880212,0.017381916,0.011328717,0.45933416,0.0,0.0,-0.2856845,1,0,0,0,0,0
555917523,0.04577218,0.009105862,0.9547995,-3e-45,0.88799876,0.018233888,0.014557281,0.45925358,0.0,0.0,-0.2827731,1,0,0,0,0,0
556019474,0.051889874,-0.011797907,0.9547995,-3e-45,0.887808,0.025750589,0.006681793,0.4594445,0.0,0.0,-0.27785674,1,0,0,0,0,0
556117590,0.054262772,0.014451125,0.9547995,-3e-45,0.88793266,0.020775625,0.01887951,0.45911595,0.0,0.0,-0.2687999,1,0,0,0,0,0
556217730,0.047558717,-0.010641014,0.9547995,-3e-45,0.88787085,0.02356228,0.0062004696,0.45944715,0.0,0.0,-0.26113263,1,0,0,0,0,0
556338676,0.036443632,-0.06921779,0.9547995,-3e-45,0.8872238,0.03206987,-0.022361204,0.45967975,0.0,0.0,-0.30175596,1,0,0,0,0,0
556437865,0.032265764,-0.076928206,0.9547995,-3e-45,0.8871352,0.031984378,-0.026743874,0.4596225,0.0,0.0,-0.33112597,1,0,0,0,0,0
556538005,0.037416607,-0.06799288,0.9547995,-3e-45,0.88723195,0.03222065,-0.021593831,0.4596901,0.0,0.0,-0.3451238,1,0,0,0,0,0
556638463,0.043349896,-0.15005118,0.9547995,-3e-45,0.88473964,0.053627543,-0.056628823,0.45951393,0.0,0.0,-0.36494908,1,0,0,0,0,0
556738701,0.026216213,-0.094489835,0.9547995,-3e-45,0.88684094,0.033326942,-0.035927474,0.4594689,0.0,0.0,-0.35492906,1,0,0,0,0,0
556838710,0.043327663,-0.18225312,0.9547995,-3e-45,0.8833941,0.060962617,-0.07089517,0.45920828,0.0,0.0,-0.3634942,1,0,0,0,0,0
556939102,0.034220133,-0.16935506,0.9547995,-3e-45,0.88421583,0.053996567,-0.06727609,0.4590431,0.0,0.0,-0.35679537,1,0,0,0,0,0
557038726,0.038625482,-0.14489278,0.9627895,0.021001905,0.8832129,0.050580133,-0.055226646,0.4629542,0.0,0.0,-0.35553285,1,0,0,0,0,0
557139278,0.045622647,-0.083903745,0.9657394,0.022415774,0.88421243,0.039652117,-0.026553214,0.46464074,0.0,0.0,-0.34964907,1,0,0,0,0,0
557238689,0.043332588,-0.108409435,0.96851057,0.014628809,0.8829682,0.04436218,-0.037866496,0.46579534,0.0,0.0,-0.35744652,1,0,0,0,0,0
557338725,0.04481152,-0.121900246,0.9711074,0.13797607,0.8819159,0.04819814,-0.04342198,0.46692154,0.0,0.0,-0.35223025,1,0,0,0,0,0
557438992,0.056585148,-0.110222414,0.97952724,0.10727518,0.88001865,0.05082716,-0.035301153,0.47089013,0.0,0.0,-0.3588446,1,0,0,0,0,0
557539161,0.06949711,-0.09065103,0.9903101,0.06313388,0.8777128,0.052054398,-0.023352848,0.47577858,0.0,0.0,-0.3507182,1,0,0,0,0,0
557659038,0.08138091,-0.1314926,1.0014747,0.25749087,0.87332594,0.06712205,-0.038098518,0.48098335,0.0,0.0,-0.35689187,1,0,0,0,0,0
557759177,0.08692592,-0.08096334,1.0199679,0.13216135,0.8703554,0.057626996,-0.014094505,0.48883736,0.0,0.0,-0.35043213,1,0,0,0,0,0
557859293,0.11173051,-0.05938785,1.0361818,0.08644897,0.86620754,0.06316721,0.0018860998,0.49567214,0.0,0.0,-0.353775,1,0,0,0,0,0
557959772,0.11561172,-0.087983094,1.0500225,0.09236709,0.8617637,0.071949884,-0.0090613905,0.5021,0.0,0.0,-0.35143,1,0,0,0,0,0
558059529,0.11516283,-0.0812383,1.0631875,0.11144651,0.8586772,0.070117235,-0.0057978034,0.50766474,0.0,0.0,-0.35865995,1,0,0,0,0,0
558159808,0.118886836,-0.076405495,1.0784881,0.13301593,0.8547914,0.07051822,-0.0022325863,0.51415354,0.0,0.0,-0.3542402,1,0,0,0,0,0
558259820,0.13093178,-0.035560206,1.0935857,0.12065816,0.8516272,0.06509644,0.01885496,0.5197481,0.0,0.0,-0.36372772,1,0,0,0,0,0
558359864,0.13838583,0.040983994,1.1097484,0.08755105,0.8485012,0.047983076,0.053791232,0.5242612,0.0,0.0,-0.35644487,1,0,0,0,0,0
558460287,0.13442755,-0.035490103,1.1235135,0.049453333,0.84364194,0.06626311,0.02078712,0.5323959,0.0,0.0,-0.35066935,1,0,0,0,0,0
558580379,0.12669651,0.07782515,1.13811,0.012948311,0.8414114,0.032369025,0.066792056,0.53527373,0.0,0.0,-0.35771576,1,0,0,0,0,0
558680046,0.1423412,0.049827598,1.1471171,0.0042563644,0.8385501,0.046229336,0.059446193,0.53959495,0.0,0.0,-0.3595622,1,0,0,0,0,0
558780227,0.15141192,0.042482533,1.155004,0.001393209,0.8361177,0.051791564,0.05902582,0.5429004,0.0,0.0,-0.35006446,1,0,0,0,0,0
558880358,0.1267421,-0.019066095,1.1607823,0.00045602475,0.8342006,0.05817294,0.026768876,0.5477304,0.0,0.0,-0.3550101,1,0,0,0,0,0
558980600,0.12414025,-0.05968632,1.1650599,0.00014884415,0.832076,0.06816059,0.009240492,0.5503801,0.0,0.0,-0.3484238,1,0,0,0,0,0
559080942,0.11614857,-0.048957072,1.1684958,4.876043e-05,0.83168787,0.06187718,0.011622812,0.5516623,0.0,0.0,-0.35445356,1,0,0,0,0,0
559181182,0.11241895,-0.10987302,1.1710746,1.5971878e-05,0.82913893,0.077047855,-0.0146888085,0.55351293,0.0,0.0,-0.35694498,1,0,0,0,0,0
559281169,0.08048577,-0.095204525,1.1725556,5.2001706e-06,0.8303294,0.059780918,-0.017372167,0.5537848,0.0,0.0,-0.35689577,1,0,0,0,0,0
559401731,0.094310656,-0.13673785,1.1736352,1.3508875e-06,0.828055,0.0769456,-0.030783804,0.55448765,0.0,0.0,-0.3630952,1,0,0,0,0,0
559501081,0.0778307,-0.17501557,1.1754521,4.4732454e-07,0.8265064,0.0806753,-0.05118692,0.55476,0.0,0.0,-0.3613159,1,0,0,0,0,0
559601140,0.06402616,-0.152683,1.176426,1.4621445e-07,0.8277309,0.06884785,-0.045708377,0.5550065,0.0,0.0,-0.35325933,1,0,0,0,0,0
559701351,0.07986129,-0.21255833,1.1770774,4.7816698e-08,0.82404965,0.09185878,-0.06612492,0.5550961,0.0,0.0,-0.37534186,1,0,0,0,0,0
559801392,0.057260077,-0.16048881,1.1770774,1.5650668e-08,0.82746273,0.06821459,-0.050804026,0.5550416,0.0,0.0,-0.3681588,1,0,0,0,0,0
559901406,0.06910708,-0.13694163,1.1770774,5.125511e-09,0.8279964,0.06662591,-0.037738826,0.5554806,0.0,0.0,-0.3636405,1,0,0,0,0,0
560001518,0.064610764,-0.15116207,1.1770774,1.675349e-09,0.82759154,0.06868543,-0.044892233,0.555301,0.0,0.0,-0.3724223,1,0,0,0,0,0
560101582,0.05992824,-0.15092395,1.1770774,5.488201e-10,0.8277595,0.06668199,-0.046093363,0.55519646,0.0,0.0,-0.36651096,1,0,0,0,0,0
560201608,0.05705461,-0.16661288,1.1770774,1.7968661e-10,0.8272134,0.069817156,-0.05340233,0.55497,0.0,0.0,-0.36607558,1,0,0,0,0,0
560301688,0.06752349,-0.19514118,1.1770774,5.886202e-11,0.8254996,0.08199177,-0.062329717,0.5549259,0.0,0.0,-0.366177,1,0,0,0,0,0
560401860,0.04801734,-0.2527858,1.1770774,1.926935e-11,0.82320017,0.089767784,-0.09159702,0.5530762,0.0,0.0,-0.36563683,1,0,0,0,0,0
560502118,0.058015972,-0.1755117,1.1770774,6.2928677e-12,0.82679236,0.07266561,-0.056827404,0.5548916,0.0,0.0,-0.3593196,1,0,0,0,0,0
560601987,0.051470082,-0.2511294,1.1770774,2.0621434e-12,0.8231423,0.090735026,-0.0899574,0.55327356,0.0,0.0,-0.3695579,1,0,0,0,0,0
560722245,0.037743278,-0.25395966,1.1770774,5.3989604e-13,0.8235827,0.085859805,-0.094921924,0.55256623,0.0,0.0,-0.36883,1,0,0,0,0,0
560822376,0.04288196,-0.20678373,1.1770774,1.7638273e-13,0.82589257,0.07501922,-0.0739852,0.5538951,0.0,0.0,-0.3681539,1,0,0,0,0,0
560922443,0.04729779,-0.15490031,1.1770774,5.77046e-14,0.8280119,0.06255041,-0.051248986,0.554849,0.0,0.0,-0.3684702,1,0,0,0,0,0
561022656,0.037591554,-0.16538733,1.1770774,1.8884466e-14,0.8279024,0.061425764,-0.058292057,0.55444264,0.0,0.0,-0.36113802,1,0,0,0,0,0
561122637,0.044630557,-0.13704722,1.1770774,6.1896695e-15,0.8287461,0.056517087,-0.044577785,0.55497617,0.0,0.0,-0.36376628,1,0,0,0,0,0
561222612,0.042528763,-0.12850887,1.1770774,2.027521e-15,0.8290908,0.05328688,-0.041615363,0.55501086,0.0,0.0,-0.36149254,1,0,0,0,0,0
561322884,0.048632458,-0.13225469,1.1770774,6.6351463e-16,0.82879764,0.05685165,-0.041477054,0.55510545,0.0,0.0,-0.36000842,1,0,0,0,0,0
561423003,0.05864441,-0.13151017,1.1770774,2.1692812e-16,0.8285291,0.06079434,-0.038388476,0.5553106,0.0,0.0,-0.36034727,1,0,0,0,0,0
561523417,0.054273468,-0.17434485,1.1770774,7.0993246e-17,0.8269781,0.07079696,-0.057381637,0.55479944,0.0,0.0,-0.3697657,1,0,0,0,0,0
561623567,0.046417464,-0.073436715,1.1770774,2.3256396e-17,0.83049536,0.03966317,-0.017651113,0.5553311,0.0,0.0,-0.35572988,1,0,0,0,0,0
561743618,0.04477667,-0.12129038,1.1770774,6.0482545e-18,0.8292625,0.052223653,-0.037993345,0.5551153,0.0,0.0,-0.35912,1,0,0,0,0,0
561843494,0.047675937,-0.09252825,1.1770774,1.9869023e-18,0.8300148,0.0454711,-0.025237514,0.55531144,0.0,0.0,-0.35895064,1,0,0,0,0,0
561944131,0.034604605,-0.10249859,1.1770774,6.4462754e-19,0.8300444,0.042805765,-0.03300949,0.55507153,0.0,0.0,-0.35418162,1,0,0,0,0,0
562043701,0.052479874,-0.086003825,1.1770774,2.1253077e-19,0.8300717,0.045659244,-0.021191766,0.5553801,0.0,0.0,-0.35611755,1,0,0,0,0,0
562144400,0.06751264,-0.08942741,1.1770774,6.8962015e-20,0.8296106,0.052843764,-0.018439772,0.5555302,0.0,0.0,-0.35867625,1,0,0,0,0,0
562243781,0.0550916,-0.115777254,1.1770774,2.2793902e-20,0.8291599,0.054976553,-0.032839485,0.5553314,0.0,0.0,-0.35117295,1,0,0,0,0,0
562343787,0.05850941,-0.10720961,1.1770774,7.468638e-21,0.82933265,0.054025788,-0.02833053,0.55541503,0.0,0.0,-0.3534492,1,0,0,0,0,0
562443906,0.056622278,-0.10588218,1.1770774,2.4426989e-21,0.82942307,0.05287628,-0.028302994,0.55539215,0.0,0.0,-0.3648708,1,0,0,0,0,0
562543918,0.0511971,-0.115167856,1.1770774,7.9985033e-22,0.82928437,0.05319342,-0.03366761,0.55526966,0.0,0.0,-0.3528483,1,0,0,0,0,0
562664119,0.03842949,-0.123114064,1.1770774,2.0929592e-22,0.829368,0.05009594,-0.040512323,0.55497557,0.0,0.0,-0.35870713,1,0,0,0,0,0
562764119,0.06333187,-0.12731491,1.1770774,6.8581207e-23,0.8285339,0.061578117,-0.035344303,0.55541927,0.0,0.0,-0.3608908,1,0,0,0,0,0
562864574,0.051221143,-0.064054795,1.1770774,2.2349755e-23,0.8305984,0.039059434,-0.012416822,0.5553615,0.0,0.0,-0.35189816,1,0,0,0,0,0
562964585,0.04531439,-0.11458069,1.1770774,7.322613e-24,0.8294549,0.05059162,-0.035056774,0.55517215,0.0,0.0,-0.35112706,1,0,0,0,0,0
563064715,0.079962,-0.11765738,1.1770774,2.3996526e-24,0.8283458,0.06580155,-0.026712626,0.5556976,0.0,0.0,-0.36308834,1,0,0,0,0,0
563164707,0.054226723,-0.10655547,1.1770774,7.846121e-25,0.82946587,0.052068938,-0.029247986,0.5553555,0.0,0.0,-0.3573131,1,0,0,0,0,0
563265989,0.04918719,-0.077170506,1.1770774,2.5282965e-25,0.83035576,0.04184717,-0.018434223,0.55535424,0.0,0.0,-0.3459338,1,0,0,0,0,0
563364812,0.0536623,-0.10644592,1.1770774,8.4039004e-26,0.8294838,0.05180455,-0.029359188,0.5553476,0.0,0.0,-0.35308987,1,0,0,0,0,0
563465857,0.07874438,-0.10602148,1.1770774,2.7194402e-26,0.82878286,0.06208561,-0.022216048,0.5556715,0.0,0.0,-0.35585424,1,0,0,0,0,0
563565073,0.04286031,-0.087915994,1.1770774,9.000984e-27,0.8302358,0.04219566,-0.024657553,0.5552658,0.0,0.0,-0.34923115,1,0,0,0,0,0
563665054,0.06267519,-0.018715976,1.1770774,2.9495155e-27,0.8311453,0.031252153,0.009613743,0.55509317,0.0,0.0,-0.3512607,1,0,0,0,0,0
563765290,0.058034044,-0.04468874,1.1770774,9.636231e-28,0.8308353,0.03652372,-0.0024732156,0.5553131,0.0,0.0,-0.3544338,1,0,0,0,0,0
563865386,0.05270434,-0.035740133,1.1770774,3.1560185e-28,0.8310699,0.03182899,-0.00023224852,0.5552564,0.0,0.0,-0.3522011,1,0,0,0,0,0
563965889,0.04624106,-0.114322715,1.1770774,1.0337632e-28,0.82943916,0.0509046,-0.034692362,0.55518985,0.0,0.0,-0.35184404,1,0,0,0,0,0
564065884,0.053062234,-0.075743884,1.1770774,3.3678066e-29,0.83030623,0.04306096,-0.016765121,0.5553884,0.0,0.0,-0.3385295,1,0,0,0,0,0
564186131,0.054272864,-0.087947935,1.1770774,8.803554e-30,0.8299807,0.046941347,-0.021501945,0.5553974,0.0,0.0,-0.3434981,1,0,0,0,0,0
564285737,0.05452036,-0.07354895,1.1770774,2.8952911e-30,0.8303253,0.043058615,-0.015447736,0.5553983,0.0,0.0,-0.34437323,1,0,0,0,0,0
564387332,0.040053,-0.119037084,1.1770774,9.288317e-31,0.8294522,0.049641855,-0.038368367,0.5550428,0.0,0.0,-0.34724942,1,0,0,0,0,0
564485978,0.04870552,-0.19816925,1.1770774,3.0935395e-31,0.8260905,0.07505434,-0.06880303,0.55426306,0.0,0.0,-0.35600272,1,0,0,0,0,0
564586446,0.047780678,-0.23899148,1.1770774,1.0081851e-31,0.82400495,0.08588824,-0.08595945,0.55339867,0.0,0.0,-0.35559446,1,0,0,0,0,0
564686215,0.049153164,-0.28447658,1.1770774,3.3145502e-32,0.82117057,0.09890644,-0.10436851,0.55227137,0.0,0.0,-0.36354953,1,0,0,0,0,0
564786186,0.058459893,-0.192615,1.1770774,1.0864188e-32,0.82598466,0.07755531,-0.0637967,0.5546751,0.0,0.0,-0.3534653,1,0,0,0,0,0
564886262,0.050759953,-0.20448364,1.1770774,3.5537905e-33,0.8257049,0.07763946,-0.070849985,0.5542236,0.0,0.0,-0.36933482,1,0,0,0,0,0
564986471,0.045736473,-0.15758196,1.1770774,1.1620956e-33,0.82795644,0.06264389,-0.052794985,0.55477613,0.0,0.0,-0.3668989,1,0,0,0,0,0
565086509,0.06137788,-0.023163797,1.1770774,3.8034327e-34,0.8311081,0.031946372,0.0074045067,0.5551432,0.0,0.0,-0.3646459,1,0,0,0,0,0
565186721,0.062784284,0.059805304,1.1770774,1.24648e-34,0.8314923,0.009504852,0.042272232,0.5538441,0.0,0.0,-0.36701018,1,0,0,0,0,0
565286683,0.055256713,0.008017466,1.1770774,4.0788004e-35,0.83149016,0.020752277,0.018668694,0.5548378,0.0,0.0,-0.36048004,1,0,0,0,0,0
565386939,0.044596586,0.017178092,1.1770774,1.3332337e-35,0.83162165,0.013777517,0.019519432,0.55482846,0.0,0.0,-0.35275504,1,0,0,0,0,0
565487116,0.043426655,-0.032783132,1.1770774,4.364098e-36,0.8312475,0.027153442,-0.0015784007,0.55523676,0.0,0.0,-0.3469959,1,0,0,0,0,0
565607151,0.05783994,0.045864504,1.1770774,1.1411892e-36,0.8315545,0.011320276,0.035112668,0.5542166,0.0,0.0,-0.34455487,1,0,0,0,0,0
565708266,0.07017077,0.071884885,1.1770774,3.6883104e-37,0.83140385,0.009220797,0.049331345,0.5533977,0.0,0.0,-0.34929743,1,0,0,0,0,0
565807464,0.049694266,-0.05092926,1.1770774,1.2200931e-37,0.8308753,0.034788553,-0.007383551,0.5553211,0.0,0.0,-0.34482735,1,0,0,0,0,0
565907429,0.06119603,-0.1978032,1.1770774,3.997932e-38,0.8256238,0.08011139,-0.06518847,0.5546872,0.0,0.0,-0.35574076,1,0,0,0,0,0
566007493,0.048643958,-0.3075929,1.1770774,1.309676e-38,0.819624,0.105007306,-0.11403769,0.55153006,0.0,0.0,-0.36252642,1,0,0,0,0,0
566107617,0.06435198,-0.33225757,1.1770774,4.28692e-39,0.8169236,0.11814406,-0.11985876,0.55164456,0.0,0.0,-0.36592337,1,0,0,0,0,0
566207684,0.031351235,-0.25077212,1.1770774,1.401646e-39,0.82403344,0.08235216,-0.09537077,0.55235076,0.0,0.0,-0.35915172,1,0,0,0,0,0
566307708,0.04017415,-0.2837987,1.1770774,4.59123e-40,0.8216499,0.0950334,-0.10656733,0.55181825,0.0,0.0,-0.3701876,1,0,0,0,0,0
566408332,0.047774546,-0.25839224,1.1770774,1.50278e-40,0.82287717,0.091203816,-0.09398081,0.55292195,0.0,0.0,-0.37661654,1,0,0,0,0,0
566508502,0.038627382,-0.111659996,1.1770774,4.8827e-41,0.8297037,0.04701012,-0.03569943,0.55507416,0.0,0.0,-0.36754856,1,0,0,0,0,0
566608564,0.056298427,-0.06020289,1.1770774,1.6e-41,0.83057636,0.04010105,-0.009405476,0.55537945,0.0,0.0,-0.3672771,1,0,0,0,0,0
566708613,0.026864914,-0.024527177,1.1770774,5.241e-42,0.8315238,0.017978607,-0.0027429063,0.55519134,0.0,0.0,-0.3635211,1,0,0,0,0,0
566808737,0.047399532,-0.11256937,1.1770774,1.711e-42,0.8294624,0.05090025,-0.03364232,0.5552202,0.0,0.0,-0.35835284,1,0,0,0,0,0
566908352,0.045658097,-0.1441241,1.1770774,5.65e-43,0.8284656,0.05889715,-0.04723088,0.5549282,0.0,0.0,-0.35813358,1,0,0,0,0,0
567028687,0.049649633,-0.20534076,1.1770774,1.47e-43,0.8257055,0.077416725,-0.071512744,0.5541687,0.0,0.0,-0.35660914,1,0,0,0,0,0
567128670,0.048178717,-0.15519595,1.1770774,4.8e-44,0.8279727,0.06299668,-0.051127285,0.55486804,0.0,0.0,-0.35880938,1,0,0,0,0,0
567228621,0.030845298,-0.16211256,1.1770774,1.5e-44,0.82823014,0.05772869,-0.058803607,0.5542963,0.0,0.0,-0.36051315,1,0,0,0,0,0
567328844,0.046505045,-0.05713588,1.1770774,6e-45,0.83081996,0.035183657,-0.010849691,0.555322,0.0,0.0,-0.36487564,1,0,0,0,0,0
567429563,0.063357845,-0.05936399,1.1770774,3e-45,0.83044744,0.04280018,-0.0070963264,0.5554051,0.0,0.0,-0.3665396,1,0,0,0,0,0
567528912,0.04963414,0.015992472,1.1770774,3e-45,0.8315802,0.016201224,0.02042402,0.55479246,0.0,0.0,-0.35968846,1,0,0,0,0,0
567629089,0.050689463,0.01811347,1.1770774,3e-45,0.83157897,0.016051302,0.021598391,0.55475426,0.0,0.0,-0.36407512,1,0,0,0,0,0
567729666,0.035774127,0.14031856,1.1770774,3e-45,0.8302699,-0.024070268,0.068202965,0.55264896,0.0,0.0,-0.35395798,1,0,0,0,0,0
567829372,0.03561582,0.07483296,1.1770774,3e-45,0.8314086,-0.005962847,0.040987622,0.55411565,0.0,0.0,-0.34683743,1,0,0,0,0,0
567929449,0.04317894,-0.01826896,1.1770774,3e-45,0.8314148,0.023024678,0.0043881284,0.55515766,0.0,0.0,-0.34155118,1,0,0,0,0,0
568029691,0.035926007,-0.021696813,1.1770774,3e-45,0.8314615,0.020960458,0.00094941,0.55518603,0.0,0.0,-0.34294313,1,0,0,0,0,0
568129654,0.045409553,-0.060785472,1.1770774,3e-45,0.8307714,0.035739884,-0.012671272,0.5553206,0.0,0.0,-0.3429339,1,0,0,0,0,0
568229626,0.034528717,-0.04904982,1.1770774,3e-45,0.83114374,0.027966162,-0.010812695,0.5552486,0.0,0.0,-0.34435052,1,0,0,0,0,0
568329876,0.041224882,-0.06396059,1.1770774,3e-45,0.83078504,0.034881417,-0.015153258,0.5552926,0.0,0.0,-0.34887886,1,0,0,0,0,0
568449866,0.033985842,-0.04428456,1.1770774,3e-45,0.83122,0.026419187,-0.0089819515,0.55524296,0.0,0.0,-0.34458753,1,0,0,0,0,0
568549964,0.03977092,-0.0845989,1.1770774,3e-45,0.8303777,0.03999464,-0.024136508,0.5552394,0.0,0.0,-0.3631867,1,0,0,0,0,0
568649985,0.048828024,-0.11426224,1.1770774,3e-45,0.8293745,0.051960707,-0.033949077,0.5552346,0.0,0.0,-0.35685575,1,0,0,0,0,0
568750254,0.04506004,-0.12285005,1.1770774,3e-45,0.82920575,0.05277226,-0.038562547,0.5551089,0.0,0.0,-0.35665527,1,0,0,0,0,0
568850735,0.054963004,-0.16588275,1.1770774,3e-45,0.82731676,0.06875081,-0.053679742,0.5549223,0.0,0.0,-0.3669462,1,0,0,0,0,0
568950793,0.03911401,-0.15519494,1.1770774,3e-45,0.82824975,0.059243098,-0.053641193,0.55463064,0.0,0.0,-0.35702187,1,0,0,0,0,0
569050944,0.03490649,-0.1826236,1.1770774,3e-45,0.8272781,0.06506884,-0.066183545,0.5540729,0.0,0.0,-0.35823923,1,0,0,0,0,0
569150929,0.042316236,-0.1659147,1.1770774,3e-45,0.8277337,0.06352685,-0.057200886,0.5545714,0.0,0.0,-0.35594058,1,0,0,0,0,0
569251310,0.036529116,-0.19915554,1.1770774,3e-45,0.8264865,0.07029519,-0.07258477,0.5538141,0.0,0.0,-0.36698556,1,0,0,0,0,0
569350771,0.050248664,-0.13556366,1.1770774,3e-45,0.82863635,0.058435213,-0.042402603,0.5551118,0.0,0.0,-0.35881838,1,0,0,0,0,0
569451218,0.042987157,-0.16229187,1.1770774,3e-45,0.8278573,0.06280519,-0.055511843,0.55464065,0.0,0.0,-0.36453032,1,0,0,0,0,0
569550973,0.029223055,-0.26263437,1.1770774,3e-45,0.82344157,0.08473125,-0.100856766,0.5518991,0.0,0.0,-0.36788943,1,0,0,0,0,0
569651051,0.025282638,-0.3445982,1.1770774,3e-45,0.8181686,0.10552951,-0.13567716,0.5486851,0.0,0.0,-0.37908515,1,0,0,0,0,0
569771723,0.022727577,-0.34455082,1.1682485,0.057456948,0.8207196,0.103868306,-0.13681842,0.5448957,0.0,0.0,-0.3677569,1,0,0,0,0,0
