timestamp,rollspeed,pitchspeed,yawspeed,rollspeed_integ,pitchspeed_integ,yawspeed_integ,additional_integ1
519054292,-0.00047797477,0.0005792114,0.00084834034,0.0,0.0,0.0,0.0
519086281,0.00054432265,0.0007701537,-0.0003870679,0.0,0.0,0.0,0.0
519118379,0.0011057556,-0.00021988087,-0.00045923563,0.0,0.0,0.0,0.0
519149562,-2.1407148e-05,0.00045774813,-0.0010290504,0.0,0.0,0.0,0.0
519181489,0.00032034353,0.00024679897,0.00022247434,0.0,0.0,0.0,0.0
519213517,0.00037376233,0.00018473488,0.00082283653,0.0,0.0,0.0,0.0
519245534,0.00014707004,-0.0007219758,-0.0018704918,0.0,0.0,0.0,0.0
519277563,-0.00058360724,0.00023337505,-0.0028870057,0.0,0.0,0.0,0.0
519309488,-0.00019580475,0.00013038209,-0.00012917398,0.0,0.0,0.0,0.0
519337580,0.00087316055,0.000110635505,0.003310876,0.0,0.0,0.0,0.0
519369498,0.0007970976,-0.0004177036,0.0039931643,0.0,0.0,0.0,0.0
519401553,0.00010147272,-8.4975036e-05,0.0014338428,0.0,0.0,0.0,0.0
519433529,0.0007998978,0.0010713356,-0.0018334487,0.0,0.0,0.0,0.0
519465583,5.329051e-05,-0.0008415654,-0.005178112,0.0,0.0,0.0,0.0
519496676,-0.0010824183,0.00010304159,-0.005972761,0.0,0.0,0.0,0.0
519528728,-0.0012223066,-0.00034103275,-0.0050278935,0.0,0.0,0.0,0.0
519560769,0.0018195934,-0.00044894265,-0.0010422291,0.0,0.0,0.0,0.0
519592709,-0.00042604376,0.00031557563,0.00525011,0.0,0.0,0.0,0.0
519620772,0.0017786237,0.00069461484,0.0066011394,0.0,0.0,0.0,0.0
519652690,0.00018793135,-0.00082870864,0.006397279,0.0,0.0,0.0,0.0
519684706,-0.00062291767,0.0010201436,-0.00011687912,0.0,0.0,0.0,0.0
519716715,0.000247475,-0.000705286,-0.0027266901,0.0,0.0,0.0,0.0
519748716,-0.0013528082,-0.00024258911,-0.0058124484,0.0,0.0,0.0,0.0
519780765,-1.86502e-05,1.46310485e-05,-0.0054611764,0.0,0.0,0.0,0.0
519812676,0.000719788,0.00018600948,-0.0014123973,0.0,0.0,0.0,0.0
519844774,0.0015653082,0.00037954803,0.003947992,0.0,0.0,0.0,0.0
519875873,0.0003581671,-7.079348e-05,0.0064384053,0.0,0.0,0.0,0.0
519907887,0.0010402477,0.0005735855,0.0047405856,0.0,0.0,0.0,0.0
519935930,0.000842568,-0.0006673039,0.0013163686,0.0,0.0,0.0,0.0
519967886,0.00042514736,-0.0003826285,-0.0035552245,0.0,0.0,0.0,0.0
520000013,0.0002526394,-0.00070643413,-0.0051317974,0.0,0.0,0.0,0.0
520031922,9.499025e-06,-0.0010086525,-0.0043207537,0.0,0.0,0.0,0.0
520067887,0.0009562569,-0.00077441975,-0.0032840732,0.0,0.0,0.0,0.0
520099990,0.0012239658,-0.00051350944,0.00023190724,0.0,0.0,0.0,0.0
520131936,0.0014064953,0.0009283051,0.0015330324,0.0,0.0,0.0,0.0
520159982,9.7921584e-05,-0.00011184661,0.00081975944,0.0,0.0,0.0,0.0
520191872,0.0006999378,0.00041353024,0.0005279109,0.0,0.0,0.0,0.0
520223875,-0.0006081406,0.00039268992,0.00032155123,0.0,0.0,0.0,0.0
520255153,0.0018292528,0.0027012478,0.0026709335,0.0,0.0,0.0,0.0
520287203,-0.00012233085,0.0014310714,0.0060621947,0.0,0.0,0.0,0.0
520319147,0.0016235342,0.0002953615,0.007769226,0.0,0.0,0.0,0.0
520351113,0.004121912,0.0014207166,0.0058012125,0.0,0.0,0.0,0.0
520383112,0.0028444557,0.0015658209,-0.00049892254,0.0,0.0,0.0,0.0
520415128,0.0004644303,-0.0006895174,-0.008169801,0.0,0.0,0.0,0.0
520447202,-0.004555595,-0.0030666376,-0.01592807,0.0,0.0,0.0,0.0
520479073,-0.004450911,-0.0017788572,-0.018571692,0.0,0.0,0.0,0.0
520511114,0.00049045356,-0.0015696565,-0.008052701,0.0,0.0,0.0,0.0
520543134,0.002255334,-0.0023662045,0.0077747935,0.0,0.0,0.0,0.0
520575112,0.0025970996,-0.0003038508,0.027627751,0.0,0.0,0.0,0.0
520607145,0.0023938278,0.0008024756,0.032528866,0.0,0.0,0.0,0.0
520638378,0.000913915,0.0015423275,0.020598538,0.0,0.0,0.0,0.0
520670335,-0.0015725621,-0.0011316193,-0.007376066,0.0,0.0,0.0,0.0
520702394,-0.0051496155,-0.0030882566,-0.034752373,0.0,0.0,0.0,0.0
520734302,-0.0057170223,-0.0032327033,-0.047301773,0.0,0.0,0.0,0.0
520766329,-0.000816748,0.0011202729,-0.030707259,0.0,0.0,0.0,0.0
520798336,0.0032312279,0.0009274232,0.00989891,0.0,0.0,0.0,0.0
520830291,0.004558327,0.0019902,0.051609717,0.0,0.0,0.0,0.0
520862387,0.0088210255,0.006875311,0.057040416,0.0,0.0,0.0,0.0
520894329,0.0038242098,0.004624118,0.025213573,0.0,0.0,0.0,0.0
520926346,-0.00430075,-0.0035299528,-0.020148419,0.0,0.0,0.0,0.0
520958292,-0.0121554155,-0.0020805323,-0.052516017,0.0,0.0,0.0,0.0
520989504,-0.010171283,-0.0035994558,-0.050521456,0.0,0.0,0.0,0.0
521021613,1.4160993e-05,-0.0053933333,-0.022599965,0.0,0.0,0.0,0.0
521053488,0.011996431,0.0024661103,0.017027896,0.0,0.0,0.0,0.0
521085489,0.016792638,0.0040479936,0.04475533,0.0,0.0,0.0,0.0
521117522,0.0040171486,-0.005913348,0.048205834,0.0,0.0,0.0,0.0
521149535,-0.0074383523,0.0006450837,0.025912467,0.0,0.0,0.0,0.0
521181547,-0.01396302,0.0055658496,-0.009225777,0.0,0.0,0.0,0.0
521213486,-0.011123395,-0.004655247,-0.0515339,0.0,0.0,0.0,0.0
521245496,0.005226857,-0.003396106,-0.054044105,0.0,0.0,0.0,0.0
521277517,0.012467379,-0.0076134317,-0.023103857,0.0,0.0,0.0,0.0
521309536,0.0028849393,-0.0029556535,0.010832323,0.0,0.0,0.0,0.0
521340779,-3.4924597e-05,0.015281149,0.04342894,0.0,0.0,0.0,0.0
521372715,0.009691919,0.0047540856,0.05596155,0.0,0.0,0.0,0.0
521404820,-0.013984123,0.0011423108,0.02243672,0.0,0.0,0.0,0.0
521436680,0.00021158252,-0.0014966812,0.0020403382,0.0,0.0,0.0,0.0
521468687,0.014369546,-0.00045237347,-0.015007311,0.0,0.0,0.0,0.0
521496701,-0.011030424,0.001409251,-0.018322695,0.0,0.0,0.0,0.0
521528708,-0.002462792,3.7868143e-05,-0.031192672,0.0,0.0,0.0,0.0
521560767,-0.015097444,-0.009269121,0.026727853,0.0,0.0,0.0,0.0
521592714,0.019625483,0.0064946837,-0.011992524,0.0,0.0,0.0,0.0
521624731,-0.008084091,-0.017613634,0.038771212,0.0,0.0,0.0,0.0
521656673,0.036289252,-0.0073306505,-0.012249686,0.0,0.0,0.0,0.0
521688726,-0.03826195,-0.023650093,0.020299044,0.0,0.0,0.0,0.0
521719965,0.010614805,-0.012360483,-0.02187015,0.0,0.0,0.0,0.0
521751873,-0.02274291,-0.0101166675,-0.008540679,0.0,0.0,0.0,0.0
521783929,-0.0036145465,-0.0019407138,-0.008943032,0.0,0.0,0.0,0.0
521811887,0.022593537,-0.0033518737,-0.013907738,0.0,0.0,0.0,0.0
521843944,-0.01233818,0.0038102767,0.023680337,0.0,0.0,0.0,0.0
521875921,0.04462072,0.004235469,-0.0058892816,0.0,0.0,0.0,0.0
521907932,-0.039272122,0.004021102,0.029661365,0.0,0.0,0.0,0.0
521939886,0.025560338,0.012568741,-0.014518775,0.0,0.0,0.0,0.0
521971910,-0.03330887,0.015182941,0.0024984223,0.0,0.0,0.0,0.0
522003954,0.0073493673,0.007898056,-0.018820316,0.0,0.0,0.0,0.0
522035926,0.019515038,0.02348535,-0.016537957,0.0,0.0,0.0,0.0
522066352,-0.01979255,-0.00052018085,0.014153026,0.0,0.0,0.0,0.0
522099136,0.047174916,0.022859626,-0.011128629,0.0,0.0,0.0,0.0
522131119,-0.050547693,-0.016955303,0.030087164,0.0,0.0,0.0,0.0
522163187,0.037249837,0.009733878,-0.0058069467,0.0,0.0,0.0,0.0
522195094,-0.035301123,-0.01258091,0.011082599,0.0,0.0,0.0,0.0
522227244,0.014004781,-0.011358077,-0.012724324,0.0,0.0,0.0,0.0
522259114,0.008274067,-0.0074952994,-0.012968193,0.0,0.0,0.0,0.0
522291134,-0.021932116,-0.030270483,0.007172997,0.0,0.0,0.0,0.0
522319131,0.041628014,0.0026491222,-0.019658571,0.0,0.0,0.0,0.0
522351104,-0.051763162,-0.024277512,0.02559426,0.0,0.0,0.0,0.0
522383078,0.040156927,0.004586869,-0.0031716954,0.0,0.0,0.0,0.0
522415152,-0.027271355,-0.009531997,0.009388536,0.0,0.0,0.0,0.0
522447194,0.012184186,0.0037758993,0.0036635716,0.0,0.0,0.0,0.0
522478285,0.021767298,0.023328392,-0.018263191,0.0,0.0,0.0,0.0
522510341,-0.03599984,-0.006203282,0.007166131,0.0,0.0,0.0,0.0
522542387,0.03688071,0.026230177,-0.021488113,0.0,0.0,0.0,0.0
522574291,-0.04957031,2.2050517e-05,0.014420179,0.0,0.0,0.0,0.0
522606303,0.048736107,0.026453825,-0.008357236,0.0,0.0,0.0,0.0
522634327,-0.006334916,0.015102266,0.004402423,0.0,0.0,0.0,0.0
522666293,0.0037312263,-0.00067594484,0.015630933,0.0,0.0,0.0,0.0
522698389,0.027737748,0.014785403,-0.01204893,0.0,0.0,0.0,0.0
522730322,-0.048945747,-0.018483793,0.013280968,0.0,0.0,0.0,0.0
522761519,0.045038536,0.008656687,-0.020050345,0.0,0.0,0.0,0.0
522793478,-0.049016893,-0.026491735,0.003147473,0.0,0.0,0.0,0.0
522825545,0.03313129,-0.011077667,-0.0047867196,0.0,0.0,0.0,0.0
522857492,-0.009889145,-0.01764209,-0.0034888661,0.0,0.0,0.0,0.0
522889520,-0.0124421455,-0.022313222,0.017726686,0.0,0.0,0.0,0.0
522921498,0.029761093,0.008240069,-0.007522895,0.0,0.0,0.0,0.0
522953571,-0.054639146,-0.024092568,0.020741213,0.0,0.0,0.0,0.0
522985540,0.052415602,0.01280826,-0.01744803,0.0,0.0,0.0,0.0
523017480,-0.044547003,-0.010730371,0.0025154809,0.0,0.0,0.0,0.0
523049493,0.035248347,0.018276956,-0.007116273,0.0,0.0,0.0,0.0
523081534,-0.0057810317,0.012705391,-0.010395534,0.0,0.0,0.0,0.0
523113548,-0.0147056,0.004412938,0.012787137,0.0,0.0,0.0,0.0
523144840,0.0328443,0.029149387,-0.00798687,0.0,0.0,0.0,0.0
523176742,-0.048445337,0.0006348683,0.019621262,0.0,0.0,0.0,0.0
523204795,0.049495347,0.027149579,-0.0051774373,0.0,0.0,0.0,0.0
523236703,-0.026419757,0.0028592765,0.00094658276,0.0,0.0,0.0,0.0
523268714,0.016945379,0.0006598487,0.0006170729,0.0,0.0,0.0,0.0
523300680,0.0069296784,0.0053046257,-0.013473226,0.0,0.0,0.0,0.0
523332737,-0.03320182,-0.018655624,0.014456877,0.0,0.0,0.0,0.0
523364840,0.04112601,0.0046929615,-0.013699731,0.0,0.0,0.0,0.0
523396753,-0.05324067,-0.03418994,0.011986336,0.0,0.0,0.0,0.0
523428682,0.04902521,-0.0073196567,-0.005212653,0.0,0.0,0.0,0.0
523456745,-0.019750265,-0.018322112,-0.00067066494,0.0,0.0,0.0,0.0
523488685,-0.0003385588,-0.011990973,0.010314614,0.0,0.0,0.0,0.0
523519911,0.024019908,0.007703394,-0.011940512,0.0,0.0,0.0,0.0
523551913,-0.047884002,-0.016977277,0.013133644,0.0,0.0,0.0,0.0
523583889,0.05118598,0.020581383,-0.01236879,0.0,0.0,0.0,0.0
523615877,-0.04475791,-0.002308103,0.0042684968,0.0,0.0,0.0,0.0
523647910,0.03916176,0.022377705,-0.0035901542,0.0,0.0,0.0,0.0
523679922,-0.015717821,0.015891124,-0.0032739537,0.0,0.0,0.0,0.0
523711936,-0.006286499,0.010811078,0.010521116,0.0,0.0,0.0,0.0
523743909,0.024050288,0.02422514,-0.008773355,0.0,0.0,0.0,0.0
523775924,-0.04326366,-0.003583522,0.011499329,0.0,0.0,0.0,0.0
523807919,0.05542781,0.022530502,-0.008506088,0.0,0.0,0.0,0.0
523839956,-0.039676864,-0.014042933,0.0043026097,0.0,0.0,0.0,0.0
523871078,0.02839687,-0.0053587668,0.0002523507,0.0,0.0,0.0,0.0
523903163,-0.020980056,-0.011991405,-0.004193902,0.0,0.0,0.0,0.0
523935134,-0.006062067,-0.0136871245,0.013049969,0.0,0.0,0.0,0.0
523967192,0.023369577,-0.00429193,-0.010586733,0.0,0.0,0.0,0.0
523999103,-0.044821706,-0.030189982,0.012083171,0.0,0.0,0.0,0.0
524027155,0.054494802,-0.0036990582,-0.0036731097,0.0,0.0,0.0,0.0
524059114,-0.03561716,-0.016200436,0.000115680974,0.0,0.0,0.0,0.0
524091113,0.013759181,-0.0033020354,0.0064241383,0.0,0.0,0.0,0.0
524123169,-0.0075406255,0.0026626918,-0.0056872983,0.0,0.0,0.0,0.0
524155079,-0.016931392,-0.0063672317,0.008062616,0.0,0.0,0.0,0.0
524187184,0.03227337,0.01662347,-0.013308412,0.0,0.0,0.0,0.0
524219121,-0.038107064,0.0039904816,0.007698382,0.0,0.0,0.0,0.0
524249533,0.056956723,0.023662707,-0.0049439203,0.0,0.0,0.0,0.0
524282293,-0.036509305,0.0038307793,0.0037542088,0.0,0.0,0.0,0.0
524314377,0.01276896,0.013881214,0.010684865,0.0,0.0,0.0,0.0
524342299,0.018768277,0.019763382,-0.0096356515,0.0,0.0,0.0,0.0
524374332,-0.034588244,-0.00043622713,0.004826224,0.0,0.0,0.0,0.0
524406343,0.044232972,0.010078878,-0.01279599,0.0,0.0,0.0,0.0
524438326,-0.043091103,-0.015546212,0.0011231285,0.0,0.0,0.0,0.0
524470298,0.037450645,-0.0022940466,-0.0032769027,0.0,0.0,0.0,0.0
524502358,-0.023890518,-0.010690889,0.0008820826,0.0,0.0,0.0,0.0
524534340,-0.0017442121,-0.008001618,0.014739507,0.0,0.0,0.0,0.0
524566369,0.018065127,-0.0044228826,-0.0026700979,0.0,0.0,0.0,0.0
524598298,-0.034654263,-0.021889046,0.00988001,0.0,0.0,0.0,0.0
524629540,0.049232487,0.0016249344,-0.010701977,0.0,0.0,0.0,0.0
524661523,-0.04365452,-0.009763422,-0.0015665428,0.0,0.0,0.0,0.0
524693544,0.03149387,0.008249948,-0.0024797698,0.0,0.0,0.0,0.0
524725541,-0.019131253,-0.00345197,-0.0063319854,0.0,0.0,0.0,0.0
524757556,-0.00697616,0.0033127961,0.010276366,0.0,0.0,0.0,0.0
524789554,0.02948403,0.016378613,-0.0045935605,0.0,0.0,0.0,0.0
524821543,-0.03810497,0.0053415974,0.011469147,0.0,0.0,0.0,0.0
524853485,0.050655257,0.013731183,-0.0071536265,0.0,0.0,0.0,0.0
524881515,-0.032698758,0.0030232896,-0.00012521911,0.0,0.0,0.0,0.0
524913481,0.012924376,0.008587472,0.0017380179,0.0,0.0,0.0,0.0
524945620,-0.0008236654,0.0024027883,-0.010379022,0.0,0.0,0.0,0.0
524976676,-0.024865525,-0.0022877424,0.004642521,0.0,0.0,0.0,0.0
525008708,0.043040097,0.006684544,-0.009089332,0.0,0.0,0.0,0.0
525040708,-0.045019325,-0.012776167,0.008558787,0.0,0.0,0.0,0.0
525072721,0.04278833,-0.0025927052,0.0009730812,0.0,0.0,0.0,0.0
525104784,-0.028018216,-0.010150236,0.0057119885,0.0,0.0,0.0,0.0
525136708,0.004591417,-0.005923269,0.0042223665,0.0,0.0,0.0,0.0
525164841,0.022761192,-0.008134162,-0.0071126325,0.0,0.0,0.0,0.0
525196684,-0.03914584,-0.009658604,0.0010733358,0.0,0.0,0.0,0.0
525228697,0.047396913,-0.005299768,-0.012842843,0.0,0.0,0.0,0.0
525260719,-0.042685002,-0.006326513,0.0012309719,0.0,0.0,0.0,0.0
525292681,0.028148303,0.002540609,0.0019025388,0.0,0.0,0.0,0.0
525324779,-0.0119470935,0.0050042886,0.0061994707,0.0,0.0,0.0,0.0
525356679,-0.008031113,0.004179276,0.011176066,0.0,0.0,0.0,0.0
525387919,0.028604144,0.0045740963,-0.0038278506,0.0,0.0,0.0,0.0
525419880,-0.039297707,0.0066174557,0.004883951,0.0,0.0,0.0,0.0
525451897,0.047039725,0.007282554,-0.01456208,0.0,0.0,0.0,0.0
525479927,-0.026938956,0.008317761,-0.004197696,0.0,0.0,0.0,0.0
525511887,0.008041276,0.003644802,-0.0013917605,0.0,0.0,0.0,0.0
525543961,0.009703498,0.002959571,-0.0020025813,0.0,0.0,0.0,0.0
525575876,-0.024199922,0.0018918146,0.010732412,0.0,0.0,0.0,0.0
525607932,0.03940493,-0.00032778157,-0.001584657,0.0,0.0,0.0,0.0
525639909,-0.041085314,0.0016377217,0.008870108,0.0,0.0,0.0,0.0
525671918,0.04087422,0.000118635755,-0.009986503,0.0,0.0,0.0,0.0
525703928,-0.029976632,0.0015157118,-0.0015088387,0.0,0.0,0.0,0.0
525735137,-0.00029608933,-0.0031668963,-0.002217065,0.0,0.0,0.0,0.0
525767234,0.012013234,-0.0040583406,-0.0022155899,0.0,0.0,0.0,0.0
525799156,-0.027063498,-0.0009362759,0.007804781,0.0,0.0,0.0,0.0
525831077,0.03559316,-0.010895439,-0.00238767,0.0,0.0,0.0,0.0
525863128,-0.030842988,0.0098841945,0.01914275,0.0,0.0,0.0,0.0
525895142,0.0063117077,-0.027594777,0.018582221,0.0,0.0,0.0,0.0
525927320,-0.0046574837,0.00089788466,0.025615145,0.0,0.0,0.0,0.0
525959083,-0.0006148664,-0.020813866,0.01211955,0.0,0.0,0.0,0.0
525991104,0.02450835,0.019452559,0.0010905643,0.0,0.0,0.0,0.0
526023109,-0.04202482,-0.040157713,0.010999102,0.0,0.0,0.0,0.0
526057547,0.012497526,-0.019411566,-0.016290305,0.0,0.0,0.0,0.0
526090299,0.029718705,0.006197464,0.0012764367,0.0,0.0,0.0,0.0
526122329,-0.05417995,-0.018492071,0.025537904,0.0,0.0,0.0,0.0
526154298,0.02184796,-0.008472963,0.022750989,-0.0012950004,-0.00063566136,-2.6964053e-05,0.0
526186354,0.0429311,0.010877407,-0.0009912346,-0.0014797188,-0.0005536085,-0.00013119286,0.0
526218340,-0.0065747993,-0.0064782724,0.04326492,-0.0024095508,-0.0006090492,-0.00025702678,0.0
526246334,-0.039878108,-0.017827716,0.018594997,-0.003784034,-0.0012183879,-0.00031211317,0.0
526278322,0.05226107,0.013532814,0.0037535164,-0.0040749996,-0.0011052119,-0.00033736625,0.0
526310323,0.021048762,-0.016796414,-0.010474259,-0.004764607,-0.0009957183,-0.0003658074,0.0
526342291,-0.0078088325,-0.05625505,0.0035407916,-0.0058227787,-0.0010671586,-0.00043028584,0.0
526374285,0.0035316772,-0.016811846,0.018506138,-0.0069035254,-0.00090141495,-0.0005481055,0.0
526406379,-0.0099601615,-0.01118137,0.052090205,-0.007905043,-0.00054056745,-0.0007081619,0.0
526437573,0.011379052,-0.029561836,0.05403602,-0.008986881,-9.138857e-05,-0.00086449715,0.0
526465564,0.0070395875,-0.041770246,0.038619887,-0.010328463,0.00021862287,-0.0010014208,0.0
526501542,-0.012742295,-0.031359475,0.036983207,-0.011662696,0.0011786425,-0.001182773,0.0
526533511,-0.019316327,-0.01998378,0.027243467,-0.012639017,0.0019522405,-0.0013146735,0.0
526561559,-0.049612384,-0.03209486,0.01816649,-0.013262763,0.0024545607,-0.0014106579,0.0
526593524,-0.07135112,-0.035848826,0.0138856545,-0.013522213,0.0032627617,-0.0015131221,0.0
526625568,-0.07631068,-0.03898906,0.009322558,-0.013450392,0.004328392,-0.00159494,0.0
526657480,-0.07568517,-0.044240188,0.011936412,-0.013272522,0.005500421,-0.0016710098,0.0
526689536,-0.070033096,-0.042972647,0.015186123,-0.013149193,0.006642162,-0.0017385568,0.0
526721520,-0.08231975,-0.0019032916,0.014531482,-0.012920693,0.0073633115,-0.0018087056,0.0
526753522,-0.079041004,0.01189696,0.011903436,-0.012438411,0.007953227,-0.0018705534,0.0
526785540,-0.06915978,0.013551578,0.0012546754,-0.012057883,0.008507696,-0.0019123292,0.0
526816764,-0.08321896,0.027211968,0.004005821,-0.011688216,0.009072797,-0.0019563786,0.0
526848730,-0.06520892,0.045696855,-0.003412373,-0.011279754,0.009365119,-0.0020075962,0.0
526880712,-0.037375066,0.05779822,-0.012654288,-0.01110422,0.009355703,-0.0020526275,0.0
526912679,-0.05778162,0.07614779,-0.015804429,-0.011022877,0.009140984,-0.00208154,0.0
526944752,-0.052210435,0.07858089,-0.016285118,-0.010526258,0.008710784,-0.0021113236,0.0
526976707,-0.0084588695,0.08331101,-0.017507473,-0.010569877,0.00829745,-0.0021297724,0.0
527008745,-0.023959273,0.06161414,-0.010788074,-0.010505355,0.007730454,-0.002144618,0.0
527040693,-0.015715478,0.08743526,-0.006057187,-0.010478985,0.0071394313,-0.002159168,0.0
527072745,-0.035756964,0.08806353,-0.0009861197,-0.010448823,0.0062855775,-0.0021744305,0.0
527100689,-0.040424135,0.09836065,-0.0027357326,-0.0099091865,0.0054383595,-0.0021857244,0.0
527132743,-0.04590244,0.0901396,-0.0038912282,-0.009303224,0.0044241464,-0.0021954158,0.0
527167250,-0.066334724,0.07508634,-0.011436787,-0.008360855,0.0035395103,-0.002204567,0.0
527199950,-0.051995322,0.08051953,-0.006443466,-0.0074532162,0.0025982154,-0.0022079123,0.0
527231928,-0.06508607,0.067912005,-0.0024374365,-0.0065364987,0.0020673512,-0.002217931,0.0
527263920,-0.053514164,0.05224168,-0.006363617,-0.005323774,0.0016275775,-0.0022257848,0.0
527295876,-0.05226916,0.03996202,-0.008114703,-0.0041860472,0.0014728622,-0.0022305807,0.0
527327989,-0.035888467,0.039589975,-0.0064017293,-0.0030922114,0.0012120277,-0.002235875,0.0
527359936,-0.01793287,0.032934338,-0.0070691155,-0.002146564,0.001155233,-0.0022459282,0.0
527391924,-0.011786695,0.029486202,-0.009041925,-0.0013766126,0.0010561185,-0.0022458364,0.0
527423878,-0.0027071238,0.02272417,-0.00472539,-0.0007016644,0.0010734702,-0.0022534325,0.0
527455973,0.0023759955,0.021319458,-0.009914803,-7.496319e-05,0.0013259326,-0.0022570507,0.0
527487989,0.015466559,0.028038174,-0.010325618,0.00037151837,0.0014452569,-0.0022546467,0.0
527519881,0.02258971,0.031344056,-0.010231548,0.00079204416,0.001664557,-0.002258761,0.0
527551879,0.02692432,0.038831245,-0.014137856,0.0009434097,0.0016837042,-0.0022526383,0.0
527579913,0.07040003,0.023017552,0.0025137835,0.0010479897,0.001664406,-0.0022549476,0.0
527611151,0.07639408,0.020097448,-0.0017519409,0.0011382869,0.0018143588,-0.0022532418,0.0
527643125,0.07659555,0.018636215,0.0005372218,0.0012154519,0.0016760691,-0.0022456376,0.0
527675081,0.07826564,0.015763853,0.0031854887,0.0013479507,0.0016848352,-0.0022469037,0.0
527707263,0.08023198,0.019465147,-0.003999675,0.0011755665,0.0017049249,-0.002239522,0.0
527739116,0.07733445,0.013337003,0.00017860113,0.0012654504,0.0018283763,-0.002228057,0.0
527771171,0.07747414,0.016930498,-0.0036896588,0.0010881217,0.0019277694,-0.0022180756,0.0
527803093,0.08100146,0.019812386,-0.0019912363,0.00088193454,0.0018508324,-0.0022044957,0.0
527835119,0.07692921,0.016615389,-0.002273711,0.0008182826,0.0018749358,-0.002194938,0.0
527871041,0.04118647,0.028009264,-0.017504431,0.00038965998,0.0018814625,-0.0020934618,0.0
527902363,0.04484568,0.021673854,-0.011819472,0.00024489345,0.0019756078,-0.00207194,0.0
527934324,0.04309222,0.02607807,-0.01369785,-0.00017629136,0.0021148177,-0.0020493586,0.0
527966374,0.035575368,0.032127455,-0.012086362,-0.0005354025,0.0020846748,-0.0020312,0.0
527998297,0.03128378,0.03442936,-0.016116127,-0.0008114968,0.0020320078,-0.0020008998,0.0
528030328,0.020867076,0.03171473,-0.014157751,-0.001092918,0.0020261218,-0.001975163,0.0
528062304,0.01781308,0.029489204,-0.017269883,-0.0011429139,0.0020074367,-0.0019395465,0.0
528094387,0.01691761,0.031255394,-0.01925141,-0.0013703338,0.0019221124,-0.0018952236,0.0
528122325,0.03579234,0.025109783,-0.012274552,-0.0015171074,0.0017837879,-0.001860338,0.0
528154368,0.03441628,0.029291818,-0.017898275,-0.0016899204,0.0017139224,-0.0018117088,0.0
528186292,0.024269229,0.024673698,-0.016338933,-0.0020283451,0.0015473977,-0.0017603321,0.0
528218322,0.020688772,0.024249442,-0.018237244,-0.0020924818,0.0015806133,-0.0017083825,0.0
528250302,0.017257325,0.027039075,-0.020315709,-0.002343121,0.001532079,-0.0016511091,0.0
528281564,0.01743968,0.018100265,-0.019525308,-0.0024754647,0.0014224031,-0.001588105,0.0
528313490,0.017803267,0.022543367,-0.022083538,-0.0026364953,0.001502061,-0.0015255854,0.0
528345524,0.009995122,0.009912154,-0.018424675,-0.0028090128,0.0015246137,-0.0014602933,0.0
528377506,0.006830021,0.007765483,-0.02209262,-0.0028607065,0.0018241794,-0.0013958236,0.0
528409679,0.010846335,0.0022209047,-0.020051867,-0.0029938526,0.0019888545,-0.0013282674,0.0
528441488,0.012630784,-0.0006826329,-0.018095247,-0.0031207886,0.0021396698,-0.0012597262,0.0
528473557,0.0174868,-0.005575096,-0.01745573,-0.0033885082,0.0024900804,-0.0011993968,0.0
528505527,0.017843965,-0.009300903,-0.015571514,-0.0036037068,0.0027550862,-0.0011382169,0.0
528537586,0.012459915,-0.01015248,-0.016816802,-0.003964908,0.0031599659,-0.0010764516,0.0
528569549,0.01100857,-0.0015066196,-0.011374125,-0.004255023,0.0033109623,-0.0010221924,0.0
528600725,0.007931238,0.005217962,-0.015992628,-0.0044896514,0.003436885,-0.0009639564,0.0
528632722,0.0033762418,0.0075826445,-0.011181075,-0.004782033,0.00348075,-0.0009127677,0.0
528664797,-0.0026411673,-0.00068437133,-0.010269796,-0.004912347,0.00360466,-0.00086236565,0.0
528696693,-0.005746969,-0.0015894554,-0.009290628,-0.0051217536,0.0038882734,-0.00081114424,0.0
528728739,-0.009702647,-0.00025933908,-0.0044436515,-0.005109224,0.004123967,-0.00076549995,0.0
528760712,-0.014875787,0.004688022,-0.0040412396,-0.0051870896,0.0043951944,-0.0007149364,0.0
528792744,-0.016172193,0.0055174693,0.0016948231,-0.005220667,0.0045446195,-0.00067692564,0.0
528824721,-0.015058173,0.0070742243,0.0017270553,-0.0051430003,0.004730865,-0.0006336765,0.0
528856709,-0.01323949,0.008316243,0.00469351,-0.0050674775,0.0049056048,-0.0005960614,0.0
528888788,-0.013688287,0.006898855,0.009190349,-0.004900927,0.0050716633,-0.0005637323,0.0
528920745,-0.016025513,0.0050090067,0.0067853075,-0.0047353473,0.005142464,-0.0005245627,0.0
528951889,-0.013479098,0.013385148,0.007696565,-0.004597501,0.0051850975,-0.00049180695,0.0
528983938,-0.010364845,0.01743282,0.009446909,-0.004461304,0.0052795843,-0.00046193536,0.0
529015930,-0.006471185,0.016365102,0.013665916,-0.0043341215,0.005309543,-0.00044400943,0.0
529047927,-0.0047997236,0.017868727,0.013246039,-0.004359801,0.0052759727,-0.00042080562,0.0
529079882,-0.0026783247,0.018120233,0.013266895,-0.004232477,0.0051284065,-0.0004052746,0.0
529111960,-0.005064309,0.024115538,0.015421748,-0.0042584185,0.0049159983,-0.0003854349,0.0
529143928,-0.0116097,0.014859705,0.018714469,-0.004135378,0.0047590765,-0.00037808606,0.0
529175985,-0.0104476195,0.016256755,0.018582018,-0.0040124543,0.0044472,-0.00037240284,0.0
529207897,-0.02102794,0.012330424,0.019182289,-0.004171185,0.0023642145,-0.00035482587,0.0
529239927,-0.017608073,-0.0031438486,0.021907745,-0.004137345,-0.00089595275,-0.00034684577,0.0
529271927,-0.037921242,-0.062401082,0.024892854,-0.004069917,-0.004750876,-0.0003326028,0.0
529303886,-0.053019535,-0.16033687,0.027057864,-0.0036271967,-0.008274357,-0.00032793503,0.0
529335077,-0.04599735,-0.25100258,0.026991794,-0.0031184608,-0.011246525,-0.00032162984,0.0
529367209,-0.049501166,-0.34093034,0.026989307,-0.0025761398,-0.0139378635,-0.00031746484,0.0
529399125,-0.04225589,-0.41604364,0.028519344,-0.0019882296,-0.015895652,-0.00033224132,0.0
529431184,-0.041687403,-0.49196723,0.02461763,-0.001533991,-0.017358031,-0.0003451101,0.0
529463098,-0.04024964,-0.5671986,0.021015551,-0.0009766746,-0.018085532,-0.00036799558,0.0
529495159,-0.03001543,-0.6246535,0.017996576,-0.00055474025,-0.018252678,-0.00038832918,0.0
529527187,-0.019917214,-0.6695923,0.013180219,-0.00016964444,-0.017964771,-0.00040767706,0.0
529559113,-0.0052918363,-0.69647336,0.01453452,6.407885e-05,-0.017540677,-0.00042975938,0.0
529591204,0.007789136,-0.71709955,0.015369652,0.00019739049,-0.016770314,-0.00044929932,0.0
529623147,0.010733344,-0.7361932,0.011791496,0.0002448216,-0.015805,-0.000461482,0.0
529655110,0.023952352,-0.74706703,0.014778724,0.00022973114,-0.014856222,-0.00047285898,0.0
529683170,0.009274663,-0.7520659,0.00546849,0.00014400296,-0.013925843,-0.0004746413,0.0
529717509,0.037568998,-0.756493,0.010347803,6.240119e-05,-0.012754349,-0.00047446942,0.0
529746324,0.023338344,-0.7538489,0.0055078315,-0.00011199181,-0.011719856,-0.0004620767,0.0
529778312,0.039793532,-0.75754374,0.004666718,-0.0001734358,-0.010305734,-0.00044496302,0.0
529810388,0.043138962,-0.756874,0.006901992,-0.00047090632,-0.008675319,-0.00042816665,0.0
529842288,0.04762953,-0.7330778,0.0067120697,-0.0010237084,-0.0069760582,-0.00041342527,0.0
529874329,0.037947416,-0.6946729,0.0045193103,-0.0015262275,-0.0050093266,-0.0003910445,0.0
529906310,0.018309414,-0.6640341,-0.0013271072,-0.0019238753,-0.002893366,-0.0003583794,0.0
529938367,0.020966275,-0.62618655,-0.009250091,-0.002402647,-0.0003611037,-0.00033085817,0.0
529970372,0.021802984,-0.57001084,-0.008985596,-0.0028432226,0.003290953,-0.00029565615,0.0
530002349,0.02543427,-0.4948508,-0.010478285,-0.0031533886,0.008321363,-0.0002557065,0.0
530033481,0.016792858,-0.38396114,-0.009600802,-0.0034091382,0.021829424,-0.00024636372,0.0
530065515,0.017763102,-0.21269113,-0.0059230146,-0.0039077746,0.04060312,-0.00023537323,0.0
530097486,0.008856635,0.14580329,-0.009565873,-0.0043219253,0.056409035,-0.00020353189,0.0
530129543,0.026127972,0.6759077,-0.041021507,-0.0050078444,0.065881945,-0.000114529874,0.0
530161544,0.0020285225,1.0938736,-0.059984185,-0.0056323833,0.068243876,9.315321e-06,0.0
530193560,0.019913975,1.3111851,-0.07543709,-0.006322683,0.06585199,0.00015089712,0.0
530225474,0.010560575,1.3819418,-0.065228075,-0.0069848173,0.061428353,0.00027562588,0.0
530257569,-0.024888484,1.3724985,-0.06017296,-0.00781957,0.056721378,0.00044679883,0.0
530293441,-0.013746503,1.3909404,-0.017558727,-0.010182843,0.050703168,0.000680611,0.0
530325480,-0.07508733,1.3843974,0.0046667787,-0.013101222,0.044565093,0.00091489,0.0
530357480,-0.134973,1.380465,0.012098463,-0.01635132,0.037428863,0.001148882,0.0
530389576,-0.21256326,1.3236951,0.022935743,-0.019211128,0.029525684,0.0013591921,0.0
530420695,-0.29174203,1.2391323,0.037568886,-0.021460714,0.021675944,0.0015429241,0.0
530452722,-0.36281118,1.1175187,0.046844937,-0.022861067,0.013895165,0.0017084655,0.0
530484754,-0.42030606,0.99034214,0.045761768,-0.02420707,0.007154216,0.0018625531,0.0
530512728,-0.4675666,0.90040976,0.052908998,-0.02490265,0.0017927671,0.0019861169,0.0
530544783,-0.50648826,0.7904184,0.05612503,-0.02574739,-0.0036841861,0.002110663,0.0
530576751,-0.562632,0.7018829,0.062303048,-0.026117856,-0.008478918,0.0022164646,0.0
530608680,-0.6069425,0.60711616,0.069492646,-0.02446956,-0.011958716,0.002278378,0.0
530640712,-0.6403567,0.5349916,0.08080867,-0.020928167,-0.014447516,0.0023024965,0.0
530672706,-0.6298524,0.4667652,0.07848249,-0.015365629,-0.016369343,0.0022783387,0.0
530704803,-0.5575767,0.43903625,0.07735429,-0.008445052,-0.018438136,0.0022063511,0.0
530736693,-0.45334196,0.39272445,0.064157225,-0.00038254427,-0.022093883,0.002089002,0.0
530768723,-0.31204844,0.3377737,0.054319516,0.010784077,-0.035653953,0.0017838626,0.0
530800683,-0.16897249,0.21351102,0.05700807,0.02052553,-0.04828005,0.0014802618,0.0
530832028,-0.0046495656,-0.046638098,0.033783786,0.02819054,-0.05728339,0.0012111852,0.0
530863888,0.1750371,-0.36169752,0.027244523,0.03383739,-0.061141655,0.000999881,0.0
530895910,0.3528774,-0.5929244,0.020139456,0.03685604,-0.06022491,0.00082239276,0.0
530927948,0.5060344,-0.6736115,0.04279128,0.03775326,-0.056198213,0.00064077845,0.0
530959981,0.59415084,-0.6611077,0.025096394,0.037551906,-0.050881285,0.00047224938,0.0
530991878,0.6307296,-0.61435497,0.011770148,0.036793858,-0.045399904,0.000315284,0.0
531023938,0.6229343,-0.57149863,0.014758192,0.035763357,-0.040249944,0.00016759634,0.0
531055926,0.6603355,-0.51946104,-0.0058030984,0.03420932,-0.0354064,2.961744e-05,0.0
531087966,0.6997573,-0.47205386,-0.0074424883,0.032914378,-0.03083523,-9.74183e-05,0.0
531119890,0.7167445,-0.41529775,-0.020711832,0.030979713,-0.026679926,-0.0001956263,0.0
531151140,0.7226712,-0.3601703,-0.014761499,0.028881755,-0.023095189,-0.0002868488,0.0
531183126,0.7231026,-0.298074,-0.019054158,0.026430871,-0.019772181,-0.00037984093,0.0
531215127,0.7202409,-0.25172588,-0.022636123,0.024063483,-0.016748184,-0.00046312812,0.0
531247139,0.7076879,-0.22149304,-0.022496233,0.021967871,-0.014032672,-0.00055081263,0.0
531279115,0.7052341,-0.1880463,-0.030320067,0.019845912,-0.011809866,-0.0006221146,0.0
531307149,0.70491725,-0.1525944,-0.023119349,0.018489202,-0.010135903,-0.00068834703,0.0
531339115,0.7014001,-0.1329178,-0.031991687,0.017305292,-0.008207261,-0.00075408356,0.0
531371120,0.6933574,-0.11845354,-0.040116675,0.015837785,-0.0063722,-0.00082247175,0.0
531403138,0.69658476,-0.08950242,-0.04688634,0.014504309,-0.0045647137,-0.00088780693,0.0
531435105,0.69497335,-0.060376562,-0.057380453,0.012619842,-0.0024352642,-0.0009888901,0.0
531467245,0.6916648,-0.029832551,-0.058494892,0.010227962,0.0004474265,-0.0011811885,0.0
531499123,0.673886,0.02027052,-0.076706424,0.0051711546,0.0031097687,-0.00135132,0.0
531530302,0.6193256,0.08816952,-0.08784467,-0.012467102,0.0019241422,-0.0012454662,0.0
531566347,0.49199986,0.17420676,-0.067573495,-0.033047847,-0.00013590492,-0.0010889086,0.0
531594344,0.14381829,0.18272404,-0.07043706,-0.04641446,-0.0021105153,-0.0009706551,0.0
531626347,-0.27531973,0.15695305,-0.029262267,-0.05587177,-0.0034336306,-0.00089975976,0.0
531658307,-0.5837357,0.090213776,-0.013944658,-0.059630025,-0.0037998885,-0.0009122237,0.0
531690301,-0.7850043,0.055172805,-0.028816842,-0.059053313,-0.0029251568,-0.0009267777,0.0
531722361,-0.87052315,0.055608187,-0.03550683,-0.05587298,-0.0013867932,-0.00090291834,0.0
531754327,-0.88046443,0.08925922,-0.0388233,-0.051153354,0.00016488628,-0.0008496273,0.0
531786324,-0.87308437,0.13574451,-0.035450857,-0.045638558,0.001747438,-0.00079600915,0.0
531818299,-0.8588228,0.15859112,-0.019846972,-0.039537106,0.0032515887,-0.0007567164,0.0
531849513,-0.8103899,0.18635069,-0.020107334,-0.033375878,0.004674376,-0.0007209205,0.0
531881524,-0.7527954,0.2325376,-0.01569485,-0.026976058,0.0058059297,-0.0006885362,0.0
531909530,-0.68201077,0.25068903,-0.020903867,-0.021428173,0.006475856,-0.00064742414,0.0
531941474,-0.604696,0.29753616,-0.020009471,-0.015588133,0.006320776,-0.0005894541,0.0
531973572,-0.51138526,0.32229647,-0.028368447,-0.010414393,0.0056470125,-0.0005048491,0.0
532005512,-0.43406382,0.33061457,-0.027189309,-0.005921702,0.0055016493,-0.00041491905,0.0
532037502,-0.3721504,0.32317248,-0.020696174,-0.002210163,0.006029781,-0.00030743793,0.0
532069469,-0.30825904,0.3456043,-0.026930217,0.0010389981,0.006957531,-0.0002019997,0.0
532101472,-0.25336012,0.38506678,-0.016871344,0.0037516518,0.0076984786,-9.6473e-05,0.0
532133580,-0.19659355,0.4141184,-0.020147942,0.0059449747,0.008341223,1.6040209e-05,0.0
532165571,-0.14878824,0.444664,-0.017163487,0.007588869,0.008819655,0.00012703647,0.0
532197468,-0.11644151,0.45606884,-0.020311814,0.008940086,0.009308113,0.00024071767,0.0
532228677,-0.087527975,0.48083854,-0.01857148,0.010023347,0.009800335,0.00035035802,0.0
532260781,-0.062053498,0.5025805,-0.01620521,0.010956761,0.0097220335,0.0004574375,0.0
532292766,-0.038315874,0.51879066,-0.019922582,0.011675631,0.009395093,0.00055757776,0.0
532324706,-0.015788866,0.52665085,-0.021770997,0.012074608,0.008770893,0.0006650739,0.0
532356682,-0.005814162,0.52284247,-0.014862325,0.012358456,0.008279569,0.0007687105,0.0
532388734,0.006137528,0.5147983,-0.018485622,0.0125385905,0.008074256,0.0008577204,0.0
532416690,-0.0010495228,0.52981764,0.0013635228,0.012723893,0.007931404,0.0009363256,0.0
532448767,0.010979981,0.52689666,-0.0016889423,0.012806665,0.007872186,0.0010139653,0.0
532480714,0.033035815,0.52877814,-0.0077014863,0.012817064,0.0075294646,0.00109053,0.0
532512680,0.044976283,0.5213674,-0.009151396,0.012771252,0.007028195,0.0011645209,0.0
532544718,0.066112556,0.5158149,-0.008522775,0.012481995,0.00501363,0.0012282813,0.0
532575959,0.07231525,0.49661157,-0.004653283,0.01205514,0.002012301,0.0012824567,0.0
532607884,0.08491969,0.43226066,-0.0022177224,0.012494111,-0.015766868,0.001307308,0.0
532639919,0.060819015,0.2945824,0.013106765,0.012461936,-0.032818735,0.0013067008,0.0
532671945,0.062294107,-0.02658439,0.017151002,0.011853544,-0.047089085,0.0012449825,0.0
532703956,0.0491849,-0.43863198,0.032644633,0.011365673,-0.055891626,0.0011568131,0.0
532735892,0.022733893,-0.786334,0.025253206,0.011163644,-0.0586876,0.0010937221,0.0
532767924,0.022990473,-1.0049722,0.009385952,0.010920755,-0.056400698,0.0010180925,0.0
532799894,0.051845465,-1.072872,0.02374508,0.0105281975,-0.05140598,0.0009176666,0.0
532835882,0.0765241,-1.0687474,0.007812087,0.009767858,-0.044709783,0.0008328852,0.0
532867907,0.07966848,-1.0431874,-0.0029589501,0.008754757,-0.038437285,0.00076113956,0.0
532895887,0.08632546,-1.0186274,8.3188526e-05,0.00792208,-0.032700654,0.0007019671,0.0
532931080,0.056370035,-0.96046495,-0.0016534431,0.0072188787,-0.025725897,0.0006507202,0.0
532959136,0.056561746,-0.9171617,-0.0043255715,0.0067085545,-0.02070953,0.000612603,0.0
532991095,0.06332265,-0.8547838,-0.007405716,0.0061971,-0.016110733,0.000592392,0.0
533023122,0.064660266,-0.7932892,-0.005699961,0.0057252524,-0.01252704,0.0005964381,0.0
533055095,0.06709555,-0.74768305,-0.014762932,0.0054107565,-0.009383908,0.0006240068,0.0
533087203,0.05759807,-0.71811205,-0.008482621,0.0047729644,-0.006869125,0.0006496851,0.0
533119091,0.061206076,-0.698592,-0.0140892025,0.004188854,-0.004581951,0.00068248727,0.0
533151080,0.04548579,-0.67881924,-0.013364123,0.0036517936,-0.002487822,0.0007095648,0.0
533183120,0.038711574,-0.6647827,-0.019111386,0.0031457606,-0.00054056704,0.000744939,0.0
533211133,0.043296862,-0.6470154,-0.013596779,0.0025605422,0.0006965909,0.0007681765,0.0
533243120,0.040764175,-0.62559074,-0.019875571,0.002150947,0.0013694746,0.0008200809,0.0
533275163,0.035929937,-0.6294909,-0.02939562,0.0015824854,0.0014659722,0.00088270614,0.0
533307156,0.019609563,-0.6496525,-0.025667049,0.0011916452,0.0014311821,0.00095256243,0.0
533338336,0.023538733,-0.67419213,-0.030127682,0.00066280185,0.0019907183,0.0010285527,0.0
533370342,0.014184036,-0.684484,-0.025537843,0.00033030228,0.0031616315,0.0011119418,0.0
533402369,0.011172658,-0.6785806,-0.030142425,-8.858058e-05,0.004574671,0.001200953,0.0
533438396,0.010303249,-0.6498821,-0.03137225,-0.0003919433,0.0059593227,0.0013143845,0.0
533470381,0.017143553,-0.6267437,-0.027357139,-0.00069764047,0.00660994,0.0014158611,0.0
533498344,0.0041310615,-0.60895884,-0.026117396,-0.0010085587,0.007100415,0.0015025457,0.0
533530372,0.004897453,-0.6031621,-0.026131075,-0.0012804581,0.0076666432,0.0016099382,0.0
533562311,0.00036806287,-0.5913147,-0.020013388,-0.0018043402,0.008587554,0.0017107287,0.0
533594358,0.0007915294,-0.5746256,-0.020431703,-0.0021640845,0.00961027,0.0018135319,0.0
533626316,-0.004157462,-0.5467777,-0.016816739,-0.002382492,0.027026117,0.0018640192,0.0
533658352,0.009115086,-0.47630635,-0.01918909,-0.0023717023,0.046823077,0.0018986925,0.0
533693579,-0.0034353924,-0.17309436,-0.03568121,-0.0022372478,0.06710186,0.0019635984,0.0
533725563,0.012917905,0.22897547,-0.046694368,-0.002418428,0.080340914,0.0020680854,0.0
533757485,0.043251105,0.6228778,-0.05763548,-0.0029616805,0.0874232,0.0022174267,0.0
533785569,0.035860643,0.9625999,-0.04903939,-0.003685617,0.08856524,0.0023440416,0.0
533817474,0.0660601,1.2140424,-0.071011096,-0.004436222,0.084669285,0.0025146413,0.0
533849535,0.0068162745,1.2840098,-0.074480705,-0.005000842,0.07714044,0.0026557192,0.0
533881541,-0.0029535992,1.296199,-0.024177281,-0.0054710703,0.0681437,0.0028319496,0.0
533917482,-0.03713552,1.2197279,-0.03491299,-0.005649251,0.058723204,0.0029990284,0.0
533949503,-0.017066108,1.1682798,-0.011087686,-0.005507603,0.050206494,0.003112348,0.0
533981529,-0.0006368146,1.0852838,-0.019562792,-0.0054975655,0.041827384,0.0032649043,0.0
534012738,-0.03383033,1.0035696,-0.04234882,-0.0051185736,0.034070093,0.0034389894,0.0
534040720,-0.073646694,0.91601443,-0.019685177,-0.0045400322,0.027884388,0.0035529747,0.0
534076712,-0.06509914,0.8184214,-0.007581399,-0.0033858074,0.02064151,0.0036673457,0.0
534108672,-0.0656251,0.7303896,-0.014872765,-0.002451612,0.014532254,0.0038086595,0.0
534140678,-0.041597214,0.6323868,-0.054199956,-0.0016064933,0.009089311,0.003954571,0.0
534172702,-0.01920927,0.56171066,-0.03271733,-0.0007697203,0.004509003,0.0040765987,0.0
534204742,-0.017284526,0.48673645,-0.0041350927,-5.9820628e-05,0.0008234348,0.0041958266,0.0
534236752,-0.028392304,0.39679858,-0.023420118,0.00054631813,-0.0023249814,0.004299965,0.0
534264751,-0.029063025,0.37411663,0.016395792,0.0010415516,-0.0046979003,0.004363048,0.0
534296728,-0.013891639,0.2987596,0.00038434565,0.001590793,-0.006833745,0.0044439426,0.0
534328686,0.00095461146,0.24341436,-0.0057383636,0.0023043302,-0.008470956,0.004494791,0.0
534360781,-0.004736253,0.2046075,0.011098465,0.0030877958,-0.009670143,0.0045415857,0.0
534392727,-0.014399522,0.15498881,-0.00022124639,0.0037745917,-0.01050774,0.004597223,0.0
534423914,-0.004578173,0.12825286,-0.00097276457,0.004263043,-0.011181622,0.0046500107,0.0
534455940,-0.013592366,0.096476875,0.0010703756,0.0047767023,-0.011580225,0.004706478,0.0
534487957,-0.0045220633,0.07166446,-0.0008580717,0.005261078,-0.011761786,0.004755146,0.0
534519917,0.03278112,0.05754255,0.020414168,0.0056753396,-0.01164348,0.0048000133,0.0
534555930,0.047475126,0.029407982,0.023933366,0.0058647636,-0.011323817,0.0048461757,0.0
534587916,0.040659312,-0.014679556,-0.0036538471,0.00581952,-0.010755505,0.0048800525,0.0
534619873,0.0301119,-0.0075017223,0.018757055,0.0055983094,-0.009992339,0.0048971144,0.0
534651906,0.047002304,-0.02874865,0.01930522,0.005363639,-0.008973437,0.0049296776,0.0
534683915,0.053085513,-0.059948653,-0.023318041,0.005109228,-0.0078850845,0.0049591837,0.0
534715148,0.03433819,-0.041400027,0.011839574,0.004804398,-0.006760082,0.004983426,0.0
534747188,0.060015425,-0.061963808,0.00839356,0.004260895,-0.005587699,0.0050557763,0.0
534775179,0.058573816,-0.0600426,0.0011311965,0.0037325223,-0.0045383167,0.0051064217,0.0
534807209,0.05338084,-0.07052748,0.015649252,0.0029021385,-0.0034367442,0.005181882,0.0
534839095,0.047875483,-0.08282891,-0.028792536,0.0020282916,-0.0030224666,0.005256631,0.0
534875098,0.047911685,-0.07998117,-0.020560335,0.001008482,-0.0031472323,0.005333551,0.0
534907199,0.023954974,-0.08651345,0.0052129,3.3351742e-05,-0.0035287053,0.0054003107,0.0
534939138,0.024437448,-0.13241276,0.022328371,-0.0009914831,-0.0037293516,0.005464099,0.0
534971124,0.06568015,-0.1732278,0.026302136,-0.0023117412,-0.0036136783,0.00549993,0.0
535003076,0.049165513,-0.2013597,0.023036756,-0.0038265828,-0.0031076914,0.0055151456,0.0
535031116,0.029013632,-0.21449451,0.023217227,-0.0048527955,-0.0025375516,0.0055341665,0.0
535063108,-0.011234557,-0.2324604,0.02368274,-0.0058193463,-0.001624744,0.0055533163,0.0
535094401,-0.03352982,-0.25084665,0.019830514,-0.006605583,-0.00039997394,0.005625892,0.0
535129566,-0.0006746447,-0.28959998,0.026511587,-0.007568738,0.0014265575,0.005799128,0.0
535162324,-0.0118576465,-0.28196856,0.04396741,-0.008284194,0.0034799688,0.0059721847,0.0
535194378,-0.025969634,-0.26449868,0.051838428,-0.008834414,0.005632413,0.006132544,0.0
535226322,-0.04018828,-0.24336946,0.059726547,-0.009223418,0.007646724,0.0062916367,0.0
535258279,-0.09598182,-0.22900526,0.07293673,-0.009301201,0.009562169,0.006433796,0.0
535290344,-0.08903716,-0.20900305,0.10324841,-0.009042271,0.011419935,0.006555399,0.0
535318334,-0.08411959,-0.19004415,0.109626114,-0.008829904,0.012755853,0.00664053,0.0
535350306,-0.10553275,-0.16876537,0.10402926,-0.008282976,0.014175009,0.0067309216,0.0
535382320,-0.08598229,-0.16268131,0.09702488,-0.0076325587,0.015419297,0.006777465,0.0
535414359,-0.06741173,-0.14687297,0.09960209,-0.0070043905,0.016606443,0.006742304,0.0
535446298,-0.061607853,-0.11836625,0.10253446,-0.006295859,0.01773037,0.0066706836,0.0
535477507,-0.07808876,-0.11220079,0.10499176,-0.0056134113,0.01866757,0.006573249,0.0
535505524,-0.07799189,-0.09363991,0.102199584,-0.0049522207,0.019389613,0.0064879428,0.0
535537519,-0.05038654,-0.07538619,0.10803628,-0.0042639985,0.019705523,0.006369913,0.0
535569557,-0.057565134,-0.070050605,0.09899423,-0.003638941,0.019952634,0.006250265,0.0
535601480,-0.04170442,-0.05383746,0.10187732,-0.002946249,0.019858668,0.0061228625,0.0
535633545,-0.018934563,-0.025573779,0.09084087,-0.0024172997,0.019700436,0.0059938696,0.0
535665508,-0.021044975,-0.013416922,0.07866976,-0.0019836226,0.019415893,0.005877381,0.0
535697559,-0.03646368,-0.027300384,0.077272914,-0.0016655946,0.018829389,0.0057560056,0.0
535729498,-0.012175305,-0.017559139,0.091946974,-0.0012680483,0.018242562,0.005636172,0.0
535761527,-0.007205601,-0.01198908,0.100066565,-0.0008669396,0.017413413,0.005512069,0.0
535793509,-0.022213884,-0.016404286,0.08702206,-0.0004371135,0.016669527,0.0053993734,0.0
535824725,-0.0061561856,-0.023107767,0.08147157,-8.2656356e-05,0.015958471,0.005291411,0.0
535856738,0.005407233,-0.027063612,0.08768734,0.00014447645,0.015466246,0.0051821377,0.0
535888752,0.007924316,-0.021110507,0.08621176,0.00036735105,0.0148005225,0.0050747325,0.0
535916746,0.012042852,-0.020035528,0.07910399,0.0004104906,0.014365715,0.004987051,0.0
535948722,-0.00802945,-0.032102767,0.077477895,0.00063172437,0.013794033,0.00488626,0.0
535980719,0.014900371,-0.04708557,0.07606971,0.0007439178,0.013305263,0.004787377,0.0
536012710,0.03127424,-0.056369122,0.090842575,0.0007167644,0.012922652,0.0046879067,0.0
536044721,0.028626118,-0.046022166,0.08553822,0.0006308784,0.012564182,0.00458302,0.0
536076772,0.036226343,-0.040507372,0.08366029,0.0002981377,0.012179935,0.0044828593,0.0
536108716,0.03336937,-0.048730914,0.077682905,-3.517899e-05,0.011810848,0.0043890206,0.0
536140720,0.016923573,-0.047139186,0.07684766,-0.00037430605,0.011502337,0.00430395,0.0
536171162,0.016320728,-0.04275138,0.079171605,-0.00066548964,0.011151963,0.0042235865,0.0
536203928,0.022982722,-0.053054627,0.07414971,-0.00072330306,0.010869085,0.0041366573,0.0
536231931,0.02342832,-0.061007753,0.07153098,-0.0007630667,0.010783022,0.004060342,0.0
536263917,0.031857662,-0.06139268,0.064393885,-0.00094338367,0.010662787,0.003979573,0.0
536296032,0.056889128,-0.05101156,0.06351627,-0.0014932182,0.0105704395,0.0039202566,0.0
536327889,0.056904968,-0.04178463,0.0609563,-0.0022008372,0.010463188,0.0038713755,0.0
536359882,0.005239724,-0.05448582,0.059442278,-0.002709239,0.01033517,0.003825397,0.0
536391925,-0.00693635,-0.046605118,0.07300998,-0.0027501252,0.010287874,0.0037746392,0.0
536423873,-0.016369628,-0.041640095,0.06973717,-0.00257901,0.010176757,0.0036984368,0.0
536455937,-0.01769937,-0.041748885,0.06016544,-0.0020045997,0.009911544,0.0036012637,0.0
536487884,-0.030713575,-0.026775507,0.04746179,-0.0014344136,0.009647969,0.0035008278,0.0
536519916,-0.03100139,-0.036180783,0.03634671,-0.00077268813,0.009608878,0.0034162751,0.0
536551928,-0.023022242,-0.034409657,0.044151917,-0.0002028612,0.00952316,0.003326375,0.0
536583089,-0.010183562,-0.032646824,0.04946933,0.00024650592,0.009501256,0.0032511477,0.0
536615179,0.010515584,-0.026974298,0.04372824,0.00074026914,0.009428881,0.003190551,0.0
536647176,0.029288478,-0.031488292,0.027040819,0.0013427754,0.009325346,0.0031371508,0.0
536679082,0.020953514,-0.018990386,0.004427375,0.0016102489,0.0090605235,0.0031539898,0.0
536711105,0.01205352,-0.019032074,0.00759615,0.0018100674,0.008870172,0.003356312,0.0
536743112,0.034191713,-0.013892814,0.050929055,0.0018672984,0.008720194,0.0037131277,0.0
536775119,0.065416925,-0.01901896,0.081915885,0.0019470355,0.008694904,0.004268101,0.0
536807193,0.055874377,-0.018254375,0.116862565,0.002081314,0.008877048,0.0050576297,0.0
536839107,0.022317003,-0.02783466,0.1778992,0.0021164506,0.009105721,0.0060779112,0.0
536871133,0.0057680393,-0.03614336,0.25464332,0.0022718916,0.009441346,0.007558205,0.0
536903131,0.023211673,-0.019132163,0.35784093,0.0023633225,0.009836279,0.009508969,0.0
536935080,0.0057048984,-0.014319315,0.5001727,0.0025433763,0.01051757,0.011676981,0.0
536966296,0.005940765,-0.0084716175,0.6271922,0.0026316734,0.011286067,0.01372421,0.0
536998491,0.011659586,-0.021713855,0.72558784,0.0031648614,0.012068089,0.01574817,0.0
537030329,-0.05120295,-0.021562902,0.8377697,0.004166262,0.012990126,0.017653251,0.0
537062288,-0.056512672,-0.035138138,0.9065459,0.005616159,0.014308109,0.019418545,0.0
537094282,-0.044276524,-0.019160546,1.0069078,0.0072594914,0.01556886,0.021066805,0.0
537126317,-0.012008548,-0.020165207,1.0697784,0.008609696,0.016686205,0.022223765,0.0
537158397,0.0102479905,0.023377798,1.1083649,0.00963072,0.017327433,0.022338722,0.0
537190295,0.05253778,0.042023998,1.036637,0.010081365,0.017700352,0.021577213,0.0
537222326,0.08577175,0.08392816,0.912437,0.01029685,0.017210873,0.02034468,0.0
537250335,0.0682464,0.082369275,0.8055979,0.010109199,0.016573302,0.019108418,0.0
537285508,0.08675735,0.11657707,0.6583674,0.009082881,0.015234508,0.017591657,0.0
537313561,0.10194653,0.12391422,0.60620797,0.008319785,0.013984609,0.016372675,0.0
537345475,0.08452723,0.10193139,0.5554382,0.007426378,0.012699494,0.015002309,0.0
537377544,0.039644055,0.07903347,0.50602406,0.006864878,0.011309557,0.013617257,0.0
537409488,0.010628477,0.07267665,0.47469035,0.0065320213,0.009706318,0.012284292,0.0
537441555,-0.014665182,0.07468002,0.42596155,0.0062680664,0.008217858,0.011014422,0.0
537473489,-0.008317037,0.07109304,0.39623058,0.00624176,0.0070881,0.009796304,0.0
537505528,-0.015231632,0.029812157,0.35989198,0.006353634,0.005838638,0.00863913,0.0
537537526,-0.04641925,0.0083392365,0.3328202,0.0066506523,0.0048936764,0.007404839,0.0
537569552,-0.03728111,0.023787292,0.29726553,0.00688755,0.0039379895,0.0060010212,0.0
537601475,-0.032600075,0.010048807,0.22715895,0.0074665514,0.0032947292,0.0045450777,0.0
537632709,-0.042897545,-0.005849139,0.15287513,0.008073105,0.0027628222,0.003338213,0.0
537664736,-0.039162878,-0.006221437,0.11637877,0.008476837,0.0023848563,0.0024532853,0.0
537696825,-0.015146937,-0.002767619,0.114404224,0.008843607,0.0020580697,0.0017500975,0.0
537728735,0.009707485,-0.008448868,0.09864713,0.009215293,0.0016825146,0.0011470587,0.0
537760731,-0.02321225,-0.021803988,0.099854186,0.009599649,0.0012962607,0.00060719776,0.0
537792694,-0.030044092,-0.019364953,0.101977944,0.009705451,0.0010790896,0.00014720747,0.0
537824796,0.002787226,-0.011431564,0.11037821,0.00959697,0.00091611786,-0.0002722229,0.0
537856672,0.041840617,0.007203306,0.10625137,0.009329036,0.0006294746,-0.00065595505,0.0
537888677,0.028019095,0.0055695516,0.08753049,0.009012072,6.266584e-05,-0.0009890669,0.0
537920738,0.003067348,0.0053404737,0.06842623,0.008768337,-0.0004926722,-0.0012441529,0.0
537952798,0.0073281005,0.0047928873,0.062232703,0.008436876,-0.000831905,-0.0014509106,0.0
537984730,0.009443535,0.0020637072,0.047265146,0.007930367,-0.0011827633,-0.0016269074,0.0
538015125,0.026309093,-0.00034460175,0.035753764,0.0073807323,-0.0015983763,-0.0017571397,0.0
538047911,0.0087479,0.0036629236,0.016932813,0.006454797,-0.0020395063,-0.0018518615,0.0
538080031,0.0047703926,0.0036252337,0.0063745435,0.006078462,-0.0023603626,-0.0019118037,0.0
538111884,-0.015731461,-0.0052794525,0.00137064,0.005621645,-0.0025984182,-0.0019441047,0.0
538143913,-0.024261812,-0.0054963464,-0.0003613527,0.005452799,-0.0027964392,-0.001953326,0.0
538179888,-0.02168565,-0.004842086,-0.012777358,0.005352114,-0.0030785422,-0.0019414938,0.0
538211880,-0.017726412,-0.0022440837,-0.016584449,0.005200812,-0.0033058603,-0.0018993944,0.0
538243922,-0.0033261853,-0.0073359483,-0.019707229,0.0049024452,-0.003397206,-0.0018350494,0.0
538271881,0.022001661,-0.020704491,-0.01724278,0.004642622,-0.0034397554,-0.0017709228,0.0
538303925,0.02354928,-0.012457713,-0.02212613,0.0044917488,-0.0035505823,-0.0016824572,0.0
538339142,0.01647644,-0.007490158,-0.027101636,0.0042269556,-0.0036867226,-0.0015688853,0.0
538371123,0.011840377,-0.012538956,-0.0325891,0.0041429293,-0.0037131717,-0.0014539049,0.0
538403121,0.016238332,-0.010867219,-0.033419736,0.0038988446,-0.0036905226,-0.001324589,0.0
538435073,0.009393401,-0.00808319,-0.038713522,0.0037518612,-0.0036777784,-0.0011858976,0.0
538467159,0.0041877255,0.00032882916,-0.041531734,0.0036899212,-0.00371817,-0.0010292467,0.0
538499178,0.0040239757,-0.0046190005,-0.043440428,0.0037051686,-0.0037805522,-0.00085766206,0.0
538531123,-0.0024930248,-0.011489013,-0.042677518,0.0037395605,-0.0037333777,-0.0006902523,0.0
538563114,-0.0049101487,-0.009662264,-0.049053915,0.0038916047,-0.0035745641,-0.000504829,0.0
538595081,-0.0010975564,-0.0082493005,-0.046576798,0.003935564,-0.003338145,-0.00031167228,0.0
538627231,0.0018718038,-0.010518131,-0.04869035,0.0038685715,-0.0030605956,-0.000122054356,0.0
538659133,0.010755451,-0.0054976298,-0.052089345,0.003886481,-0.0028149905,8.096896e-05,0.0
538691109,0.009351353,-0.012709007,-0.05243392,0.0035576848,-0.002381558,0.00028615794,0.0
538721551,0.020810926,-0.0126843415,-0.060215473,0.003243923,-0.001929454,0.0004810623,0.0
538754345,0.024804514,-0.013730713,-0.06299803,0.0028081127,-0.0014084222,0.00069824123,0.0
538782386,0.012415924,-0.010453165,-0.07836837,0.002437967,-0.0011102187,0.0008799885,0.0
538814339,0.017660951,-0.0040399833,-0.08049181,0.0019034402,-0.0007590467,0.001087217,0.0
538846391,0.014495547,-0.0018216884,-0.085033126,0.0012527321,-0.00031129023,0.001314401,0.0
538874336,0.018080069,0.0006444598,-0.0641234,0.0009301929,-2.9748e-05,0.0015028436,0.0
538906337,0.014638541,0.010815812,-0.06786702,0.0002755811,0.00037652373,0.0017329114,0.0
538938365,0.004433218,0.011030618,-0.06777712,-2.2704648e-05,0.0006600081,0.0019682976,0.0
538970350,0.006050121,0.017874518,-0.0649095,-0.00025042894,0.0007787099,0.0021952007,0.0
539002360,-0.006610421,0.014610197,-0.0675091,-0.0006796043,0.0010446174,0.00243351,0.0
539034309,-0.002686635,0.01741254,-0.06941606,-0.000699572,0.0012439839,0.0026828435,0.0
539066285,-0.016227435,0.011886215,-0.062196992,-0.0009244442,0.0015130499,0.0029287299,0.0
539098521,-0.021590032,0.011174253,-0.06542007,-0.00090977486,0.0018228381,0.0031796726,0.0
539129518,-0.02331708,0.01634928,-0.06324367,-0.0008561005,0.0019443459,0.003425577,0.0
539161528,-0.025010765,0.018231882,-0.06402192,-0.0007492274,0.0021833417,0.003677027,0.0
539189477,-0.013498714,0.033037823,-0.046467233,-0.0007597511,0.0021960884,0.00389985,0.0
539221501,-0.020079559,0.032769475,-0.04009532,-0.0007040761,0.00230643,0.004156684,0.0
539253494,-0.006253754,0.03319534,-0.040387504,-0.00066681474,0.0023756542,0.0044100373,0.0
539285517,-0.0031688262,0.0341408,-0.035244722,-0.00085847086,0.0023829695,0.004669851,0.0
539317477,0.00088617695,0.024075894,-0.037098102,-0.00080126646,0.0024921517,0.0049218247,0.0
539349517,-0.0016409133,0.018840915,-0.030802473,-0.0010474579,0.002657008,0.005155441,0.0
539381505,-0.002134025,0.014554146,-0.031944945,-0.0012360591,0.0028676789,0.005377523,0.0
539413554,-0.0044371095,0.01617849,-0.030224305,-0.0014356157,0.003038518,0.005597605,0.0
539441525,-0.015309639,0.016987594,-0.027416555,-0.0015770295,0.0032230075,0.005771435,0.0
539473539,0.010236688,0.026224922,-0.019803582,-0.0016984378,0.0032618705,0.0059556025,0.0
539504699,0.0046012835,0.02893037,-0.01053757,-0.0016552068,0.003108628,0.006126393,0.0
539536734,-0.0073721027,0.010386395,-0.00038783439,-0.0016043389,0.0030781939,0.0062829377,0.0
539568765,-0.032615993,0.0051535517,0.0071482197,-0.0014743636,0.0033187617,0.006408145,0.0
539600796,-0.027359867,0.0015687537,0.030862601,-0.0015706789,0.003476078,0.006504849,0.0
539632686,-0.015058979,0.008505507,0.04043436,-0.0013632132,0.0036111248,0.006582402,0.0
539664712,-0.036031596,0.0029564982,0.029584853,-0.00078551733,0.0037037323,0.006640645,0.0
539696729,-0.033463787,-0.009340776,0.024633512,-0.00014541131,0.0041604615,0.0066839703,0.0
539724738,-0.027918736,-0.0057347356,0.028934788,0.0004685129,0.004358825,0.006708736,0.0
539755959,-0.0053415713,0.017331423,0.034409985,0.00078311184,0.0044548213,0.0067058876,0.0
539788703,-0.018751457,0.03874066,0.04021915,0.0009908645,0.004259544,0.0066874,0.0
539820773,-0.029389419,0.025930392,0.0475605,0.0015217592,0.0041838465,0.0066302205,0.0
539851933,-0.010376705,0.014677648,0.06330758,0.0020202044,0.004284217,0.006554633,0.0
539883961,-0.00019396166,-0.0018526297,0.0685263,0.002678014,0.0046873726,0.0064485134,0.0
539915887,0.0019343288,0.0023672492,0.07203338,0.0034882787,0.005046203,0.0063392404,0.0
539947911,-0.0073472243,0.01327573,0.07072142,0.004429544,0.005151914,0.0062185912,0.0
539979924,-0.00062962086,0.017225811,0.057817277,0.005139362,0.005545368,0.0061007272,0.0
540011981,0.0066929557,0.017433248,0.057178494,0.0058796573,0.0056457357,0.0059757545,0.0
540039921,0.017761687,0.018363852,0.049114835,0.0065124976,0.0058062403,0.0058601163,0.0
540071958,0.025739184,0.031706497,0.045404103,0.0071858,0.0059837615,0.0057236115,0.0
540103893,0.028612973,0.030656565,0.04027238,0.007931248,0.0060792044,0.005589177,0.0
540135923,0.02811887,0.043271396,0.040589828,0.008325999,0.006053604,0.005456408,0.0
540167172,0.037938144,0.04728997,0.034733996,0.008850487,0.005896059,0.005331537,0.0
540199073,0.034510806,0.047948956,0.034689147,0.00910497,0.0056918347,0.005204198,0.0
540231072,0.04908498,0.038194463,0.031672668,0.009242928,0.0056180377,0.005082614,0.0
540259078,0.05767386,0.016079713,0.02456767,0.009353266,0.005597654,0.0049784286,0.0
540291091,0.049537808,0.013325417,0.022844566,0.0091063995,0.005720137,0.0048647397,0.0
540323149,0.051930957,0.014199764,0.017927954,0.009077702,0.005740015,0.004753684,0.0
540351126,0.053459186,0.00498208,0.012697564,0.008989221,0.005686809,0.0046693976,0.0
540383120,0.052217565,0.004494756,0.005779014,0.008680665,0.0057826852,0.0045797247,0.0
540415153,0.06428347,0.009663946,0.00064147636,0.008529668,0.005555361,0.0045135226,0.0
540447145,0.053344857,0.010761203,0.00013482943,0.008257017,0.005476205,0.004450142,0.0
540479102,0.051694382,0.009665349,-0.010048129,0.008026456,0.0052916403,0.0043994808,0.0
540511110,0.056826044,0.015762083,-0.0118748695,0.0077224835,0.0050230618,0.004373896,0.0
540539149,0.07012636,0.014186513,-0.0066295983,0.007348484,0.0049065114,0.0043526203,0.0
540574289,0.0651191,0.011371469,-0.02079861,0.0067598866,0.00461894,0.0043558176,0.0
540606335,0.06497124,0.007693824,-0.019980453,0.0061120316,0.0044996804,0.004367994,0.0
540634287,0.065012865,0.015546912,-0.013319249,0.0054846862,0.004429531,0.0043765935,0.0
540666345,0.0573347,0.013242951,-0.013832554,0.004760248,0.0042926017,0.0044066417,0.0
540702259,0.052607577,-0.0072249817,-0.021506507,0.003898617,0.0042788303,0.0044388236,0.0
540734340,0.040837303,-0.01130299,-0.021296324,0.003236178,0.004247592,0.0044780727,0.0
540766336,0.03425436,-0.012524849,-0.021030124,0.0025494746,0.004257444,0.004524908,0.0
540798367,0.025390703,-0.021967897,-0.021531256,0.001913486,0.004378117,0.0045744926,0.0
540830285,0.0061863065,-0.023318265,-0.01993312,0.0014514771,0.004518513,0.0046288823,0.0
540861598,-0.0077963946,-0.026207332,-0.020183926,0.00101775,0.0046945103,0.0046782894,0.0
540893517,-0.009602757,-0.026255896,-0.022249073,0.00085437676,0.0049402,0.0047354097,0.0
540921577,-0.023289187,-0.014295765,-0.017715186,0.00058324996,0.005104275,0.0047916947,0.0
540953526,-0.033453304,-0.017011337,-0.016409185,0.00057637633,0.0053994698,0.0048503387,0.0
540985494,-0.03982965,-0.016261598,-0.015517406,0.0006571735,0.005514636,0.0049128016,0.0
541017496,-0.043635745,-0.018321933,-0.014210729,0.0009343091,0.005779292,0.004974658,0.0
541049530,-0.03710804,-0.015245841,-0.01093387,0.0011202316,0.006044418,0.005033597,0.0
541081573,-0.040929217,-0.008965017,-0.0062738396,0.0014889147,0.0060598454,0.0051005967,0.0
541113523,-0.03378048,0.005517087,-0.0039348896,0.0017789535,0.006217604,0.0051647658,0.0
541145483,-0.030389449,0.008678066,0.0016644164,0.002033258,0.0062031955,0.0052284356,0.0
541177601,-0.0239892,0.0046639983,0.0042766635,0.0023138653,0.006290129,0.005292357,0.0
541208738,-0.020871023,0.004694276,0.006291312,0.0026361493,0.0062635336,0.005351767,0.0
541240759,-0.02486695,-0.0044658454,0.010891678,0.0028436584,0.0063171727,0.005411088,0.0
541272689,-0.026035257,-0.012583603,0.012788422,0.0033390806,0.0064403024,0.005456528,0.0
541304762,-0.038057853,-0.018600048,0.012656545,0.0036895948,0.0066741942,0.005501707,0.0
541336714,-0.045235276,-0.018687902,0.013510408,0.004297098,0.0070655453,0.0055433684,0.0
541368684,-0.04535313,-0.0077899788,0.010810845,0.005027324,0.0072863125,0.005580864,0.0
541400761,-0.05039006,0.00047339167,0.012360176,0.005588136,0.00752311,0.0056268047,0.0
541432782,-0.036093198,0.005691856,0.0062534395,0.006252721,0.007550361,0.0056643006,0.0
541468676,-0.03711875,0.0013770796,-0.004458586,0.006842262,0.0075544007,0.005720589,0.0
541500886,-0.02410586,0.005101501,-0.0011229352,0.007289226,0.007529116,0.005765535,0.0
541532732,-0.01241418,0.013310506,-0.00081246765,0.0076381997,0.007394573,0.005813591,0.0
541563906,-0.0041101547,0.0108501315,-0.00084436266,0.007980146,0.0072116964,0.0058760373,0.0
541595140,0.0061951824,0.0057127345,-0.0038475557,0.008015985,0.0071100187,0.0059402925,0.0
541627942,0.022364527,0.0029283105,-0.007643558,0.007950552,0.0071077384,0.006010149,0.0
541659914,0.030278832,-0.008785131,-0.013264101,0.007529086,0.0071626673,0.006088265,0.0
541691945,0.028606366,-0.00844256,-0.012166796,0.0070310095,0.0072158407,0.006158717,0.0
541719945,0.03587968,-0.0043372083,-0.021785902,0.0064344807,0.0072226636,0.0062124617,0.0
541751914,0.026381366,-0.0037573734,-0.025662964,0.005686031,0.0070949183,0.006290694,0.0
541783899,0.02346605,0.0014583354,-0.022854313,0.005185972,0.0069731716,0.006361829,0.0
541815950,0.018006567,0.0051979963,-0.018849395,0.004625547,0.0067878007,0.00644113,0.0
541847929,0.0110697495,0.010288373,-0.015456729,0.004253729,0.006601479,0.006510952,0.0
541879912,0.004667437,0.014857784,-0.015302122,0.004096906,0.006264369,0.0065849167,0.0
541911882,-0.012618654,0.013674979,-0.016425591,0.004095253,0.005840015,0.0066659027,0.0
541943188,-0.020265367,0.01031785,-0.02323039,0.0042148205,0.005432159,0.006742103,0.0
541975091,-0.029246181,0.0017438142,-0.025732202,0.0043871594,0.0051606684,0.0068392805,0.0
542003207,-0.02957252,-0.0003473385,-0.015896497,0.0047670132,0.0049840156,0.006915454,0.0
542035081,-0.02299172,0.0022314454,-0.010886127,0.0050771125,0.004880401,0.0070090005,0.0
542067151,-0.014932583,0.0028163078,-0.014452181,0.00544406,0.0046364167,0.007106288,0.0
542099135,-0.009401881,0.0017759115,-0.011420805,0.005709508,0.004332678,0.007207679,0.0
542131125,-0.0032557517,-0.003743672,-0.01389555,0.005886124,0.0039883,0.0073172497,0.0
542163113,0.006731746,-0.010274475,-0.016540159,0.006043218,0.003722889,0.0074331616,0.0
542195081,0.010249166,-0.01589729,-0.010276141,0.005993877,0.0034851038,0.007544627,0.0
542227179,0.03135142,-0.022505531,-0.0134880105,0.0057429206,0.0033805342,0.0076540583,0.0
542255075,0.019418005,-0.012782137,-0.011002653,0.005350235,0.00326042,0.007751122,0.0
