timestamp,x,y,z,yaw,yawspeed,vx,vy,vz,acc_x,acc_y,acc_z,jerk_x,jerk_y,jerk_z,thrust[0],thrust[1],thrust[2]
522543949,nan,nan,nan,0.4161022,0.0,nan,nan,nan,0.0,0.0,0.0,0.0,0.0,0.0,0.0,0.0,0.0
522565170,nan,nan,nan,0.416117,0.0,nan,nan,nan,0.0,0.0,0.0,0.0,0.0,0.0,0.0,0.0,0.0
522664007,nan,nan,nan,0.41680592,0.0,nan,nan,nan,0.0,0.0,0.0,0.0,0.0,0.0,0.0,0.0,0.0
522764099,nan,nan,nan,0.4163586,0.0,nan,nan,nan,0.0,0.0,0.0,0.0,0.0,0.0,0.0,0.0,0.0
522864228,nan,nan,nan,0.41607738,0.0,nan,nan,nan,0.0,0.0,0.0,0.0,0.0,0.0,0.0,0.0,0.0
522964404,nan,nan,nan,0.41686732,0.0,nan,nan,nan,0.0,0.0,0.0,0.0,0.0,0.0,0.0,0.0,0.0
523064577,nan,nan,nan,0.41608083,0.0,nan,nan,nan,0.0,0.0,0.0,0.0,0.0,0.0,0.0,0.0,0.0
523165050,nan,nan,nan,0.41638717,0.0,nan,nan,nan,0.0,0.0,0.0,0.0,0.0,0.0,0.0,0.0,0.0
523265194,nan,nan,nan,0.41666606,0.0,nan,nan,nan,0.0,0.0,0.0,0.0,0.0,0.0,0.0,0.0,0.0
523365130,nan,nan,nan,0.41616923,0.0,nan,nan,nan,0.0,0.0,0.0,0.0,0.0,0.0,0.0,0.0,0.0
523465338,nan,nan,nan,0.41629267,0.0,nan,nan,nan,0.0,0.0,0.0,0.0,0.0,0.0,0.0,0.0,0.0
523565071,nan,nan,nan,0.41649383,0.0,nan,nan,nan,0.0,0.0,0.0,0.0,0.0,0.0,0.0,0.0,0.0
523666349,nan,nan,nan,0.41603306,0.0,nan,nan,nan,0.0,0.0,0.0,0.0,0.0,0.0,0.0,0.0,0.0
523765332,nan,nan,nan,0.41620427,0.0,nan,nan,nan,0.0,0.0,0.0,0.0,0.0,0.0,0.0,0.0,0.0
523866437,nan,nan,nan,0.41635588,0.0,nan,nan,nan,0.0,0.0,0.0,0.0,0.0,0.0,0.0,0.0,0.0
523985431,nan,nan,nan,0.4160955,0.0,nan,nan,nan,0.0,0.0,0.0,0.0,0.0,0.0,0.0,0.0,0.0
524085496,nan,nan,nan,0.4165304,0.0,nan,nan,nan,0.0,0.0,0.0,0.0,0.0,0.0,0.0,0.0,0.0
524185696,nan,nan,nan,0.41610074,0.0,nan,nan,nan,0.0,0.0,0.0,0.0,0.0,0.0,0.0,0.0,0.0
524285652,nan,nan,nan,0.41620564,0.0,nan,nan,nan,0.0,0.0,0.0,0.0,0.0,0.0,0.0,0.0,0.0
524385669,nan,nan,nan,0.4164873,0.0,nan,nan,nan,0.0,0.0,0.0,0.0,0.0,0.0,0.0,0.0,0.0
524485963,nan,nan,nan,0.41601637,0.0,nan,nan,nan,0.0,0.0,0.0,0.0,0.0,0.0,0.0,0.0,0.0
524585989,nan,nan,nan,0.41636932,0.0,nan,nan,nan,0.0,0.0,0.0,0.0,0.0,0.0,0.0,0.0,0.0
524686195,nan,nan,nan,0.41636664,0.0,nan,nan,nan,0.0,0.0,0.0,0.0,0.0,0.0,0.0,0.0,0.0
524786177,nan,nan,nan,0.41608512,0.0,nan,nan,nan,0.0,0.0,0.0,0.0,0.0,0.0,0.0,0.0,0.0
524887507,nan,nan,nan,0.41633984,0.0,nan,nan,nan,0.0,0.0,0.0,0.0,0.0,0.0,0.0,0.0,0.0
524986501,nan,nan,nan,0.41603333,0.0,nan,nan,nan,0.0,0.0,0.0,0.0,0.0,0.0,0.0,0.0,0.0
525106451,nan,nan,nan,0.41623384,0.0,nan,nan,nan,0.0,0.0,0.0,0.0,0.0,0.0,0.0,0.0,0.0
525206531,nan,nan,nan,0.41604683,0.0,nan,nan,nan,0.0,0.0,0.0,0.0,0.0,0.0,0.0,0.0,0.0
525306701,nan,nan,nan,0.4159637,0.0,nan,nan,nan,0.0,0.0,0.0,0.0,0.0,0.0,0.0,0.0,0.0
525406929,nan,nan,nan,0.41623208,0.0,nan,nan,nan,0.0,0.0,0.0,0.0,0.0,0.0,0.0,0.0,0.0
525506916,nan,nan,nan,0.41587698,0.0,nan,nan,nan,0.0,0.0,0.0,0.0,0.0,0.0,0.0,0.0,0.0
525607136,nan,nan,nan,0.41587186,0.0,nan,nan,nan,0.0,0.0,0.0,0.0,0.0,0.0,0.0,0.0,0.0
525707172,nan,nan,nan,0.41582403,0.0,nan,nan,nan,0.0,0.0,0.0,0.0,0.0,0.0,0.0,0.0,0.0
525807724,0.42290026,0.23934141,nan,0.41590878,0.0,-0.0004325658,-0.00011904538,1.7801424,0.0,0.0,0.0,0.0,0.0,0.0,0.0019127066,-0.0005584718,-0.12
525907752,0.42290026,0.23934141,nan,0.41590878,0.0,-0.0009063035,-0.00032442808,1.5117555,0.0,0.0,0.0,0.0,0.0,0.0,0.00037854674,-0.0009641945,-0.12
526007603,0.42290026,0.23934141,nan,0.41590878,0.0,-0.0014315248,-0.00056568533,1.2434946,0.0,0.0,0.0,0.0,0.0,0.0,-0.0026742432,-0.0016634774,-0.16191171
526108045,0.42290026,0.23934141,nan,0.41590878,0.0,-0.0022318214,-0.0007982403,0.9739645,0.0,0.0,0.0,0.0,0.0,0.0,-0.009515924,0.0057927924,-0.21277212
526207764,0.42290026,0.23934141,nan,0.41590878,0.0,-0.0030794293,-0.001022175,0.7067903,0.0,0.0,0.0,0.0,0.0,0.0,-0.008011766,0.0049986374,-0.26364285
526308336,0.42290026,0.23934141,nan,0.41590878,0.0,-0.0038640797,-0.0014920086,0.43682292,0.0,0.0,0.0,0.0,0.0,0.0,0.0055875946,-0.0031576564,-0.3134141
526407876,0.42290026,0.23934141,nan,0.41590878,0.0,-0.0048690885,-0.002231732,0.16960853,0.0,0.0,0.0,0.0,0.0,0.0,-0.0008881365,-0.0034730455,-0.36444938
526507915,0.42290026,0.23934141,nan,0.41590878,0.0,-0.006135434,-0.0039753914,-0.099009246,0.0,0.0,0.0,0.0,0.0,0.0,-0.0054870094,-0.0057145935,-0.40013286
526628005,0.42290026,0.23934141,nan,0.41590878,0.0,-0.008302629,-0.007910565,-0.42107904,0.0,0.0,0.0,0.0,0.0,0.0,-0.003816919,-0.008977806,-0.41893587
526728057,0.42290026,0.23934141,nan,0.41590878,0.0,-0.010893419,-0.012402594,-0.6895761,0.0,0.0,0.0,0.0,0.0,0.0,-0.0068372013,-0.009182645,-0.42808628
526828337,0.42290026,0.23934141,nan,0.41590878,0.0,-0.015075907,-0.018103257,-0.95818055,0.0,0.0,0.0,0.0,0.0,0.0,-0.007708686,-0.011056164,-0.42264366
526928365,0.42290026,0.23934141,nan,0.41590878,0.0,-0.019923225,-0.023943052,-1.2268224,0.0,0.0,0.0,0.0,0.0,0.0,-0.009222587,-0.008745312,-0.42793438
527028917,0.42290026,0.23934141,nan,0.41590878,0.0,-0.026480228,-0.031054407,-1.4957407,0.0,0.0,0.0,0.0,0.0,0.0,-0.012476938,-0.010830177,-0.43239138
527129055,0.42290026,0.23934141,nan,0.41590878,0.0,-0.033457696,-0.03733398,-1.5,0.0,0.0,0.0,0.0,0.0,0.0,-0.01176079,-0.010203244,-0.38855526
527228639,0.42290026,0.23934141,nan,0.41590878,0.0,-0.041357964,-0.043289557,-1.5,0.0,0.0,0.0,0.0,0.0,0.0,-0.012396693,-0.006790347,-0.3619131
527329563,0.42290026,0.23934141,nan,0.41590878,0.0,-0.050180107,-0.048210815,-1.5,0.0,0.0,0.0,0.0,0.0,0.0,-0.016939282,-0.005737154,-0.3602408
527428794,0.42290026,0.23934141,nan,0.41590878,0.0,-0.058912814,-0.051019773,-1.5,0.0,0.0,0.0,0.0,0.0,0.0,-0.018708147,-0.004779095,-0.36244425
527529580,0.42290026,0.23934141,nan,0.41590878,0.0,-0.06900501,-0.052525952,-1.5,0.0,0.0,0.0,0.0,0.0,0.0,-0.017469756,-0.0042418353,-0.35798168
527629905,0.42290026,0.23934141,nan,0.41590878,0.0,-0.079247236,-0.052039787,-1.5,0.0,0.0,0.0,0.0,0.0,0.0,-0.018696876,0.0010422526,-0.35870203
527729311,0.42290026,0.23934141,nan,0.41590878,0.0,-0.089083016,-0.050264016,-1.5,0.0,0.0,0.0,0.0,0.0,0.0,-0.019442309,0.0004738192,-0.36350557
527849402,0.42290026,0.23934141,nan,0.3646908,0.0,-0.0989722,-0.04613678,-1.5,0.0,0.0,0.0,0.0,0.0,0.0,-0.021203034,-0.0006173721,-0.36473382
527949489,0.42290026,0.23934141,nan,0.3646908,0.0,-0.109377,-0.042746037,-1.5,0.0,0.0,0.0,0.0,0.0,0.0,-0.02062884,0.0022560004,-0.36710924
528049558,0.42290026,0.23934141,nan,0.3646908,0.0,-0.11900374,-0.03897147,-1.5,0.0,0.0,0.0,0.0,0.0,0.0,-0.020932697,0.0024185963,-0.36986667
528149530,0.42290026,0.23934141,nan,0.3646908,0.0,-0.1284793,-0.035177663,-1.5,0.0,0.0,0.0,0.0,0.0,0.0,-0.01859209,0.00057828915,-0.36680114
528249542,0.42290026,0.23934141,nan,0.3646908,0.0,-0.13660213,-0.031357452,-1.5,0.0,0.0,0.0,0.0,0.0,0.0,-0.018864773,0.0021995648,-0.36411965
528349969,0.42290026,0.23934141,nan,0.3646908,0.0,-0.14471826,-0.026546583,-1.5,0.0,0.0,0.0,0.0,0.0,0.0,-0.023131702,0.0027220831,-0.36475536
528449942,0.42290026,0.23934141,nan,0.3646908,0.0,-0.15080664,-0.022260696,-1.5,0.0,0.0,0.0,0.0,0.0,0.0,-0.022660464,0.002104682,-0.36330763
528549930,0.42290026,0.23934141,nan,0.3646908,0.0,-0.15674633,-0.018381968,-1.5,0.0,0.0,0.0,0.0,0.0,0.0,-0.019895528,0.002979463,-0.36638328
528650643,0.42290026,0.23934141,nan,0.3646908,0.0,-0.16238815,-0.014422536,-1.5,0.0,0.0,0.0,0.0,0.0,0.0,-0.01953667,0.0013236873,-0.36594594
528750110,0.42290026,0.23934141,nan,0.3646908,0.0,-0.16669434,-0.012004077,-1.5,0.0,0.0,0.0,0.0,0.0,0.0,-0.019141622,0.0014914409,-0.36515194
528850374,0.42290026,0.23934141,nan,0.3646908,0.0,-0.17141753,-0.008912906,-1.5,0.0,0.0,0.0,0.0,0.0,0.0,-0.020885352,0.0006227315,-0.3620647
528950389,0.42290026,0.23934141,nan,0.3646908,0.0,-0.17545852,-0.007302299,-1.5,0.0,0.0,0.0,0.0,0.0,0.0,-0.021848999,-0.0006757017,-0.3608302
529050437,0.42290026,0.23934141,nan,0.3646908,0.0,-0.17895186,-0.005629018,-1.5,0.0,0.0,0.0,0.0,0.0,0.0,-0.021188874,0.0019753086,-0.3636564
529150425,0.42290026,0.23934141,nan,0.3646908,0.0,-0.18274936,-0.0047892183,-1.5,0.0,0.0,0.0,0.0,0.0,0.0,-0.021731868,0.00069104263,-0.3653993
529250684,nan,nan,nan,0.3646908,0.0,0.738951,0.28210768,-1.5,0.0,0.0,0.0,0.0,0.0,0.0,0.036449224,0.016719058,-0.36567646
529371286,nan,nan,nan,0.3646908,0.0,1.5561193,0.5940762,-1.5,0.0,0.0,0.0,0.0,0.0,0.0,0.08541214,0.037429545,-0.36291152
529471491,nan,nan,nan,0.3646908,0.0,2.2250257,0.8494431,-1.5,0.0,0.0,0.0,0.0,0.0,0.0,0.124503806,0.051999833,-0.35950854
529571461,nan,nan,nan,0.3646908,0.0,2.8731823,1.0968884,-1.5,0.0,0.0,0.0,0.0,0.0,0.0,0.15612163,0.06522006,-0.35550705
529671589,nan,nan,nan,0.3646908,0.0,3.5242655,1.3454509,-1.5,0.0,0.0,0.0,0.0,0.0,0.0,0.18537103,0.07534727,-0.3395386
529771445,nan,nan,nan,0.3646908,0.0,4.187077,1.5984911,-1.5,0.0,0.0,0.0,0.0,0.0,0.0,0.21055502,0.089267924,-0.3403117
529872755,nan,nan,nan,0.3646908,0.0,4.8633714,1.8566782,-1.5514666,0.0,0.0,0.0,0.0,0.0,0.0,0.21610573,0.08989553,-0.3342687
529971481,nan,nan,nan,0.3646908,0.0,4.390785,1.6762602,-1.7116678,0.0,0.0,0.0,0.0,0.0,0.0,0.1815114,0.07488006,-0.36080402
530071555,nan,nan,nan,0.3646908,0.0,1.0781301,0.37174717,-1.8787836,0.0,0.0,0.0,0.0,0.0,0.0,-0.045901038,-0.0131301265,-0.39493334
530171735,nan,nan,nan,0.3646908,0.0,0.6987572,0.24093658,-1.860903,0.0,0.0,0.0,0.0,0.0,0.0,-0.09284279,-0.034725472,-0.3986706
530271725,nan,nan,nan,0.3646908,0.0,0.5894367,-0.2638489,-1.6752096,0.0,0.0,0.0,0.0,0.0,0.0,-0.10680489,-0.06941876,-0.3504962
530371787,nan,nan,nan,0.3646908,0.0,0.77834064,-0.86653876,-1.6695342,0.0,0.0,0.0,0.0,0.0,0.0,-0.09644012,-0.106414504,-0.34291574
530491998,nan,nan,nan,0.3646908,0.0,0.99539506,-1.4999458,-1.631077,0.0,0.0,0.0,0.0,0.0,0.0,-0.07430906,-0.13967174,-0.32648468
530591990,nan,nan,nan,0.3646908,0.0,0.7771436,-1.7769656,-1.6614293,0.0,0.0,0.0,0.0,0.0,0.0,-0.08055819,-0.1543665,-0.33128977
530692139,nan,nan,nan,0.3646908,0.0,0.4774616,-1.2506598,-1.6969095,0.0,0.0,0.0,0.0,0.0,0.0,-0.09054674,-0.10610366,-0.3357813
530792117,nan,nan,nan,0.3646908,0.0,1.9995135,0.5577453,-1.7211295,0.0,0.0,0.0,0.0,0.0,0.0,0.007829591,0.019585937,-0.34544802
530892372,nan,nan,nan,0.3646908,0.0,1.559071,0.5521433,-1.6826637,0.0,0.0,0.0,0.0,0.0,0.0,-0.010058229,0.036146455,-0.3524407
530992594,nan,nan,nan,0.3646908,0.0,1.3066148,1.0400115,-1.6687493,0.0,0.0,0.0,0.0,0.0,0.0,-0.027171578,0.0703405,-0.3669875
531092635,nan,nan,nan,0.3646908,0.0,1.0906096,1.4915019,-1.6051278,0.0,0.0,0.0,0.0,0.0,0.0,-0.03616634,0.10084679,-0.3586176
531192663,nan,nan,nan,0.3646908,0.0,0.87451833,1.9432721,-1.684866,0.0,0.0,0.0,0.0,0.0,0.0,-0.05312785,0.12545474,-0.36961532
531294266,nan,nan,nan,0.3646908,0.0,0.646078,2.4145546,-1.5793644,0.0,0.0,0.0,0.0,0.0,0.0,-0.06270041,0.15033811,-0.3397238
531412886,nan,nan,nan,0.3646908,0.0,0.15158622,2.9250078,-1.5993977,0.0,0.0,0.0,0.0,0.0,0.0,-0.08987069,0.16348456,-0.33760303
531512798,nan,nan,nan,0.3646908,0.0,1.5210977,0.24232832,-1.5919399,0.0,0.0,0.0,0.0,0.0,0.0,-0.0020622197,-0.007569952,-0.33096308
531613669,nan,nan,nan,0.3646908,0.0,1.1226583,0.17885235,-1.5755771,0.0,0.0,0.0,0.0,0.0,0.0,-0.015854625,-0.037752185,-0.3402984
531713125,nan,nan,nan,0.3646908,0.0,0.730306,0.11634614,-1.5773437,0.0,0.0,0.0,0.0,0.0,0.0,-0.038331382,-0.044651557,-0.3604413
531813200,nan,nan,nan,0.3646908,0.0,0.33448556,0.053287394,-1.5320415,0.0,0.0,0.0,0.0,0.0,0.0,-0.056138296,-0.05780776,-0.3600264
531913722,nan,nan,nan,0.3646908,0.0,-0.001384556,-0.0005285788,-1.6606332,0.0,0.0,0.0,0.0,0.0,0.0,-0.07354538,-0.056658924,-0.38491914
532013938,nan,nan,nan,0.3646908,0.0,-0.53364277,-0.2071525,-1.6297848,0.0,0.0,0.0,0.0,0.0,0.0,-0.10197675,-0.06343251,-0.3647688
532113998,nan,nan,nan,0.3646908,0.0,-0.9962548,-0.40018222,-1.5914894,0.0,0.0,0.0,0.0,0.0,0.0,-0.12686892,-0.06980113,-0.34817436
532213740,nan,nan,nan,0.3646908,0.0,-1.4621731,-0.57948095,-1.541561,0.0,0.0,0.0,0.0,0.0,0.0,-0.14912708,-0.070329666,-0.3288412
532316420,nan,nan,nan,0.3646908,0.0,-1.9834546,-0.77759445,-1.5250747,0.0,0.0,0.0,0.0,0.0,0.0,-0.16869324,-0.07788363,-0.32854912
532414141,nan,nan,nan,0.3646908,0.0,-2.6480808,-1.0256714,-1.5561755,0.0,0.0,0.0,0.0,0.0,0.0,-0.19809496,-0.08580641,-0.32716346
532515048,nan,nan,nan,0.3646908,0.0,-2.801974,-1.0740646,-1.5875223,0.0,0.0,0.0,0.0,0.0,0.0,-0.1870346,-0.07596415,-0.32326463
532614009,nan,nan,nan,0.3646908,0.0,0.0075190105,0.06796643,-1.4736195,0.0,0.0,0.0,0.0,0.0,0.0,-0.0051806793,0.00024972763,-0.3022839
532715254,5.166522,1.8219689,nan,0.3646908,0.0,0.017619371,-0.00018781424,-1.4811176,0.0,0.0,0.0,0.0,0.0,0.0,0.01701419,0.0044500874,-0.33083183
532836523,5.166522,1.8219689,nan,0.3646908,0.0,0.05930233,0.008956015,-1.4868038,0.0,0.0,0.0,0.0,0.0,0.0,0.029377788,0.0101879025,-0.367334
532934615,nan,nan,nan,0.3646908,0.0,0.2908976,0.11105533,-1.4537575,0.0,0.0,0.0,0.0,0.0,0.0,0.046755344,0.017911974,-0.36135107
533034534,nan,nan,nan,0.3646908,0.0,0.8230592,0.31421745,-1.5237911,0.0,0.0,0.0,0.0,0.0,0.0,0.074201584,0.033958595,-0.3766479
533134619,nan,nan,nan,0.3646908,0.0,1.291508,0.4930561,-1.6201465,0.0,0.0,0.0,0.0,0.0,0.0,0.100277714,0.04412325,-0.37909248
533234533,nan,nan,nan,0.3646908,0.0,1.7587748,0.67144346,-1.5239636,0.0,0.0,0.0,0.0,0.0,0.0,0.12678841,0.05474116,-0.3460959
533335279,nan,nan,nan,0.3646908,0.0,2.2273166,0.85031766,-1.483008,0.0,0.0,0.0,0.0,0.0,0.0,0.14196895,0.06215013,-0.3305791
533435037,nan,nan,nan,0.3646908,0.0,2.6947467,1.0287673,-1.44603,0.0,0.0,0.0,0.0,0.0,0.0,0.16249537,0.069990955,-0.3222836
533535065,nan,nan,nan,0.3646908,0.0,3.2190711,1.2289375,-1.5032412,0.0,0.0,0.0,0.0,0.0,0.0,0.17983831,0.07140493,-0.33129692
533635037,4.4448357,1.5062525,nan,0.3646908,0.0,3.2424927e-05,0.0011552572,-1.2544343,0.0,0.0,0.0,0.0,0.0,0.0,-0.0304628,-0.0057149674,-0.2763585
533735188,4.4448357,1.5062525,nan,0.3646908,0.0,-0.010834217,0.0037369728,-1.2952107,0.0,0.0,0.0,0.0,0.0,0.0,-0.052245818,-0.013722033,-0.30345988
533836037,4.4448357,1.5062525,nan,0.3646908,0.0,-0.038680077,-0.00059080124,-1.1267414,0.0,0.0,0.0,0.0,0.0,0.0,-0.065446824,-0.016363524,-0.31079936
533956020,4.4448357,1.5062525,nan,0.3646908,0.0,-0.08523297,-0.012517929,-0.76960546,0.0,0.0,0.0,0.0,0.0,0.0,-0.06451273,-0.021585174,-0.2788827
534055494,4.4448357,1.5062525,nan,0.3646908,0.0,-0.12739778,-0.02499926,-0.47152543,0.0,0.0,0.0,0.0,0.0,0.0,-0.06782311,-0.018449644,-0.25182724
534155565,4.4448357,1.5062525,nan,0.3646908,0.0,-0.17440438,-0.03973311,-0.17111444,0.0,0.0,0.0,0.0,0.0,0.0,-0.061372086,-0.016716603,-0.24137661
534255805,4.4448357,1.5062525,nan,0.3646908,0.0,-0.21585393,-0.052862287,0.12933855,0.0,0.0,0.0,0.0,0.0,0.0,-0.06157062,-0.01569878,-0.23520473
534355772,4.4448357,1.5062525,nan,0.3646908,0.0,-0.25669503,-0.06578219,0.42942554,0.0,0.0,0.0,0.0,0.0,0.0,-0.058181338,-0.016341407,-0.24206275
534456128,4.4448357,1.5062525,nan,0.3646908,0.0,-0.2896936,-0.075739205,0.7307005,0.0,0.0,0.0,0.0,0.0,0.0,-0.0584392,-0.010436206,-0.24103561
534556351,4.4448357,1.5062525,nan,0.3646908,0.0,-0.319839,-0.08466625,1.0313214,0.0,0.0,0.0,0.0,0.0,0.0,-0.05163113,-0.01356756,-0.24021773
534656323,4.4448357,1.5062525,nan,0.3646908,0.0,-0.34239507,-0.090978384,1.3313243,0.0,0.0,0.0,0.0,0.0,0.0,-0.051415958,-0.010160919,-0.23782325
534756339,4.4448357,1.5062525,nan,0.3646908,0.0,-0.3610208,-0.09585202,1.6306254,0.0,0.0,0.0,0.0,0.0,0.0,-0.050204523,-0.009302947,-0.24099854
534858154,4.4448357,1.5062525,nan,0.3646908,0.0,-0.37372828,-0.0990693,1.4572732,0.0,0.0,0.0,0.0,0.0,0.0,-0.042105094,-0.010489501,-0.33226076
534956390,4.4448357,1.5062525,nan,0.3646908,0.0,-0.38017225,-0.10052955,1.1622744,0.0,0.0,0.0,0.0,0.0,0.0,-0.03737832,-0.0072013205,-0.41836318
535076649,4.4448357,1.5062525,nan,0.35631037,0.047529362,-0.379102,-0.0999468,0.80149734,0.0,0.0,0.0,0.0,0.0,0.0,-0.023715397,-0.0069493502,-0.4527087
535176712,4.4448357,1.5062525,nan,0.35863534,0.10556367,-0.37012053,-0.09836161,0.5016353,0.0,0.0,0.0,0.0,0.0,0.0,-0.022335595,-0.005389764,-0.46067527
535279555,4.4448357,1.5062525,nan,0.36476275,0.12431,-0.35514426,-0.094913065,0.19286633,0.0,0.0,0.0,0.0,0.0,0.0,-0.017821528,-0.008406844,-0.4499425
535376713,4.4448357,1.5062525,nan,0.37432092,0.10664895,-0.33715677,-0.090729415,-0.098694675,0.0,0.0,0.0,0.0,0.0,0.0,-0.014545618,-0.0059281387,-0.45237023
535477049,4.4448357,1.5062525,nan,0.3848954,0.06847892,-0.3150096,-0.08572167,-0.39911467,0.0,0.0,0.0,0.0,0.0,0.0,-0.01469089,-0.004317811,-0.45906517
535577093,4.4448357,1.5062525,nan,0.39436987,0.056800414,-0.2939675,-0.08046472,-0.6993277,0.0,0.0,0.0,0.0,0.0,0.0,-0.011778863,-0.0007630263,-0.4655367
535677103,4.4448357,1.5062525,nan,0.4039033,0.052981988,-0.27026844,-0.073649645,-0.9995167,0.0,0.0,0.0,0.0,0.0,0.0,-0.008491749,0.0005472379,-0.45606628
535777254,4.4448357,1.5062525,nan,0.412268,0.05173032,-0.24828577,-0.066541255,-1.3002186,0.0,0.0,0.0,0.0,0.0,0.0,-0.010453408,0.0010026623,-0.45715398
535877366,4.4448357,1.5062525,nan,0.42034572,0.05139116,-0.22491932,-0.05816567,-1.6004106,0.0,0.0,0.0,0.0,0.0,0.0,-0.0065968204,0.0044556353,-0.4616593
535997422,4.4448357,1.5062525,nan,0.42921656,0.052135013,-0.19766617,-0.04718417,-1.9608185,0.0,0.0,0.0,0.0,0.0,0.0,-0.0055405814,0.005837665,-0.46303067
536097557,4.4448357,1.5062525,nan,0.4367883,0.052446634,-0.1763401,-0.03747785,-2.2612236,0.0,0.0,0.0,0.0,0.0,0.0,-0.0044056755,0.006319745,-0.47140738
536197644,4.4448357,1.5062525,nan,0.44391823,0.04634741,-0.15425062,-0.026355803,-2.5614846,0.0,0.0,0.0,0.0,0.0,0.0,-0.005941421,0.0100784125,-0.47640246
536297667,4.4448357,1.5062525,nan,0.44990826,0.047286537,-0.13322163,-0.014943957,-2.8615417,0.0,0.0,0.0,0.0,0.0,0.0,-0.0015384797,0.0068165367,-0.47434184
536397684,4.4448357,1.5062525,nan,0.45514864,0.037577465,-0.11485314,-0.004693806,-2.5614967,0.0,0.0,0.0,0.0,0.0,0.0,-0.0022723079,0.008451639,-0.36811307
536497877,4.4448357,1.5062525,nan,0.46008524,0.012295761,-0.09623742,0.0059563518,-2.2611668,0.0,0.0,0.0,0.0,0.0,0.0,-0.0036238357,0.009581226,-0.309972
536597981,4.4448357,1.5062525,nan,0.46278268,0.0040193335,-0.08085227,0.014915943,-1.9605877,0.0,0.0,0.0,0.0,0.0,0.0,-0.0023091333,0.008782159,-0.2802096
536698153,4.4448357,1.5062525,nan,0.46415272,0.106946215,-0.066271305,0.024398744,-1.6603687,0.0,0.0,0.0,0.0,0.0,0.0,-0.0032639839,0.008660846,-0.27194154
536798166,4.4448357,1.5062525,nan,0.47122777,0.43295413,-0.0546515,0.032411993,-1.3600715,0.0,0.0,0.0,0.0,0.0,0.0,-0.0056845685,0.01238437,-0.26529196
536898313,4.4448357,1.5062525,nan,0.4947161,1.0764791,-0.04405904,0.040074944,-1.0596036,0.0,0.0,0.0,0.0,0.0,0.0,-0.008759768,0.008081574,-0.26731429
536998894,4.4448357,1.5062525,nan,0.5530737,1.4086109,-0.03644204,0.046440005,-0.7581576,0.0,0.0,0.0,0.0,0.0,0.0,-0.0059046447,0.008028999,-0.25189006
537098813,4.4448357,1.5062525,nan,0.6442479,1.4264935,-0.030493736,0.05212891,-0.45809162,0.0,0.0,0.0,0.0,0.0,0.0,-0.010029657,0.008642244,-0.24244295
537198965,4.4448357,1.5062525,nan,0.7516468,0.5677219,-0.02753067,0.05598849,-0.15814565,0.0,0.0,0.0,0.0,0.0,0.0,-0.010922212,0.008983882,-0.23828033
537299423,4.4448357,1.5062525,-17.916311,0.8334829,0.18474595,-0.026109934,0.05895126,0.0,0.0,0.0,0.0,0.0,0.0,0.0,-0.009108409,0.00349767,-0.27237844
537420524,4.4448357,1.5062525,-17.916311,0.8969981,0.04774551,-0.025685787,0.060661077,0.014135361,0.0,0.0,0.0,0.0,0.0,0.0,-0.007367442,0.0039929273,-0.3266759
537518917,4.4448357,1.5062525,-17.916311,0.93597466,-0.05551917,-0.025376797,0.061601162,0.006258011,0.0,0.0,0.0,0.0,0.0,0.0,-0.010456367,0.0054164603,-0.34566337
537619106,4.4448357,1.5062525,-17.916311,0.96279067,-0.17033812,-0.024923325,0.062193096,-0.0063991547,0.0,0.0,0.0,0.0,0.0,0.0,-0.009684816,0.0021401423,-0.35804826
537719110,4.4448357,1.5062525,-17.916311,0.9751502,-0.055805694,-0.024159908,0.06251502,-0.012937546,0.0,0.0,0.0,0.0,0.0,0.0,-0.008989839,0.005523229,-0.35516402
537819219,4.4448357,1.5062525,-17.916311,0.985182,-0.026886739,-0.02358079,0.06294131,-0.013227463,0.0,0.0,0.0,0.0,0.0,0.0,-0.009167229,0.0023757396,-0.35030532
537919320,4.4448357,1.5062525,nan,0.9926653,-0.012276708,-0.023389578,0.06347358,-0.24018301,0.0,0.0,0.0,0.0,0.0,0.0,-0.0118712485,0.0032900388,-0.40609246
538019445,4.4448357,1.5062525,-17.90905,0.9961765,-0.004016109,-0.023288012,0.063923,0.008987427,0.0,0.0,0.0,0.0,0.0,0.0,-0.0064635957,0.00271616,-0.33330935
538139559,4.4448357,1.5062525,-17.90905,0.99750304,-0.001050639,-0.02302146,0.06429285,0.027505875,0.0,0.0,0.0,0.0,0.0,0.0,-0.009640755,0.0031072788,-0.3374791
538239594,4.4448357,1.5062525,-17.90905,0.9957568,-0.00034388175,-0.02299881,0.06475961,0.037427902,0.0,0.0,0.0,0.0,0.0,0.0,-0.007989663,0.0022937355,-0.34895164
538339776,4.4448357,1.5062525,-17.90905,0.9927633,-0.00011259296,-0.023297548,0.06543738,0.04314804,0.0,0.0,0.0,0.0,0.0,0.0,-0.009557535,0.004146186,-0.34866756
538439785,4.4448357,1.5062525,-17.90905,0.9884654,-3.682825e-05,-0.023634434,0.06625748,0.045289993,0.0,0.0,0.0,0.0,0.0,0.0,-0.009595473,0.0020314555,-0.3532212
538540708,4.4448357,1.5062525,-17.90905,0.98287666,-1.192318e-05,-0.024656057,0.0672971,0.046117783,0.0,0.0,0.0,0.0,0.0,0.0,-0.011293192,0.003859721,-0.35283524
538640132,4.4448357,1.5062525,-17.90905,0.9769807,-3.935235e-06,-0.026135445,0.0681991,0.046125412,0.0,0.0,0.0,0.0,0.0,0.0,-0.011408846,0.0031018548,-0.35530376
538740075,4.4448357,1.5062525,-17.90905,0.97055465,-1.2900737e-06,-0.028258562,0.068944216,0.04521942,0.0,0.0,0.0,0.0,0.0,0.0,-0.012166528,0.0013495157,-0.35365734
538840159,4.4448357,1.5062525,-17.90905,0.9635863,-4.2198891e-07,-0.03135252,0.069699705,0.04348564,0.0,0.0,0.0,0.0,0.0,0.0,-0.012391789,0.0028094852,-0.3582396
538940416,4.4448357,1.5062525,-17.90905,0.9560592,-1.377934e-07,-0.034736156,0.0700407,0.043291092,0.0,0.0,0.0,0.0,0.0,0.0,-0.012628195,0.0024571894,-0.35707787
539060614,4.4448357,1.5062525,-17.90905,0.9547995,-3.6084575e-08,-0.03996539,0.06957626,0.045427322,0.0,0.0,0.0,0.0,0.0,0.0,-0.01242978,-0.0032655601,-0.352746
539160576,4.4448357,1.5062525,-17.90905,0.9547995,-1.18067005e-08,-0.045105934,0.06853199,0.048114777,0.0,0.0,0.0,0.0,0.0,0.0,-0.01356275,-0.0016941675,-0.35383075
539260662,4.4448357,1.5062525,-17.90905,0.9547995,-3.864515e-09,-0.05060315,0.06738478,0.050733566,0.0,0.0,0.0,0.0,0.0,0.0,-0.013677767,-0.0030750278,-0.35357833
539361724,4.4448357,1.5062525,nan,0.9547995,-1.2495206e-09,-0.056950092,0.06600392,-0.161337,0.0,0.0,0.0,0.0,0.0,0.0,-0.017566832,-0.0028338379,-0.39955306
539460878,4.4448357,1.5062525,nan,0.9547995,-4.1378814e-10,-0.063471556,0.06483525,-0.45878398,0.0,0.0,0.0,0.0,0.0,0.0,-0.016456787,-0.004543419,-0.4438094
539561169,4.4448357,1.5062525,nan,0.9547995,-1.3518439e-10,-0.07073474,0.063497424,-0.759501,0.0,0.0,0.0,0.0,0.0,0.0,-0.013258302,-0.00507867,-0.45529792
539681170,4.4448357,1.5062525,nan,0.9547995,-3.549222e-11,-0.07954621,0.062417448,-1.0999358,0.0,0.0,0.0,0.0,0.0,0.0,-0.023140801,-0.0042020213,-0.46161476
539781355,4.4448357,1.5062525,nan,0.9547995,-1.1589524e-11,-0.08659649,0.06144291,-1.2881373,0.0,0.0,0.0,0.0,0.0,0.0,-0.017207598,-0.0012161917,-0.43871865
539881407,4.4448357,1.5062525,nan,0.9547995,-3.796553e-12,-0.09409428,0.060962617,-1.1369722,0.0,0.0,0.0,0.0,0.0,0.0,-0.021533739,-0.0044300933,-0.35582638
539981596,4.4448357,1.5062525,nan,0.9547995,-1.2391805e-12,-0.1012516,0.060868025,-1.2059782,0.0,0.0,0.0,0.0,0.0,0.0,-0.021879006,-0.00026034238,-0.36051717
540081635,4.4448357,1.5062525,nan,0.9547995,-4.0610993e-13,-0.10885668,0.061624765,-1.1526439,0.0,0.0,0.0,0.0,0.0,0.0,-0.02488384,-0.0003575635,-0.34406734
540181634,4.4448357,1.5062525,nan,0.9547995,-1.3307565e-13,-0.11716461,0.063139796,-1.2235358,0.0,0.0,0.0,0.0,0.0,0.0,-0.02315965,-0.0012100772,-0.35953367
540281597,4.4448357,1.5062525,nan,0.9547995,-4.3595153e-14,-0.12514257,0.06427443,-1.2617552,0.0,0.0,0.0,0.0,0.0,0.0,-0.023836501,-0.0010355368,-0.36591265
540381734,4.4448357,1.5062525,nan,0.9547995,-1.4269725e-14,-0.13425541,0.066253245,-1.251807,0.0,0.0,0.0,0.0,0.0,0.0,-0.02534242,0.00385584,-0.3613551
540481735,4.4448357,1.5062525,nan,0.9547995,-4.6729812e-15,-0.14242339,0.06843233,-1.2993065,0.0,0.0,0.0,0.0,0.0,0.0,-0.025242046,0.0030556526,-0.36488906
540581996,4.4448357,1.5062525,nan,0.9547995,-1.5280884e-15,-0.15012217,0.07027459,-1.262042,0.0,0.0,0.0,0.0,0.0,0.0,-0.025001317,0.00059631205,-0.35537902
540682008,4.4448357,1.5062525,nan,0.9547995,-5.000229e-16,-0.15631437,0.07255083,-1.3223966,0.0,0.0,0.0,0.0,0.0,0.0,-0.023578798,0.0011928161,-0.36893657
540782655,4.4448357,1.5062525,nan,0.9547995,-1.6278888e-16,-0.16124272,0.074495316,-1.417588,0.0,0.0,0.0,0.0,0.0,0.0,-0.022102993,0.001606923,-0.38339436
540883102,4.4448357,1.5062525,nan,0.9547995,-5.2960378e-17,-0.16443062,0.076217055,-1.4320532,0.0,0.0,0.0,0.0,0.0,0.0,-0.018036447,-8.215173e-05,-0.37446976
541002982,4.4448357,1.5062525,nan,0.9547995,-1.3892618e-17,-0.16584396,0.077727854,-1.4828928,0.0,0.0,0.0,0.0,0.0,0.0,-0.018875223,-0.0023786593,-0.3748402
541102472,4.4448357,1.5062525,nan,0.9547995,-4.577488e-18,-0.1654818,0.07866526,-1.5061201,0.0,0.0,0.0,0.0,0.0,0.0,-0.019062197,-0.0020448943,-0.3754502
541202548,4.4448357,1.5062525,nan,0.9547995,-1.4981555e-18,-0.16361237,0.07918602,-1.5223775,0.0,0.0,0.0,0.0,0.0,0.0,-0.016816797,-0.0016887946,-0.36880943
541302648,4.4448357,1.5062525,nan,0.9547995,-4.9039315e-19,-0.1607132,0.079187036,-1.5509982,0.0,0.0,0.0,0.0,0.0,0.0,-0.017445367,-0.0019438567,-0.36869168
541403842,4.4448357,1.5062525,nan,0.9547995,-1.5815073e-19,-0.15706015,0.07894516,-1.5768667,0.0,0.0,0.0,0.0,0.0,0.0,-0.01750317,0.0016220591,-0.36824217
541503040,4.4448357,1.5062525,nan,0.9547995,-5.2326098e-20,-0.153332,0.07877773,-1.5422535,0.0,0.0,0.0,0.0,0.0,0.0,-0.016264468,0.0010029975,-0.35011905
541602980,4.4448357,1.5062525,nan,0.9547995,-1.7158828e-20,-0.14880872,0.07867652,-1.5632937,0.0,0.0,0.0,0.0,0.0,0.0,-0.018381968,0.0010382005,-0.35553327
541703073,4.4448357,1.5062525,nan,0.9547995,-5.6199333e-21,-0.14406204,0.078248024,-1.7493013,0.0,0.0,0.0,0.0,0.0,0.0,-0.016427228,0.0002831996,-0.3939676
541803267,4.4448357,1.5062525,nan,0.9547995,-1.8370284e-21,-0.1386025,0.07775879,-1.7250627,0.0,0.0,0.0,0.0,0.0,0.0,-0.013076482,-0.0017989983,-0.37237096
541903278,4.4448357,1.5062525,nan,0.9547995,-6.0203224e-22,-0.13314366,0.07681066,-1.650076,0.0,0.0,0.0,0.0,0.0,0.0,-0.013057295,0.0011512039,-0.35043952
542003613,4.4448357,1.5062525,nan,0.9547995,-1.9638868e-22,-0.12723637,0.0757401,-1.6952615,0.0,0.0,0.0,0.0,0.0,0.0,-0.013061534,-0.00083856424,-0.35924014
542103580,4.4448357,1.5062525,nan,0.9547995,-6.433871e-23,-0.12147355,0.0745396,-1.6976416,0.0,0.0,0.0,0.0,0.0,0.0,-0.012034167,0.000830249,-0.3598556
542223613,4.4448357,1.5062525,nan,0.9547995,-1.6859183e-23,-0.11378789,0.072983384,-1.7634985,0.0,0.0,0.0,0.0,0.0,0.0,-0.013042159,0.0010920407,-0.37780705
542323734,4.4448357,1.5062525,nan,0.9547995,-5.5211692e-24,-0.106515646,0.07169157,-1.814573,0.0,0.0,0.0,0.0,0.0,0.0,-0.011682119,0.0044790073,-0.38007882
542423930,4.4448357,1.5062525,nan,0.9547995,-1.802347e-24,-0.09974146,0.07086402,-1.8658998,0.0,0.0,0.0,0.0,0.0,0.0,-0.010201348,0.0012794171,-0.3844964
542524099,4.4448357,1.5062525,nan,0.9547995,-5.8931765e-25,-0.09204888,0.06996429,-1.8424156,0.0,0.0,0.0,0.0,0.0,0.0,-0.012212052,0.0014255912,-0.3670632
542623941,4.4448357,1.5062525,nan,0.9547995,-1.9345852e-25,-0.08492541,0.06910437,-2.0016925,0.0,0.0,0.0,0.0,0.0,0.0,-0.0108229015,0.0010572289,-0.39376825
542724100,4.4448357,1.5062525,nan,0.9547995,-6.3346535e-26,-0.0778842,0.06836152,-2.1091197,0.0,0.0,0.0,0.0,0.0,0.0,-0.012696522,0.0004805416,-0.40670952
542824253,4.4448357,1.5062525,nan,0.9547995,-2.0719792e-26,-0.07176542,0.067742705,-2.1583903,0.0,0.0,0.0,0.0,0.0,0.0,-0.010916595,-0.0012987771,-0.39424574
542924252,4.4448357,1.5062525,nan,0.9547995,-6.785113e-27,-0.06491041,0.06672847,-2.314159,0.0,0.0,0.0,0.0,0.0,0.0,-0.007452798,0.0001443674,-0.4162024
543024512,4.4448357,1.5062525,nan,0.9547995,-2.2166808e-27,-0.058745384,0.06554556,-2.3234231,0.0,0.0,0.0,0.0,0.0,0.0,-0.010835443,-0.0002827195,-0.3965779
543125060,4.4448357,1.5062525,nan,0.9547995,-7.2624353e-28,-0.052482843,0.06406951,-2.3431916,0.0,0.0,0.0,0.0,0.0,0.0,-0.011576958,-0.0032804126,-0.38266754
543225113,4.4448357,1.5062525,nan,0.9547995,-2.3633623e-28,-0.046857357,0.062285006,-2.4012003,0.0,0.0,0.0,0.0,0.0,0.0,-0.0097322855,-0.0033282596,-0.38807783
543325127,4.4448357,1.5062525,nan,0.9547995,-7.742566e-29,-0.04117036,0.05985421,-2.525027,0.0,0.0,0.0,0.0,0.0,0.0,-0.009803236,-0.0046947612,-0.41014326
543445013,4.4448357,1.5062525,nan,0.9547995,-2.0324554e-29,-0.034837246,0.056216955,-2.5373278,0.0,0.0,0.0,0.0,0.0,0.0,-0.0109671205,-0.0051016076,-0.38996616
543545506,4.4448357,1.5062525,nan,0.9547995,-6.6076505e-30,-0.029964924,0.052940845,-2.3988113,0.0,0.0,0.0,0.0,0.0,0.0,-0.0122676175,-0.0020723878,-0.35615045
543645183,4.4448357,1.5062525,nan,0.9547995,-2.1747204e-30,-0.026386261,0.05033058,-2.3270435,0.0,0.0,0.0,0.0,0.0,0.0,-0.011464214,-0.002326889,-0.3404435
543745184,4.4448357,1.5062525,nan,0.9547995,-7.114494e-31,-0.023720741,0.047716558,-2.5038548,0.0,0.0,0.0,0.0,0.0,0.0,-0.013395397,-0.0027038206,-0.39679596
543845305,4.4448357,1.5062525,nan,0.9547995,-2.3315938e-31,-0.021872997,0.045679808,-2.7347808,0.0,0.0,0.0,0.0,0.0,0.0,-0.013673064,-0.002050463,-0.43497422
543945952,4.4448357,1.5062525,nan,0.9547995,-7.565055e-32,-0.02014637,0.0440796,-2.687101,0.0,0.0,0.0,0.0,0.0,0.0,-0.013122409,-0.0011525981,-0.3954733
544045399,4.4448357,1.5062525,nan,0.9547995,-2.496159e-32,-0.018715382,0.042911112,-2.892983,0.0,0.0,0.0,0.0,0.0,0.0,-0.009317305,-0.002331374,-0.42125955
544145515,4.4448357,1.5062525,nan,0.9547995,-8.1676514e-33,-0.017227888,0.041856766,-3.193328,0.0,0.0,0.0,0.0,0.0,0.0,-0.011418311,-0.0010588532,-0.46085095
544245717,4.4448357,1.5062525,nan,0.9547995,-2.6710918e-33,-0.015432119,0.04105109,-3.1475568,0.0,0.0,0.0,0.0,0.0,0.0,-0.010572368,-0.00028689898,-0.40793812
544345673,4.4448357,1.5062525,nan,0.9547995,-8.757334e-34,-0.013612747,0.04054278,-3.2819731,0.0,0.0,0.0,0.0,0.0,0.0,-0.0123903705,0.0007224316,-0.41589558
544445934,4.4448357,1.5062525,nan,0.9547995,-2.8632218e-34,-0.011703014,0.040349543,-3.3124108,0.0,0.0,0.0,0.0,0.0,0.0,-0.010922352,0.002925517,-0.405425
544546109,4.4448357,1.5062525,nan,0.9547995,-9.3609006e-35,-0.010342598,0.04008317,-3.2994728,0.0,0.0,0.0,0.0,0.0,0.0,-0.0083495835,-0.0002555783,-0.3826461
544646236,4.4448357,1.5062525,nan,0.9547995,-3.0579142e-35,-0.008654594,0.039584816,-3.600214,0.0,0.0,0.0,0.0,0.0,0.0,-0.009081561,-0.0018287081,-0.4403615
544746206,4.4448357,1.5062525,nan,0.9547995,-1.0038965e-35,-0.0068359375,0.039015174,-3.5598187,0.0,0.0,0.0,0.0,0.0,0.0,-0.009199303,-0.0014278274,-0.41222513
544868351,4.4448357,1.5062525,nan,0.9547995,-2.5573526e-36,-0.004009962,0.037706316,-3.602111,0.0,0.0,0.0,0.0,0.0,0.0,-0.0077089607,-0.0014849245,-0.398906
544966384,4.4448357,1.5062525,nan,0.9547995,-8.585327e-37,-0.0017633438,0.035942435,-3.621874,0.0,0.0,0.0,0.0,0.0,0.0,-0.008764012,-0.0038330157,-0.40854847
545067820,nan,nan,nan,0.9547995,-2.763049e-37,0.18119538,0.25596803,-3.6605897,0.0,0.0,0.0,0.0,0.0,0.0,0.001258065,0.008469926,-0.40325072
545166607,nan,nan,nan,0.9547995,-9.2016987e-38,0.5917928,0.83600396,-3.8949814,0.0,0.0,0.0,0.0,0.0,0.0,0.027808081,0.04418923,-0.44620386
545266893,nan,nan,nan,0.9547995,-3.004248e-38,1.0018677,1.4153017,-3.713948,0.0,0.0,0.0,0.0,0.0,0.0,0.05162356,0.07895271,-0.38738912
545366783,nan,nan,nan,0.9547995,-9.853621e-39,1.4193648,2.0050845,-3.6992311,0.0,0.0,0.0,0.0,0.0,0.0,0.07617264,0.11625318,-0.3748854
545467071,nan,nan,nan,0.9547995,-3.22085e-39,1.8465598,2.608567,-3.744854,0.0,0.0,0.0,0.0,0.0,0.0,0.097593874,0.14505133,-0.38754064
545567586,nan,nan,nan,0.9547995,-1.055458e-39,2.2735014,3.2116919,-3.737834,0.0,0.0,0.0,0.0,0.0,0.0,0.11770547,0.17406408,-0.374569
545667578,nan,nan,nan,0.9547995,-3.42915e-40,2.1169438,2.9905286,-3.6838827,0.0,0.0,0.0,0.0,0.0,0.0,0.09927522,0.14573558,-0.3487051
545787723,nan,nan,nan,0.9547995,-8.9864e-41,2.1995735,3.1072564,-3.7378879,0.0,0.0,0.0,0.0,0.0,0.0,0.09333064,0.13404635,-0.36732212
545887469,nan,nan,nan,0.9547995,-2.9542e-41,1.8362015,2.593934,-3.7457237,0.0,0.0,0.0,0.0,0.0,0.0,0.058552712,0.088459216,-0.37669516
545989028,nan,nan,nan,0.9547995,-9.483e-42,1.4309798,2.0214927,-3.6298409,0.0,0.0,0.0,0.0,0.0,0.0,0.020941362,0.035007387,-0.3711522
546087802,nan,nan,nan,0.9547995,-3.157e-42,0.97500634,1.3773558,-3.3338938,0.0,0.0,0.0,0.0,0.0,0.0,-0.013852956,-0.011374198,-0.3338579
546189405,nan,nan,nan,0.9547995,-1.013e-42,1.4229566,2.0101585,-3.4294655,0.0,0.0,0.0,0.0,0.0,0.0,0.007413589,0.020608604,-0.3939588
546287824,nan,nan,nan,0.9547995,-3.39e-43,1.3335656,1.8838792,-3.3855693,0.0,0.0,0.0,0.0,0.0,0.0,-0.00067583844,0.0065963026,-0.39970148
546388399,nan,nan,nan,0.9547995,-1.11e-43,1.3754478,1.9430445,-3.6694958,0.0,0.0,0.0,0.0,0.0,0.0,-0.0018400084,0.003371954,-0.45563623
546487854,nan,nan,nan,0.9547995,-3.6e-44,1.4514333,2.0503864,-3.660934,0.0,0.0,0.0,0.0,0.0,0.0,0.0011760332,0.009494562,-0.43035188
546587930,nan,nan,nan,0.9547995,-1.3e-44,1.1926695,1.6848404,-3.5793433,0.0,0.0,0.0,0.0,0.0,0.0,-0.01663924,-0.014212072,-0.3896861
546688108,nan,nan,nan,0.9547995,-4e-45,1.1027529,1.5578185,-3.577938,0.0,0.0,0.0,0.0,0.0,0.0,-0.026031118,-0.026209112,-0.38694876
546788075,nan,nan,nan,0.9547995,-3e-45,1.0008267,1.413831,-3.606469,0.0,0.0,0.0,0.0,0.0,0.0,-0.031894863,-0.036463056,-0.39410672
546888354,nan,nan,nan,0.9547995,-3e-45,0.9565688,1.3513095,-3.6662006,0.0,0.0,0.0,0.0,0.0,0.0,-0.036731306,-0.036936246,-0.39783144
547008567,nan,nan,nan,0.9547995,-3e-45,0.6788939,0.9590485,-3.7775712,0.0,0.0,0.0,0.0,0.0,0.0,-0.051132634,-0.06113898,-0.41271222
547108615,nan,nan,nan,0.9547995,-3e-45,0.57695264,0.81503975,-3.972014,0.0,0.0,0.0,0.0,0.0,0.0,-0.05523345,-0.06756833,-0.4335964
547210976,nan,nan,nan,0.9547995,-3e-45,0.56949604,0.8045061,-4.123809,0.0,0.0,0.0,0.0,0.0,0.0,-0.050028585,-0.059938923,-0.43319148
547308742,nan,nan,nan,0.9547995,-3e-45,0.5396325,0.76231897,-3.9273791,0.0,0.0,0.0,0.0,0.0,0.0,-0.04786495,-0.05924377,-0.36899227
547408997,nan,nan,nan,0.9547995,-3e-45,0.58314294,0.8237846,-3.8941205,0.0,0.0,0.0,0.0,0.0,0.0,-0.04423114,-0.050679337,-0.36741233
547509006,nan,nan,nan,0.9547995,-3e-45,0.57711655,0.8152713,-3.82417,0.0,0.0,0.0,0.0,0.0,0.0,-0.04076808,-0.04842312,-0.36255813
547608907,nan,nan,nan,0.9547995,-3e-45,0.6453601,0.91167647,-3.8208308,0.0,0.0,0.0,0.0,0.0,0.0,-0.03374337,-0.037255675,-0.3769344
547709165,nan,nan,nan,0.9547995,-3e-45,0.60942596,0.8609137,-3.8521292,0.0,0.0,0.0,0.0,0.0,0.0,-0.030790722,-0.035473265,-0.39019415
547809368,nan,nan,nan,0.9547995,-3e-45,0.5916844,0.8358508,-3.7724018,0.0,0.0,0.0,0.0,0.0,0.0,-0.029482707,-0.03295156,-0.37714627
547909391,nan,nan,nan,0.9547995,-3e-45,0.53448164,0.75504255,-3.8051426,0.0,0.0,0.0,0.0,0.0,0.0,-0.027027994,-0.031995818,-0.3942164
548029936,nan,nan,nan,0.9547995,-3e-45,0.5316532,0.75104696,-3.8944738,0.0,0.0,0.0,0.0,0.0,0.0,-0.027432792,-0.025340484,-0.41434696
548129949,nan,nan,nan,0.9547995,-3e-45,0.3553978,0.5020574,-3.904901,0.0,0.0,0.0,0.0,0.0,0.0,-0.03542081,-0.03529419,-0.40402916
548229937,nan,nan,nan,0.9547995,-3e-45,0.37607706,0.5312702,-4.0857406,0.0,0.0,0.0,0.0,0.0,0.0,-0.033333886,-0.027272161,-0.43661028
548330010,nan,nan,nan,0.9547995,-3e-45,0.28334257,0.4002676,-3.908766,0.0,0.0,0.0,0.0,0.0,0.0,-0.03613843,-0.0358601,-0.3828448
548429992,nan,nan,nan,0.9547995,-3e-45,0.26624793,0.37611863,-3.998239,0.0,0.0,0.0,0.0,0.0,0.0,-0.035982884,-0.031923275,-0.39471573
548530530,nan,nan,nan,0.9547995,-3e-45,0.2889196,0.40814608,-4.061166,0.0,0.0,0.0,0.0,0.0,0.0,-0.031378496,-0.02651051,-0.41274258
548650423,nan,nan,nan,0.9547995,-3e-45,0.4052087,0.5724234,-3.8903632,0.0,0.0,0.0,0.0,0.0,0.0,-0.022142788,-0.010834481,-0.3760753
548750262,nan,nan,nan,0.9547995,-3e-45,0.72600067,1.0255945,-4.004008,0.0,0.0,0.0,0.0,0.0,0.0,-0.00054726005,0.02024604,-0.40960857
548850231,nan,nan,nan,0.9547995,-3e-45,0.75341874,1.0643269,-4.125297,0.0,0.0,0.0,0.0,0.0,0.0,0.0039921403,0.025407434,-0.43057227
548950363,nan,nan,nan,0.9547995,-3e-45,0.80713326,1.1402075,-3.9756866,0.0,0.0,0.0,0.0,0.0,0.0,0.0074104415,0.02775401,-0.39139464
549051766,nan,nan,nan,0.9547995,-3e-45,1.1210065,1.5836047,-3.915546,0.0,0.0,0.0,0.0,0.0,0.0,0.028336223,0.05528952,-0.38039792
549150511,nan,nan,nan,0.9547995,-3e-45,1.0150084,1.4338652,-3.6192331,0.0,0.0,0.0,0.0,0.0,0.0,0.021805365,0.04608789,-0.3242998
549250522,nan,nan,nan,0.9547995,-3e-45,1.0397524,1.46882,-3.319065,0.0,0.0,0.0,0.0,0.0,0.0,0.017634064,0.04640828,-0.29756555
549350801,nan,nan,nan,0.9547995,-3e-45,1.0793161,1.5247102,-3.1392272,0.0,0.0,0.0,0.0,0.0,0.0,0.020929694,0.04571645,-0.308466
549451001,nan,nan,nan,0.9547995,-3e-45,1.0998081,1.5536585,-3.2544734,0.0,0.0,0.0,0.0,0.0,0.0,0.018211113,0.041726507,-0.3786765
549551020,nan,nan,nan,0.9547995,-3e-45,1.073588,1.5166183,-3.4324193,0.0,0.0,0.0,0.0,0.0,0.0,0.0127069,0.03524509,-0.42855614
549651247,nan,nan,nan,0.9547995,-3e-45,1.0776879,1.5224099,-3.5267253,0.0,0.0,0.0,0.0,0.0,0.0,0.008887045,0.027564833,-0.42685786
549752587,nan,nan,nan,0.9547995,-3e-45,1.032344,1.4583545,-3.5552378,0.0,0.0,0.0,0.0,0.0,0.0,0.0012068511,0.01901048,-0.41657713
549872871,nan,nan,nan,0.9547995,-3e-45,1.0828596,1.529716,-3.8937194,0.0,0.0,0.0,0.0,0.0,0.0,0.0018121055,0.021016872,-0.46448475
549971336,nan,nan,nan,0.9547995,-3e-45,0.988511,1.3964332,-4.1889195,0.0,0.0,0.0,0.0,0.0,0.0,-0.004044586,0.009738156,-0.49245676
550072828,nan,nan,nan,0.9547995,-3e-45,1.0614856,1.4995217,-4.4935937,0.0,0.0,0.0,0.0,0.0,0.0,-0.002143922,0.014046887,-0.5065812
550171514,nan,nan,nan,0.9547995,-3e-45,1.0404729,1.4698378,-4.789643,0.0,0.0,0.0,0.0,0.0,0.0,-0.002571886,0.008615177,-0.5104156
550271812,nan,nan,nan,0.9547995,-3e-45,1.0453453,1.4767209,-5.090216,0.0,0.0,0.0,0.0,0.0,0.0,-0.0043850048,0.0098112635,-0.5208225
550371846,nan,nan,nan,0.9547995,-3e-45,1.0166445,1.4361763,-5.3902645,0.0,0.0,0.0,0.0,0.0,0.0,-0.0059658755,0.0052801995,-0.5208529
550471874,nan,nan,nan,0.9547995,-3e-45,1.0676272,1.5081977,-5.6907206,0.0,0.0,0.0,0.0,0.0,0.0,-0.0046929726,0.011928696,-0.524452
550572535,nan,nan,nan,0.9547995,-3e-45,0.98970896,1.3981254,-5.992484,0.0,0.0,0.0,0.0,0.0,0.0,-0.009519472,0.0038166004,-0.52423453
550672348,nan,nan,nan,0.9547995,-3e-45,1.1391544,1.6092416,-6.0,0.0,0.0,0.0,0.0,0.0,0.0,-0.003620219,0.020904426,-0.478503
550772530,nan,nan,nan,0.9547995,-3e-45,1.0371428,1.4651334,-6.0,0.0,0.0,0.0,0.0,0.0,0.0,-0.0060827658,0.008215062,-0.45078665
550872396,nan,nan,nan,0.9547995,-3e-45,1.1016471,1.5562564,-6.0,0.0,0.0,0.0,0.0,0.0,0.0,-0.0025146692,0.013969267,-0.43915582
550992821,nan,nan,nan,0.9547995,-3e-45,1.109702,1.567635,-6.0,0.0,0.0,0.0,0.0,0.0,0.0,-0.001250756,0.014546546,-0.4383248
551092633,nan,nan,nan,0.9547995,-3e-45,1.0422814,1.4723927,-6.0,0.0,0.0,0.0,0.0,0.0,0.0,-0.0075359247,0.006859601,-0.44228455
551192709,nan,nan,nan,0.9547995,-3e-45,1.0680041,1.50873,-6.0,0.0,0.0,0.0,0.0,0.0,0.0,-0.00556176,0.0041061207,-0.4480041
551292686,nan,nan,nan,0.9547995,-3e-45,1.039065,1.4678488,-6.0,0.0,0.0,0.0,0.0,0.0,0.0,-0.007344535,0.0011351956,-0.44713932
551392792,nan,nan,nan,0.9547995,-3e-45,1.0323367,1.4583441,-6.0,0.0,0.0,0.0,0.0,0.0,0.0,-0.010250168,-0.0009872383,-0.45042193
551492840,nan,nan,nan,0.9547995,-3e-45,1.0849258,1.5326346,-6.0,0.0,0.0,0.0,0.0,0.0,0.0,-0.0059076734,0.0041723927,-0.4485458
551593022,nan,nan,nan,0.9547995,-3e-45,1.4334059,2.0249197,-6.0,0.0,0.0,0.0,0.0,0.0,0.0,0.011976013,0.034799844,-0.44705623
551693153,nan,nan,nan,0.9547995,-3e-45,1.8638084,2.6329336,-6.0,0.0,0.0,0.0,0.0,0.0,0.0,0.040255904,0.069093876,-0.44778123
551793186,nan,nan,nan,0.9547995,-3e-45,2.282499,3.2244024,-6.0,0.0,0.0,0.0,0.0,0.0,0.0,0.063551225,0.10578314,-0.44654986
551893840,nan,nan,nan,0.9547995,-3e-45,2.6836457,3.7910874,-6.0,0.0,0.0,0.0,0.0,0.0,0.0,0.09030768,0.13894343,-0.43712848
552013524,nan,nan,nan,0.9547995,-3e-45,3.1530864,4.454249,-6.0,0.0,0.0,0.0,0.0,0.0,0.0,0.108082294,0.17398417,-0.4260141
552114204,nan,nan,nan,0.9547995,-3e-45,3.5485072,5.0128455,-6.0,0.0,0.0,0.0,0.0,0.0,0.0,0.13010673,0.19505173,-0.4135945
552213730,nan,nan,nan,0.9547995,-3e-45,3.946524,5.5751095,-6.0,0.0,0.0,0.0,0.0,0.0,0.0,0.14424354,0.2210772,-0.40740785
552314438,nan,nan,nan,0.9547995,-3e-45,4.2325935,5.979229,-6.0,0.0,0.0,0.0,0.0,0.0,0.0,0.14822724,0.22640267,-0.39587137
552413706,nan,nan,nan,0.9547995,-3e-45,4.343848,6.1363945,-6.0,0.0,0.0,0.0,0.0,0.0,0.0,0.14537507,0.22343005,-0.39260203
552516013,nan,nan,nan,0.9547995,-3e-45,4.742321,6.6993027,-6.0,0.0,0.0,0.0,0.0,0.0,0.0,0.15608157,0.23342519,-0.40102428
552614211,nan,nan,nan,0.9547995,-3e-45,5.1183105,7.2304487,-6.0,0.0,0.0,0.0,0.0,0.0,0.0,0.15773861,0.23461528,-0.40375388
552714649,nan,nan,nan,0.9547995,-3e-45,5.4971547,7.7656274,-6.0,0.0,0.0,0.0,0.0,0.0,0.0,0.16294368,0.24023527,-0.41456565
552814259,nan,nan,nan,0.9547995,-3e-45,5.595042,7.9039106,-6.0,0.0,0.0,0.0,0.0,0.0,0.0,0.16781124,0.24366981,-0.42253777
552914381,nan,nan,nan,0.9547995,-3e-45,5.132778,7.250887,-6.0,0.0,0.0,0.0,0.0,0.0,0.0,0.12520249,0.17894518,-0.43229026
553014939,nan,nan,nan,0.9547995,-3e-45,5.0566382,7.143327,-6.0,0.0,0.0,0.0,0.0,0.0,0.0,0.11534968,0.16222927,-0.4538554
553114983,nan,nan,nan,0.9547995,-3e-45,5.0206475,7.0924845,-6.0,0.0,0.0,0.0,0.0,0.0,0.0,0.10028527,0.1371669,-0.48374364
553215007,nan,nan,nan,0.9547995,-3e-45,4.995939,7.057579,-6.0,0.0,0.0,0.0,0.0,0.0,0.0,0.08621229,0.11717966,-0.49577728
553314725,nan,nan,nan,0.9547995,-3e-45,4.577798,6.466887,-6.0,0.0,0.0,0.0,0.0,0.0,0.0,0.04840026,0.06413158,-0.50416243
553435926,nan,nan,nan,0.9547995,-3e-45,4.313608,6.0936756,-6.0,0.0,0.0,0.0,0.0,0.0,0.0,0.017916348,0.025659569,-0.5012021
553535203,nan,nan,nan,0.9547995,-3e-45,4.0202255,5.6792245,-6.0,0.0,0.0,0.0,0.0,0.0,0.0,-0.0044001043,-0.0041338205,-0.4927746
553636490,nan,nan,nan,0.9547995,-3e-45,4.376593,6.182652,-6.0,0.0,0.0,0.0,0.0,0.0,0.0,0.011323422,0.022027731,-0.47918856
553735224,nan,nan,nan,0.9547995,-3e-45,4.0889554,5.776317,-6.0,0.0,0.0,0.0,0.0,0.0,0.0,-0.010083631,-0.007732503,-0.46589613
553835305,nan,nan,nan,0.9547995,-3e-45,3.729876,5.2690587,-6.0,0.0,0.0,0.0,0.0,0.0,0.0,-0.037726182,-0.03819201,-0.4608625
553935334,nan,nan,nan,0.9547995,-3e-45,3.9726617,5.612033,-6.0,0.0,0.0,0.0,0.0,0.0,0.0,-0.019992504,-0.019570768,-0.44979888
554035442,nan,nan,nan,0.9547995,-3e-45,4.0984116,5.789675,-6.0,0.0,0.0,0.0,0.0,0.0,0.0,-0.008936197,-0.0075036064,-0.43987244
554156006,nan,nan,nan,0.9547995,-3e-45,4.0997515,5.7915683,-6.0,0.0,0.0,0.0,0.0,0.0,0.0,-0.0013190433,-0.0023228824,-0.42901707
554256104,nan,nan,nan,0.9547995,-3e-45,3.9709656,5.6096373,-6.0,0.0,0.0,0.0,0.0,0.0,0.0,-0.017744597,-0.010588042,-0.4288422
554356225,nan,nan,nan,0.9547995,-3e-45,3.5083644,4.956137,-5.699751,0.0,0.0,0.0,0.0,0.0,0.0,-0.040458705,-0.0487995,-0.37082165
554455902,nan,nan,nan,0.9547995,-3e-45,3.3964484,4.7980375,-5.3992705,0.0,0.0,0.0,0.0,0.0,0.0,-0.046804886,-0.055860043,-0.3421318
554556070,nan,nan,nan,0.9547995,-3e-45,3.32672,4.699535,-5.098611,0.0,0.0,0.0,0.0,0.0,0.0,-0.04837707,-0.056640454,-0.32315686
554656795,nan,nan,nan,0.9547995,-3e-45,3.5834115,5.062154,-4.796454,0.0,0.0,0.0,0.0,0.0,0.0,-0.033703163,-0.028528132,-0.3201747
554756289,nan,nan,nan,0.9547995,-3e-45,3.98496,5.6294065,-4.498179,0.0,0.0,0.0,0.0,0.0,0.0,-0.0027457941,0.006124407,-0.3118439
554856139,nan,nan,nan,0.9547995,-3e-45,3.9038556,5.514833,-4.19841,0.0,0.0,0.0,0.0,0.0,0.0,-0.004672829,0.005526565,-0.31891695
554958758,nan,nan,nan,0.9547995,-3e-45,3.6087017,5.0978804,-3.890868,0.0,0.0,0.0,0.0,0.0,0.0,-0.019082857,-0.012270875,-0.32657868
555078765,nan,nan,nan,0.9547995,-3e-45,3.5564146,5.024016,-3.530508,0.0,0.0,0.0,0.0,0.0,0.0,-0.026342154,-0.014166415,-0.3328113
555176648,nan,nan,nan,0.9547995,-3e-45,3.5823097,5.060597,-3.236874,0.0,0.0,0.0,0.0,0.0,0.0,-0.019645998,-0.01483364,-0.32435206
555276821,nan,nan,nan,0.9547995,-3e-45,3.6760235,5.192983,-2.9364753,0.0,0.0,0.0,0.0,0.0,0.0,-0.009167589,-0.0002905056,-0.32542354
555376803,nan,nan,nan,0.9547995,-3e-45,3.6628313,5.174347,-2.6366103,0.0,0.0,0.0,0.0,0.0,0.0,-0.0101955775,0.0044086687,-0.3131833
555478177,nan,nan,nan,0.9547995,-3e-45,3.764485,5.3179493,-2.3325603,0.0,0.0,0.0,0.0,0.0,0.0,-0.0027028061,0.016005281,-0.31048614
555577441,nan,nan,nan,0.9547995,-3e-45,3.6984184,5.2246194,-2.0345824,0.0,0.0,0.0,0.0,0.0,0.0,-0.00529857,0.013677483,-0.29968145
555677359,nan,nan,nan,0.9547995,-3e-45,3.6355872,5.1358604,-1.7349604,0.0,0.0,0.0,0.0,0.0,0.0,-0.007798223,0.011333846,-0.3028971
555797423,nan,nan,nan,0.9547995,-3e-45,3.599351,5.0846705,-1.3749304,0.0,0.0,0.0,0.0,0.0,0.0,-0.010342896,0.008879548,-0.2878035
555899007,nan,nan,nan,0.9547995,-3e-45,3.5212312,4.9743137,-1.0697974,0.0,0.0,0.0,0.0,0.0,0.0,-0.01092927,0.0031696074,-0.28682798
555997524,nan,nan,nan,0.9547995,-3e-45,3.5366008,4.996026,-0.7742583,0.0,0.0,0.0,0.0,0.0,0.0,-0.010594079,0.0048594754,-0.27596083
556099290,nan,nan,nan,0.9547995,-3e-45,3.5364428,4.9958024,-0.4691043,0.0,0.0,0.0,0.0,0.0,0.0,-0.008731499,0.0094383955,-0.2703588
556197601,nan,nan,nan,0.9547995,-3e-45,3.542185,5.0039144,-0.17409027,0.0,0.0,0.0,0.0,0.0,0.0,-0.007145148,0.012248639,-0.26259166
556297657,nan,nan,nan,0.9547995,-3e-45,3.5908966,5.0727277,0.0,0.0,0.0,0.0,0.0,0.0,0.0,0.0023648264,0.018693391,-0.28336018
556397837,nan,nan,-77.7529,0.9547995,-3e-45,3.5389624,4.999362,0.03577423,0.0,0.0,0.0,0.0,0.0,0.0,-0.005051191,0.016457777,-0.31980857
556498591,nan,nan,-77.7529,0.9547995,-3e-45,3.6532383,5.160795,0.06739807,0.0,0.0,0.0,0.0,0.0,0.0,0.0060167434,0.030940693,-0.3458885
556598524,nan,nan,-77.7529,0.9547995,-3e-45,3.782324,5.34315,0.08961487,0.0,0.0,0.0,0.0,0.0,0.0,0.015069045,0.03880234,-0.34669587
556698673,nan,nan,-77.7529,0.9547995,-3e-45,3.6508877,5.157475,0.10836029,0.0,0.0,0.0,0.0,0.0,0.0,0.011147179,0.02967036,-0.35291997
556798740,nan,nan,-77.7529,0.9547995,-3e-45,3.959085,5.5928535,0.13274384,0.0,0.0,0.0,0.0,0.0,0.0,0.029273303,0.053856894,-0.3561265
556900677,nan,nan,-77.7529,0.9547995,-3e-45,3.9750016,5.6153383,0.1602478,0.0,0.0,0.0,0.0,0.0,0.0,0.026178593,0.05742357,-0.34845194
557019272,nan,nan,-77.7529,0.9628754,0.014194845,3.7964888,5.4560685,0.19172668,0.0,0.0,0.0,0.0,0.0,0.0,0.016753484,0.045464262,-0.34964356
557118555,nan,nan,-77.7529,0.96472293,0.028302029,3.6448667,5.258864,0.2163086,0.0,0.0,0.0,0.0,0.0,0.0,0.0016339775,0.03481129,-0.35381523
557219023,nan,nan,-77.7529,0.96774256,0.013292434,3.7431028,5.435585,0.24110413,0.0,0.0,0.0,0.0,0.0,0.0,0.009172973,0.038207818,-0.34676546
557318777,nan,nan,-77.7529,0.9701504,0.11266246,3.7397087,5.4587474,0.26309204,0.0,0.0,0.0,0.0,0.0,0.0,0.003982442,0.042601615,-0.35738444
557418982,nan,nan,-77.7529,0.977332,0.12645668,3.7248905,5.5217533,0.28536987,0.0,0.0,0.0,0.0,0.0,0.0,0.008208413,0.042832606,-0.3555541
557519014,nan,nan,-77.7529,0.9885118,0.06644096,3.6058471,5.4763613,0.30316162,0.0,0.0,0.0,0.0,0.0,0.0,-0.002186222,0.038003206,-0.34980145
557619053,nan,nan,-77.7529,0.99707365,0.17947794,3.6192198,5.600486,0.32002258,0.0,0.0,0.0,0.0,0.0,0.0,-0.0001339456,0.04139266,-0.35105902
557719117,nan,nan,-77.7529,1.0117773,0.18222283,3.5691772,5.7053537,0.3340149,0.0,0.0,0.0,0.0,0.0,0.0,-0.0038617775,0.05124563,-0.3492545
557819206,nan,nan,-77.7529,1.029548,0.10620477,3.2751064,5.4482703,0.34667206,0.0,0.0,0.0,0.0,0.0,0.0,-0.017126484,0.029819822,-0.34486085
557919739,nan,nan,-77.7529,1.0438098,0.07124246,3.3699367,5.7915015,0.35682678,0.0,0.0,0.0,0.0,0.0,0.0,-0.012313055,0.04910849,-0.3510523
558019609,nan,nan,-77.7529,1.0570034,0.12771973,3.246604,5.75283,0.3654251,0.0,0.0,0.0,0.0,0.0,0.0,-0.020928845,0.052461993,-0.3585874
558119761,nan,nan,-77.7529,1.0719972,0.11194801,3.188652,5.8534846,0.37186432,0.0,0.0,0.0,0.0,0.0,0.0,-0.02080996,0.053711563,-0.355735
558219569,nan,nan,-77.7529,1.0873232,0.1265787,2.9946482,5.7037296,0.37545013,0.0,0.0,0.0,0.0,0.0,0.0,-0.030819433,0.04437524,-0.3564985
558339886,nan,nan,-77.7529,1.1067944,0.09734362,2.5734208,5.1422853,0.38243103,0.0,0.0,0.0,0.0,0.0,0.0,-0.052787423,0.001450669,-0.35243282
558439885,nan,nan,-77.7529,1.1206964,0.05800047,2.741456,5.6422195,0.38681793,0.0,0.0,0.0,0.0,0.0,0.0,-0.04102351,0.033119638,-0.35097167
558540278,nan,nan,-77.7529,1.1337188,0.020260489,2.3869796,5.108951,0.3900833,0.0,0.0,0.0,0.0,0.0,0.0,-0.056677647,0.009112205,-0.3596753
558640031,nan,nan,-77.7529,1.1436064,0.006650077,2.3813167,5.2310853,0.39380646,0.0,0.0,0.0,0.0,0.0,0.0,-0.05066444,0.009779714,-0.34780863
558740119,nan,nan,-77.7529,1.1518402,0.0021770797,2.2970228,5.158128,0.3972168,0.0,0.0,0.0,0.0,0.0,0.0,-0.046418156,0.008145735,-0.34659874
558840245,nan,nan,-77.7529,1.1579522,0.00071285944,2.3031926,5.2582293,0.39881897,0.0,0.0,0.0,0.0,0.0,0.0,-0.043906823,0.017154638,-0.35114434
558940398,nan,nan,-77.7529,1.1633815,0.00023329208,2.3764699,5.506681,0.40021515,0.0,0.0,0.0,0.0,0.0,0.0,-0.032154504,0.033625044,-0.35313913
559040863,nan,nan,-77.7529,1.1669677,7.620342e-05,2.3235598,5.437599,0.40198517,0.0,0.0,0.0,0.0,0.0,0.0,-0.031621557,0.031230394,-0.34382707
559141103,nan,nan,-77.7529,1.1693307,2.4791832e-05,2.4624546,5.800536,0.399292,0.0,0.0,0.0,0.0,0.0,0.0,-0.011574464,0.051139522,-0.34812406
559241091,nan,nan,-77.7529,1.171088,8.13018e-06,2.4208553,5.7305202,0.39357758,0.0,0.0,0.0,0.0,0.0,0.0,-0.023167413,0.05380036,-0.36189526
559340748,nan,nan,-77.7529,1.1729896,2.6734212e-06,2.3828173,5.670536,0.38898468,0.0,0.0,0.0,0.0,0.0,0.0,-0.01581138,0.046271015,-0.35902673
559441616,nan,nan,-77.7529,1.1744992,8.6535385e-07,2.5144231,6.009108,0.38233185,0.0,0.0,0.0,0.0,0.0,0.0,-0.0029144567,0.061261922,-0.35891443
559540927,nan,nan,-77.7529,1.1757789,2.8627568e-07,2.4891355,5.9701185,0.3764267,0.0,0.0,0.0,0.0,0.0,0.0,-0.0046709417,0.06219794,-0.3589194
559661103,nan,nan,-77.7529,1.1770774,7.491252e-08,2.521606,6.070178,0.37217712,0.0,0.0,0.0,0.0,0.0,0.0,-0.0026574265,0.06041533,-0.35192657
559761344,nan,nan,-77.7529,1.1770774,2.4462425e-08,2.6363695,6.3464446,0.3657074,0.0,0.0,0.0,0.0,0.0,0.0,0.0023260806,0.08501408,-0.3641762
559861434,nan,nan,-77.7529,1.1770774,8.007923e-09,2.5269363,6.0830097,0.35767365,0.0,0.0,0.0,0.0,0.0,0.0,0.0016738884,0.05683651,-0.35848325
559961909,nan,nan,-77.7529,1.1770774,2.6098452e-09,2.5689294,6.1840987,0.35191345,0.0,0.0,0.0,0.0,0.0,0.0,-0.0016672025,0.05631969,-0.36150694
560061609,nan,nan,-77.7529,1.1770774,8.576928e-10,2.545862,6.128569,0.34505463,0.0,0.0,0.0,0.0,0.0,0.0,0.0018802332,0.04812015,-0.35730243
560161585,nan,nan,-77.7529,1.1770774,2.8077796e-10,2.5742998,6.1970263,0.3361435,0.0,0.0,0.0,0.0,0.0,0.0,9.565428e-05,0.050298154,-0.35516864
560261656,nan,nan,-77.7529,1.1770774,9.19225e-11,2.731067,6.574407,0.33002472,0.0,0.0,0.0,0.0,0.0,0.0,0.0118990075,0.07403203,-0.35350072
560361692,nan,nan,-77.7529,1.1770774,3.0126807e-11,2.8161764,6.779288,0.3242035,0.0,0.0,0.0,0.0,0.0,0.0,0.012816874,0.087322064,-0.36325192
560462018,nan,nan,-77.7529,1.1770774,9.8324985e-12,2.8563025,6.875882,0.31668854,0.0,0.0,0.0,0.0,0.0,0.0,0.018931398,0.08439936,-0.35409763
560562140,nan,nan,-77.7529,1.1770774,3.2179149e-12,2.8288937,6.809902,0.3103943,0.0,0.0,0.0,0.0,0.0,0.0,0.0119229015,0.07964367,-0.35848805
560682195,nan,nan,-77.7529,1.1770774,8.4334514e-13,3.0012236,7.2247458,0.30116272,0.0,0.0,0.0,0.0,0.0,0.0,0.016025765,0.094687924,-0.36166587
560782239,nan,nan,-77.7529,1.1770774,2.7577447e-13,2.9303424,7.0541162,0.29268646,0.0,0.0,0.0,0.0,0.0,0.0,0.014166119,0.08471483,-0.36373618
560882920,nan,nan,-77.7529,1.1770774,8.967213e-14,2.909104,7.00299,0.28386688,0.0,0.0,0.0,0.0,0.0,0.0,0.0126011595,0.06738877,-0.36254779
560982494,nan,nan,-77.7529,1.1770774,2.955167e-14,2.849547,6.8596196,0.27692413,0.0,0.0,0.0,0.0,0.0,0.0,0.0032520622,0.05469537,-0.36401102
561082876,nan,nan,-77.7529,1.1770774,9.634613e-15,2.807938,6.759456,0.26987457,0.0,0.0,0.0,0.0,0.0,0.0,0.006157037,0.04731936,-0.3579281
561182536,nan,nan,-77.7529,1.1770774,3.1696257e-15,2.8579688,6.8798933,0.26319885,0.0,0.0,0.0,0.0,0.0,0.0,0.0013952691,0.053473007,-0.36425564
561282775,nan,nan,-77.7529,1.1770774,1.0368454e-15,2.8697815,6.9083295,0.25698853,0.0,0.0,0.0,0.0,0.0,0.0,0.002492241,0.048152186,-0.3565625
561382927,nan,nan,-77.7529,1.1770774,3.3884867e-16,2.8771572,6.926085,0.25260925,0.0,0.0,0.0,0.0,0.0,0.0,0.0030490968,0.046189677,-0.35783005
561482948,nan,nan,-77.7529,1.1770774,1.109644e-16,2.9032378,6.9888678,0.24874115,0.0,0.0,0.0,0.0,0.0,0.0,-0.0021508068,0.0476342,-0.35366106
561583555,nan,nan,-77.7529,1.1770774,3.6087766e-17,2.9013042,6.9842134,0.24569702,0.0,0.0,0.0,0.0,0.0,0.0,0.0015294674,0.04463341,-0.36142865
561683532,nan,nan,-77.7529,1.1770774,1.1833865e-17,2.8349123,6.82439,0.24241638,0.0,0.0,0.0,0.0,0.0,0.0,0.000534078,0.03728133,-0.3616798
561783472,nan,nan,-77.7529,1.1770774,3.878725e-18,2.8885043,6.9534,0.23711395,0.0,0.0,0.0,0.0,0.0,0.0,-0.0020716116,0.045386173,-0.36474726
561883478,nan,nan,-77.7529,1.1770774,1.2711649e-18,2.879194,6.9309883,0.23299408,0.0,0.0,0.0,0.0,0.0,0.0,-0.002069419,0.040709123,-0.35739848
562003563,nan,nan,-77.7529,1.1770774,3.32766e-19,2.8384213,6.8328376,0.23142242,0.0,0.0,0.0,0.0,0.0,0.0,-0.009041777,0.033457987,-0.35081413
562103873,nan,nan,-77.7529,1.1770774,1.087097e-19,2.8589516,6.8822594,0.23084259,0.0,0.0,0.0,0.0,0.0,0.0,-0.002748884,0.03736438,-0.35342088
562203759,nan,nan,-77.7529,1.1770774,3.5635555e-20,2.8894718,6.9557295,0.22960663,0.0,0.0,0.0,0.0,0.0,0.0,0.0001257204,0.03675835,-0.35014978
562303771,nan,nan,-77.7529,1.1770774,1.1670477e-20,2.9324667,7.05923,0.2286148,0.0,0.0,0.0,0.0,0.0,0.0,-0.00210454,0.04793326,-0.35281676
562403795,nan,nan,-77.7529,1.1770774,3.822928e-21,2.8973691,6.9747405,0.22740173,0.0,0.0,0.0,0.0,0.0,0.0,-0.008238098,0.038865484,-0.35431466
562503834,nan,nan,-77.7529,1.1770774,1.2506755e-21,2.9427958,7.0840945,0.22481537,0.0,0.0,0.0,0.0,0.0,0.0,-0.0028408482,0.04301859,-0.35135093
562603946,nan,nan,-77.7529,1.1770774,4.0924678e-22,2.939036,7.075043,0.22159576,0.0,0.0,0.0,0.0,0.0,0.0,-0.0094577,0.05047558,-0.35922644
562704063,nan,nan,-77.7529,1.1770774,1.3402137e-22,2.9921618,7.202932,0.21831512,0.0,0.0,0.0,0.0,0.0,0.0,0.0015254768,0.05041824,-0.35146475
562804259,nan,nan,-77.7529,1.1770774,4.386509e-23,2.9502223,7.101972,0.21413422,0.0,0.0,0.0,0.0,0.0,0.0,0.0047518215,0.043774627,-0.35235652
562904496,nan,nan,-77.7529,1.1770774,1.4324053e-23,2.926712,7.045377,0.21058655,0.0,0.0,0.0,0.0,0.0,0.0,-0.0039513726,0.04318628,-0.35571766
563004555,nan,nan,-77.7529,1.1770774,4.689636e-24,2.9548705,7.1131616,0.20462036,0.0,0.0,0.0,0.0,0.0,0.0,-0.0035113776,0.041115068,-0.35351762
563104641,nan,nan,-77.7529,1.1770774,1.5361809e-24,2.9599643,7.125424,0.20098877,0.0,0.0,0.0,0.0,0.0,0.0,0.00053635985,0.04240024,-0.35430703
563224912,nan,nan,-77.7529,1.1770774,4.005964e-25,2.9307551,7.0551095,0.20058441,0.0,0.0,0.0,0.0,0.0,0.0,0.00036050403,0.03983934,-0.34363875
563324744,nan,nan,-77.7529,1.1770774,1.3145712e-25,3.0046473,7.232988,0.20114899,0.0,0.0,0.0,0.0,0.0,0.0,0.00029309723,0.05470381,-0.35199964
563425292,nan,nan,-77.7529,1.1770774,4.2818313e-26,2.980012,7.1736836,0.20178986,0.0,0.0,0.0,0.0,0.0,0.0,0.0027928073,0.045760676,-0.349398
563524932,nan,nan,-77.7529,1.1770774,1.4071878e-26,2.9202356,7.0297866,0.20156097,0.0,0.0,0.0,0.0,0.0,0.0,-0.001917232,0.039618798,-0.3519999
563625160,nan,nan,-77.7529,1.1770774,4.6094822e-27,2.794525,6.727167,0.20005035,0.0,0.0,0.0,0.0,0.0,0.0,-0.010119263,0.018994844,-0.34975415
563725151,nan,nan,-77.7529,1.1770774,1.5076769e-27,2.8116896,6.7684865,0.19895172,0.0,0.0,0.0,0.0,0.0,0.0,-0.013625898,0.016400278,-0.3481951
563825317,nan,nan,-77.7529,1.1770774,4.9351647e-28,2.7528548,6.626856,0.19847107,0.0,0.0,0.0,0.0,0.0,0.0,-0.015633967,0.013096184,-0.35270944
563925830,nan,nan,-77.7529,1.1770774,1.6157399e-28,2.8394973,6.8354278,0.1980362,0.0,0.0,0.0,0.0,0.0,0.0,-0.016925646,0.033399735,-0.35255605
564025979,nan,nan,-77.7529,1.1770774,5.2471684e-29,2.9302173,7.053815,0.19813538,0.0,0.0,0.0,0.0,0.0,0.0,-0.0035997313,0.04049386,-0.34750175
564125941,nan,nan,-77.7529,1.1770774,1.722851e-29,2.7381084,6.591357,0.20121002,0.0,0.0,0.0,0.0,0.0,0.0,-0.017731173,0.021978423,-0.33728418
564226121,nan,nan,-77.7529,1.1770774,5.6314556e-30,2.7739952,6.677747,0.20349121,0.0,0.0,0.0,0.0,0.0,0.0,-0.010357017,0.02456487,-0.3435737
564325850,nan,nan,-77.7529,1.1770774,1.84981e-30,2.8133953,6.772593,0.20284271,0.0,0.0,0.0,0.0,0.0,0.0,-0.010289345,0.030272746,-0.339979
564446000,nan,nan,-77.7529,1.1770774,4.833854e-31,3.0342453,7.304238,0.19944,0.0,0.0,0.0,0.0,0.0,0.0,0.0069232923,0.0662552,-0.3441205
564546488,nan,nan,-77.7529,1.1770774,1.5731904e-31,3.102076,7.4675245,0.19634247,0.0,0.0,0.0,0.0,0.0,0.0,0.015736522,0.08038889,-0.34284002
564646167,nan,nan,-77.7529,1.1770774,5.1807345e-32,3.3235915,8.000771,0.19216919,0.0,0.0,0.0,0.0,0.0,0.0,0.024080046,0.10989377,-0.34102023
564746635,nan,nan,-77.7529,1.1770774,1.6895163e-32,3.1476083,7.5771327,0.18508148,0.0,0.0,0.0,0.0,0.0,0.0,0.021173691,0.0723359,-0.3483287
564846274,nan,nan,-77.7529,1.1770774,5.5503695e-33,3.1821659,7.6603217,0.17843628,0.0,0.0,0.0,0.0,0.0,0.0,0.011320789,0.07829076,-0.3562402
564946368,nan,nan,-77.7529,1.1770774,1.8164029e-33,3.105385,7.4754906,0.17095184,0.0,0.0,0.0,0.0,0.0,0.0,0.0045583183,0.06763536,-0.36604455
565046474,nan,nan,-77.7529,1.1770774,5.944353e-34,2.9544096,7.112052,0.16432953,0.0,0.0,0.0,0.0,0.0,0.0,-0.0044613522,0.035199642,-0.357905
565146512,nan,nan,-77.7529,1.1770774,1.9467732e-34,2.695032,6.487661,0.1568985,0.0,0.0,0.0,0.0,0.0,0.0,-0.01790096,-0.008729529,-0.35927063
565246695,nan,nan,-77.7529,1.1770774,6.378627e-35,2.7140262,6.5333853,0.14672852,0.0,0.0,0.0,0.0,0.0,0.0,-0.025008451,-0.0049256384,-0.36263666
565347027,nan,nan,-77.7529,1.1770774,2.0821367e-35,2.8534272,6.8689604,0.1424408,0.0,0.0,0.0,0.0,0.0,0.0,-0.0134021565,0.018101336,-0.35972258
565446954,nan,nan,-77.7529,1.1770774,6.822232e-36,2.7718887,6.6726756,0.14321136,0.0,0.0,0.0,0.0,0.0,0.0,-0.016577518,0.011237834,-0.35035098
565547858,nan,nan,-77.7529,1.1770774,2.2079183e-36,2.8237107,6.797425,0.14524841,0.0,0.0,0.0,0.0,0.0,0.0,-0.012801243,0.021610584,-0.34735817
565647128,nan,nan,-77.7529,1.1770774,7.303516e-37,2.5191395,6.064241,0.14593506,0.0,0.0,0.0,0.0,0.0,0.0,-0.026513383,-0.022324111,-0.34473732
565748045,nan,nan,-77.7529,1.1770774,2.3631818e-37,2.664434,6.4140034,0.14428711,0.0,0.0,0.0,0.0,0.0,0.0,-0.018096086,0.0004138425,-0.34365535
565868582,nan,nan,-77.7529,1.1770774,6.156716e-38,2.9731903,7.157263,0.14026642,0.0,0.0,0.0,0.0,0.0,0.0,-0.00080733234,0.048937377,-0.34596097
565967473,nan,nan,-77.7529,1.1770774,2.0452737e-38,3.2232492,7.759221,0.13637543,0.0,0.0,0.0,0.0,0.0,0.0,0.01869222,0.09435612,-0.3441786
566068101,nan,nan,-77.7529,1.1770774,6.643196e-39,3.3171828,7.9853435,0.13336182,0.0,0.0,0.0,0.0,0.0,0.0,0.028271733,0.11237821,-0.34303898
566167689,nan,nan,-77.7529,1.1770774,2.18936e-39,3.1961164,7.693905,0.12879944,0.0,0.0,0.0,0.0,0.0,0.0,0.012817317,0.0921592,-0.3505944
566268316,nan,nan,-77.7529,1.1770774,7.12011e-40,3.336446,8.031715,0.12205505,0.0,0.0,0.0,0.0,0.0,0.0,0.02547997,0.09951458,-0.35615352
566368168,nan,nan,-77.7529,1.1770774,2.34907e-40,3.3435524,8.048822,0.112220764,0.0,0.0,0.0,0.0,0.0,0.0,0.020327229,0.09815705,-0.35869226
566468393,nan,nan,-77.7529,1.1770774,7.6438e-41,3.1022618,7.467972,0.10366821,0.0,0.0,0.0,0.0,0.0,0.0,0.00272317,0.064579815,-0.36587706
566568506,nan,nan,-77.7529,1.1770774,2.5012e-41,2.9865353,7.1893873,0.09856415,0.0,0.0,0.0,0.0,0.0,0.0,-0.0036916619,0.032071315,-0.3613686
566668546,nan,nan,-77.7529,1.1770774,8.188e-42,2.8282382,6.808324,0.09416962,0.0,0.0,0.0,0.0,0.0,0.0,-0.023019733,0.011941753,-0.3644346
566769734,nan,nan,-77.7529,1.1770774,2.64e-42,3.0730968,7.3977637,0.09272003,0.0,0.0,0.0,0.0,0.0,0.0,-0.0014758399,0.038469754,-0.3606304
566868519,nan,nan,-77.7529,1.1770774,8.8e-43,3.064415,7.376864,0.0963974,0.0,0.0,0.0,0.0,0.0,0.0,-0.0013864122,0.040512044,-0.35117593
566969971,nan,nan,-77.7529,1.1770774,2.83e-43,3.3246117,8.003227,0.10172272,0.0,0.0,0.0,0.0,0.0,0.0,0.018134633,0.07254983,-0.35088807
567068533,nan,nan,-77.7529,1.1770774,9.4e-44,3.1887462,7.6761622,0.10441589,0.0,0.0,0.0,0.0,0.0,0.0,0.005539831,0.063781425,-0.3548212
567188631,nan,nan,-77.7529,1.1770774,2.5e-44,3.2812715,7.898896,0.105529785,0.0,0.0,0.0,0.0,0.0,0.0,0.004366707,0.07255277,-0.35659412
567288677,nan,nan,-77.7529,1.1770774,8e-45,3.1068707,7.4790664,0.10270691,0.0,0.0,0.0,0.0,0.0,0.0,-0.0036259375,0.038908355,-0.3557007
